[
  {
    "business_name": "Trustworthy Air Conditioning & Heating", 
    "business_id": "2BTSZ8PCB7xQmcWSXrI5xA", 
    "fb_pages": {
      "paging": {
        "next": "https://graph.facebook.com/search?type=place&access_token=229546593895315|yPLlHqq6YvDLIH4nL0kjJtIFSlU&limit=5000&offset=5000&__after_id=192777207494344"
      }, 
      "data": [
        {
          "category": "Home improvement", 
          "name": "Trustworthy Plumbing Heating Air Conditioning", 
          "id": "192777207494344", 
          "category_list": [
            {
              "id": "108427109235243", 
              "name": "Home Improvement"
            }
          ], 
          "location": {
            "city": "Passaic", 
            "zip": "07055", 
            "country": "United States", 
            "longitude": -74.125801100000004, 
            "state": "NJ", 
            "street": "P O Box 1365", 
            "latitude": 40.8374405
          }
        }
      ]
    }
  }, 
  {
    "business_name": "Katana Sushi & Grill", 
    "business_id": "mnJHxPTbAxhueeuh76ePZQ", 
    "fb_pages": {
      "paging": {
        "next": "https://graph.facebook.com/search?type=place&access_token=229546593895315|yPLlHqq6YvDLIH4nL0kjJtIFSlU&limit=5000&offset=5000&__after_id=143988865626127"
      }, 
      "data": [
        {
          "category": "Local business", 
          "name": "Katana Sushi e Massas", 
          "id": "120751561332975", 
          "category_list": [
            {
              "id": "134501539950711", 
              "name": "Sushi Restaurant"
            }
          ], 
          "location": {
            "city": "Jo\u00e3o Pessoa", 
            "zip": "", 
            "country": "Brazil", 
            "longitude": -34.830979107516001, 
            "state": "", 
            "street": "Av Bananeiras, 441", 
            "latitude": -7.1086999820288996
          }
        }, 
        {
          "category": "Restaurant/cafe", 
          "name": "Sushi Katana", 
          "id": "160985853967797", 
          "category_list": [
            {
              "id": "134501539950711", 
              "name": "Sushi Restaurant"
            }
          ], 
          "location": {
            "city": "Orlando", 
            "zip": "32839", 
            "country": "United States", 
            "longitude": -81.429555208853003, 
            "state": "FL", 
            "street": "4192 Conroy Rd Ste 103", 
            "latitude": 28.488554915066
          }
        }, 
        {
          "category": "Local business", 
          "name": "Katana Sushi & Sake", 
          "id": "113406975359214", 
          "category_list": [
            {
              "id": "134501539950711", 
              "name": "Sushi Restaurant"
            }
          ], 
          "location": {
            "city": "Sunnyvale", 
            "zip": "94087-1939", 
            "country": "United States", 
            "longitude": -122.02803880414, 
            "state": "CA", 
            "street": "411 E El Camino Real", 
            "latitude": 37.365619439531997
          }
        }, 
        {
          "category": "Local business", 
          "name": "Katana Sushi", 
          "id": "117006651650610", 
          "category_list": [
            {
              "id": "134501539950711", 
              "name": "Sushi Restaurant"
            }
          ], 
          "location": {
            "city": "Clarksville", 
            "zip": "21029-1135", 
            "country": "United States", 
            "longitude": -76.945252442991006, 
            "state": "MD", 
            "street": "6343 Ten Oaks Rd", 
            "latitude": 39.206461212199997
          }
        }, 
        {
          "category": "Local business", 
          "name": "Katana", 
          "id": "111695938867444", 
          "category_list": [
            {
              "id": "134501539950711", 
              "name": "Sushi Restaurant"
            }
          ], 
          "location": {
            "city": "Wilkes-Barre", 
            "zip": "18701-1722", 
            "country": "United States", 
            "longitude": -75.884027728966998, 
            "state": "PA", 
            "street": "41 S Main St Ste 6", 
            "latitude": 41.244918333375999
          }
        }, 
        {
          "category": "Local business", 
          "name": "Katana Sushi & Ramen", 
          "id": "117084291643235", 
          "category_list": [
            {
              "id": "134501539950711", 
              "name": "Sushi Restaurant"
            }, 
            {
              "id": "218838724804749", 
              "name": "Ramen Restaurant"
            }
          ], 
          "location": {
            "city": "Hacienda Heights", 
            "zip": "91745-6302", 
            "country": "United States", 
            "longitude": -117.97382167695, 
            "state": "CA", 
            "street": "3107 Colima Rd", 
            "latitude": 33.981466374367997
          }
        }, 
        {
          "category": "Restaurant/cafe", 
          "name": "Katana Sushi", 
          "id": "731950386818914", 
          "category_list": [
            {
              "id": "199035016778342", 
              "name": "Japanese Restaurant"
            }
          ], 
          "location": {
            "city": "Fez", 
            "zip": "30 000", 
            "country": "Morocco", 
            "longitude": -5.0029929486000002, 
            "state": "", 
            "street": "N1 Bloc A, Derb Chraibi, Ain Amyer, Route d'immouzer", 
            "latitude": 34.0128549605
          }
        }, 
        {
          "category": "Local business", 
          "name": "Katana Sushi Bar", 
          "id": "142799275787902", 
          "category_list": [
            {
              "id": "134501539950711", 
              "name": "Sushi Restaurant"
            }
          ], 
          "location": {
            "city": "Santiago", 
            "zip": "", 
            "country": "Chile", 
            "longitude": -70.752379474188004, 
            "state": "", 
            "street": "", 
            "latitude": -33.485767961922001
          }
        }, 
        {
          "category": "Local business", 
          "name": "Katana Sushi", 
          "id": "214773395201219", 
          "category_list": [
            {
              "id": "134501539950711", 
              "name": "Sushi Restaurant"
            }
          ], 
          "location": {
            "city": "Aguascalientes", 
            "zip": "", 
            "country": "Mexico", 
            "longitude": -102.29156728946, 
            "state": "", 
            "street": "", 
            "latitude": 21.865487909329001
          }
        }, 
        {
          "category": "Local business", 
          "name": "Katana Sushi", 
          "id": "315897945161926", 
          "category_list": [
            {
              "id": "134501539950711", 
              "name": "Sushi Restaurant"
            }
          ], 
          "location": {
            "city": "Tijuana", 
            "zip": "", 
            "country": "Mexico", 
            "longitude": -116.91710100500001, 
            "state": "", 
            "street": "", 
            "latitude": 32.498721991399997
          }
        }, 
        {
          "category": "Local business", 
          "name": "Katana Sushi of Elkridge", 
          "id": "111540115553433", 
          "category_list": [
            {
              "id": "134501539950711", 
              "name": "Sushi Restaurant"
            }
          ], 
          "location": {
            "city": "Elkridge", 
            "zip": "21075-5991", 
            "country": "United States", 
            "longitude": -76.777743213918995, 
            "state": "MD", 
            "street": "6060 Marshalee Dr", 
            "latitude": 39.208860873977997
          }
        }, 
        {
          "category": "Restaurant/cafe", 
          "name": "Katana Sushi Comida Japonesa", 
          "id": "370477956334957", 
          "category_list": [
            {
              "id": "199035016778342", 
              "name": "Japanese Restaurant"
            }
          ], 
          "location": {
            "city": "Tijuana", 
            "zip": "Tel 625-3436 Radio 152*1013403*1", 
            "country": "Mexico", 
            "longitude": -116.917181152, 
            "state": "", 
            "street": "Plaza Ravello-Pemex (frente a Plaza Monarca Tijuana) Calle Punta  #19452 Col. Ampliaci\u00f3n Guaycura CP 22214", 
            "latitude": 32.4987327503
          }
        }, 
        {
          "category": "Local business", 
          "name": "Katana", 
          "id": "120256814653230", 
          "category_list": [
            {
              "id": "134501539950711", 
              "name": "Sushi Restaurant"
            }, 
            {
              "id": "133436743388217", 
              "name": "Arts & Entertainment"
            }, 
            {
              "id": "110290705711626", 
              "name": "Bar"
            }
          ], 
          "location": {
            "city": "West Hollywood", 
            "zip": "90069-1925", 
            "country": "United States", 
            "longitude": -118.37426076238, 
            "state": "CA", 
            "street": "8439 W Sunset Blvd Ste 100", 
            "latitude": 34.094904468495002
          }
        }, 
        {
          "category": "Local business", 
          "name": "Katana Sushi Bar", 
          "id": "229000507192635", 
          "category_list": [
            {
              "id": "134501539950711", 
              "name": "Sushi Restaurant"
            }
          ], 
          "location": {
            "city": "Lima", 
            "zip": "", 
            "country": "Peru", 
            "longitude": -77.055749307599996, 
            "state": "", 
            "street": "", 
            "latitude": -12.0876436653
          }
        }, 
        {
          "category": "Food/beverages", 
          "name": "Katana Sushi", 
          "id": "100103740182386", 
          "category_list": [
            {
              "id": "134501539950711", 
              "name": "Sushi Restaurant"
            }
          ], 
          "location": {
            "city": "Novo Hamburgo", 
            "zip": "", 
            "country": "Brazil", 
            "longitude": -51.112244363199999, 
            "state": "", 
            "street": "Rua Oscar Ludwig, 694, Jardim Mau\u00e1", 
            "latitude": -29.6762004369
          }
        }, 
        {
          "category": "Local business", 
          "name": "Katana Sushi Bar", 
          "id": "115585158470811", 
          "category_list": [
            {
              "id": "134501539950711", 
              "name": "Sushi Restaurant"
            }
          ], 
          "location": {
            "city": "Mount Airy", 
            "zip": "21771-5451", 
            "country": "United States", 
            "longitude": -77.164875192037996, 
            "state": "MD", 
            "street": "1311 S Main St Ste 102", 
            "latitude": 39.366808908147
          }
        }, 
        {
          "category": "Local business", 
          "name": "Katana", 
          "id": "195374170504974", 
          "category_list": [
            {
              "id": "134501539950711", 
              "name": "Sushi Restaurant"
            }
          ], 
          "location": {
            "city": "Dover", 
            "zip": "44622", 
            "country": "United States", 
            "longitude": -81.463441029663997, 
            "state": "OH", 
            "street": "515 Union Ave. #133", 
            "latitude": 40.508374251503
          }
        }, 
        {
          "category": "Local business", 
          "name": "Katana Sushi", 
          "id": "113549738679597", 
          "category_list": [
            {
              "id": "134501539950711", 
              "name": "Sushi Restaurant"
            }, 
            {
              "id": "150108431712141", 
              "name": "Food & Grocery"
            }
          ], 
          "location": {
            "city": "Alexandria", 
            "zip": "22315-3829", 
            "country": "United States", 
            "longitude": -77.139851803840997, 
            "state": "VA", 
            "street": "7588 Telegraph Rd", 
            "latitude": 38.752781467797
          }
        }, 
        {
          "category": "Restaurant/cafe", 
          "name": "Katana Sushi & Grill in Fountain Hills", 
          "id": "163333120353890", 
          "category_list": [
            {
              "id": "174201535963762", 
              "name": "Asian Fusion Restaurant"
            }, 
            {
              "id": "150896171638138", 
              "name": "Korean Restaurant"
            }, 
            {
              "id": "134501539950711", 
              "name": "Sushi Restaurant"
            }
          ], 
          "location": {
            "city": "Fountain Hills", 
            "zip": "85268", 
            "country": "United States", 
            "longitude": -111.72538223213, 
            "state": "AZ", 
            "street": "16425 E. Palisades Blvd., #103 ", 
            "latitude": 33.609642266435003
          }
        }, 
        {
          "category": "Local business", 
          "name": "Katana", 
          "id": "183094708406501", 
          "category_list": [
            {
              "id": "134501539950711", 
              "name": "Sushi Restaurant"
            }, 
            {
              "id": "198367566846946", 
              "name": "Steakhouse"
            }
          ], 
          "location": {
            "city": "Royal Oak", 
            "zip": "48067", 
            "country": "United States", 
            "longitude": -83.144069516200005, 
            "state": "MI", 
            "street": "", 
            "latitude": 42.489438384499998
          }
        }, 
        {
          "category": "Local business", 
          "name": "Katana", 
          "id": "115615855127554", 
          "category_list": [
            {
              "id": "134501539950711", 
              "name": "Sushi Restaurant"
            }
          ], 
          "location": {
            "city": "Norfolk", 
            "zip": "23517-1950", 
            "country": "United States", 
            "longitude": -76.292760499099003, 
            "state": "VA", 
            "street": "520 W 21st St Ste E", 
            "latitude": 36.869975231326997
          }
        }, 
        {
          "category": "Restaurant/cafe", 
          "name": "Katana Sushi Bar & Delivery", 
          "id": "562880947107943", 
          "category_list": [
            {
              "id": "134501539950711", 
              "name": "Sushi Restaurant"
            }
          ], 
          "location": {
            "city": "Curitiba", 
            "zip": "", 
            "country": "Brazil", 
            "longitude": -49.248549871599998, 
            "state": "", 
            "street": "Rua Desembargador Antonio de Paula, 3374", 
            "latitude": -25.5164271652
          }
        }, 
        {
          "category": "Restaurant/cafe", 
          "name": "Katana Sushi & Grill", 
          "id": "335566529849725", 
          "category_list": [
            {
              "id": "174201535963762", 
              "name": "Asian Fusion Restaurant"
            }, 
            {
              "id": "233804719972590", 
              "name": "Bar & Grill"
            }, 
            {
              "id": "134501539950711", 
              "name": "Sushi Restaurant"
            }
          ], 
          "location": {
            "city": "Stockholm", 
            "zip": "11215", 
            "country": "Sweden", 
            "longitude": 18.005068838370001, 
            "state": "", 
            "street": "Moa Martinsons Torg 12", 
            "latitude": 59.339736327318001
          }
        }, 
        {
          "category": "Restaurant/cafe", 
          "name": "Katana Sushi Bar", 
          "id": "157901104268654", 
          "category_list": [
            {
              "id": "179167895459033", 
              "name": "Thai Restaurant"
            }, 
            {
              "id": "163300367054197", 
              "name": "Seafood Restaurant"
            }, 
            {
              "id": "174201535963762", 
              "name": "Asian Fusion Restaurant"
            }
          ], 
          "location": {
            "city": "Sheboygan", 
            "zip": "53081", 
            "country": "United States", 
            "longitude": -87.715594415145006, 
            "state": "WI", 
            "street": "920 Michigan Avenue", 
            "latitude": 43.758633722336
          }
        }, 
        {
          "category": "Restaurant/cafe", 
          "name": "Katana Culin\u00e1ria Japonesa", 
          "id": "290267091073863", 
          "category_list": [
            {
              "id": "134501539950711", 
              "name": "Sushi Restaurant"
            }
          ], 
          "location": {
            "city": "Americana", 
            "zip": "13466-520", 
            "country": "Brazil", 
            "longitude": -47.336427439570002, 
            "state": "", 
            "street": "Rua das Tulipas, 25", 
            "latitude": -22.756348674746
          }
        }, 
        {
          "category": "Local business", 
          "name": "Katana Sushi", 
          "id": "245018432197227", 
          "category_list": [
            {
              "id": "134501539950711", 
              "name": "Sushi Restaurant"
            }
          ], 
          "location": {
            "city": "Mazatl\u00e1n", 
            "zip": "", 
            "country": "Mexico", 
            "longitude": -106.419847451, 
            "state": "", 
            "street": "", 
            "latitude": 23.202311418400001
          }
        }, 
        {
          "category": "Local business", 
          "name": "Katana Sushi", 
          "id": "116668681732593", 
          "category_list": [
            {
              "id": "134501539950711", 
              "name": "Sushi Restaurant"
            }
          ], 
          "location": {
            "city": "Miami Beach", 
            "zip": "33141", 
            "country": "United States", 
            "longitude": -80.128292468300003, 
            "state": "FL", 
            "street": "", 
            "latitude": 25.855483167900001
          }
        }, 
        {
          "category": "Local business", 
          "name": "KatanaSushi", 
          "id": "210825632281369", 
          "category_list": [
            {
              "id": "134501539950711", 
              "name": "Sushi Restaurant"
            }
          ], 
          "location": {
            "latitude": 21.882062639962001, 
            "street": "", 
            "zip": "", 
            "longitude": -102.31808198227
          }
        }, 
        {
          "category": "Local business", 
          "name": "Katana", 
          "id": "100815480010101", 
          "category_list": [
            {
              "id": "134501539950711", 
              "name": "Sushi Restaurant"
            }
          ], 
          "location": {
            "latitude": 40.8542668021, 
            "street": "", 
            "zip": "44718", 
            "longitude": -81.432427241200003
          }
        }, 
        {
          "category": "Restaurant/cafe", 
          "name": "Katana Sushi", 
          "id": "1406804772899603", 
          "category_list": [
            {
              "id": "134501539950711", 
              "name": "Sushi Restaurant"
            }
          ], 
          "location": {
            "city": "Everett", 
            "zip": "98201", 
            "country": "United States", 
            "longitude": -122.192559546, 
            "state": "WA", 
            "street": "2818 Hewitt Avenue", 
            "latitude": 47.979096319299998
          }
        }, 
        {
          "category": "Restaurant/cafe", 
          "name": "Katana Teppanyaki Grill", 
          "id": "266776500865", 
          "category_list": [
            {
              "id": "134501539950711", 
              "name": "Sushi Restaurant"
            }
          ], 
          "location": {
            "city": "Las Cruces", 
            "zip": "88001-6602", 
            "country": "United States", 
            "longitude": -106.75620106421999, 
            "state": "NM", 
            "street": "1001 East University Avenue", 
            "latitude": 32.284454431632
          }
        }, 
        {
          "category": "Restaurant/cafe", 
          "name": "Katana Japanese Fusion", 
          "id": "211043875590208", 
          "category_list": [
            {
              "id": "134501539950711", 
              "name": "Sushi Restaurant"
            }
          ], 
          "location": {
            "city": "Salisbury", 
            "zip": "28147", 
            "country": "United States", 
            "longitude": -80.501152086700998, 
            "state": "NC", 
            "street": "475 Jake Alexander Blvd W#101", 
            "latitude": 35.659438442107998
          }
        }, 
        {
          "category": "Local business", 
          "name": "Katana Sushi", 
          "id": "185414751475572", 
          "category_list": [
            {
              "id": "2500", 
              "name": "Local Business"
            }
          ], 
          "location": {
            "city": "South Jordan", 
            "zip": "84095", 
            "country": "United States", 
            "longitude": -111.92260968799999, 
            "state": "UT", 
            "street": "", 
            "latitude": 40.561344446699998
          }
        }, 
        {
          "category": "Local business", 
          "name": "Katana Rolls", 
          "id": "523285877690930", 
          "category_list": [
            {
              "id": "134501539950711", 
              "name": "Sushi Restaurant"
            }
          ], 
          "location": {
            "city": "Talca", 
            "zip": "", 
            "country": "Chile", 
            "longitude": -71.655426562499997, 
            "state": "", 
            "street": "", 
            "latitude": -35.424799827699999
          }
        }, 
        {
          "category": "Local business", 
          "name": "Little Katana", 
          "id": "117568381602527", 
          "category_list": [
            {
              "id": "134501539950711", 
              "name": "Sushi Restaurant"
            }
          ], 
          "location": {
            "city": "Dallas", 
            "zip": "75240-5061", 
            "country": "United States", 
            "longitude": -96.819607015220001, 
            "state": "TX", 
            "street": "13375 Noel Rd", 
            "latitude": 32.929979856955001
          }
        }, 
        {
          "category": "Local business", 
          "name": "Katana Sushi & Hibachi", 
          "id": "333633440059302", 
          "category_list": [
            {
              "id": "134501539950711", 
              "name": "Sushi Restaurant"
            }
          ], 
          "location": {
            "city": "Dormont", 
            "zip": "15216", 
            "country": "United States", 
            "longitude": -80.031909619123994, 
            "state": "PA", 
            "street": "", 
            "latitude": 40.386962855515002
          }
        }, 
        {
          "category": "Restaurant/cafe", 
          "name": "Katana Sushi Hamburg", 
          "id": "275213852534396", 
          "category_list": [
            {
              "id": "134501539950711", 
              "name": "Sushi Restaurant"
            }
          ], 
          "location": {
            "city": "Hamburg", 
            "zip": "20459", 
            "country": "Germany", 
            "longitude": 9.9803638590000006, 
            "state": "", 
            "street": "Gro\u00dfneumarkt 52", 
            "latitude": 53.550423609399999
          }
        }, 
        {
          "category": "Restaurant/cafe", 
          "name": "Katana sushi bar and tapas", 
          "id": "609546939094790", 
          "category_list": [
            {
              "id": "134501539950711", 
              "name": "Sushi Restaurant"
            }
          ], 
          "location": {
            "city": "Chichiriviche", 
            "zip": "2054", 
            "country": "Venezuela", 
            "longitude": -68.268600000000006, 
            "state": "", 
            "street": "Av. Cuare, cruce con calle La Fe. Sector Playa Sur. \u00b7 Chichiriviche, Falcon, Venezuela", 
            "latitude": 10.9328
          }
        }, 
        {
          "category": "Food/grocery", 
          "name": "Katana Sushi Rolls", 
          "id": "140350366168429", 
          "category_list": [
            {
              "id": "150108431712141", 
              "name": "Food & Grocery"
            }
          ], 
          "location": {
            "city": "Santa Cruz de la Sierra", 
            "zip": "", 
            "country": "Bolivia", 
            "longitude": -63.166699999999999, 
            "state": "", 
            "street": "S/N", 
            "latitude": -17.800000000000001
          }
        }, 
        {
          "category": "Local business", 
          "name": "Katana", 
          "id": "294250670675511", 
          "category_list": [
            {
              "id": "134501539950711", 
              "name": "Sushi Restaurant"
            }
          ], 
          "location": {
            "city": "Bangkok", 
            "zip": "", 
            "country": "Thailand", 
            "longitude": 100.581653153, 
            "state": "", 
            "street": "", 
            "latitude": 13.730968237600001
          }
        }, 
        {
          "category": "Restaurant/cafe", 
          "name": "Sushi Katana", 
          "id": "213742801993517", 
          "category_list": [
            {
              "id": "193831710644458", 
              "name": "Italian Restaurant"
            }, 
            {
              "id": "174201535963762", 
              "name": "Asian Fusion Restaurant"
            }, 
            {
              "id": "134501539950711", 
              "name": "Sushi Restaurant"
            }
          ], 
          "location": {
            "city": "Louisville", 
            "zip": "80027", 
            "country": "United States", 
            "longitude": -105.164162, 
            "state": "CO", 
            "street": "269 McCaslin Boulevard", 
            "latitude": 39.967731000000001
          }
        }, 
        {
          "category": "Restaurant/cafe", 
          "name": "Sushi Roku - Katana - BOA Steakhouse (Innovative Dining Group)", 
          "id": "59364156722", 
          "category_list": [
            {
              "id": "273819889375819", 
              "name": "Restaurant"
            }
          ], 
          "location": {
            "city": "West Hollywood", 
            "zip": "90069", 
            "country": "United States", 
            "longitude": -118.392723, 
            "state": "CA", 
            "street": "9200 Sunset Blvd", 
            "latitude": 34.089827999999997
          }
        }, 
        {
          "category": "Local business", 
          "name": "Koto Katana Japanese Steak House", 
          "id": "329488807091223", 
          "category_list": [
            {
              "id": "134501539950711", 
              "name": "Sushi Restaurant"
            }, 
            {
              "id": "110107385737667", 
              "name": "New American Restaurant"
            }
          ], 
          "location": {
            "city": "Columbia", 
            "zip": "21044", 
            "country": "United States", 
            "longitude": -76.883552078600005, 
            "state": "MD", 
            "street": "", 
            "latitude": 39.195433169899999
          }
        }, 
        {
          "category": "Local business", 
          "name": "Katanas Sushi Colosio", 
          "id": "202524813104695", 
          "category_list": [
            {
              "id": "134501539950711", 
              "name": "Sushi Restaurant"
            }
          ], 
          "location": {
            "city": "Aguascalientes", 
            "zip": "20120", 
            "country": "Mexico", 
            "longitude": -102.30472030518, 
            "state": "", 
            "street": "Prolongaci\u00f3n Zaragoza #424 -A  Plaza Petit Mall", 
            "latitude": 21.923970462141
          }
        }, 
        {
          "category": "Restaurant/cafe", 
          "name": "Katana - Japanese Sushi Grill, Chinese & more - Elkridge, MD", 
          "id": "143988865626127", 
          "category_list": [
            {
              "id": "134501539950711", 
              "name": "Sushi Restaurant"
            }
          ], 
          "location": {
            "city": "Elkridge", 
            "zip": "21075", 
            "country": "United States", 
            "longitude": -76.777762986400006, 
            "state": "MD", 
            "street": "6060 Marshalee Dr.", 
            "latitude": 39.208832560399998
          }
        }
      ]
    }
  }, 
  {
    "business_name": "Park Avenue Cleaners", 
    "business_id": "MJFQJCbA71OO7ugFY4cb4Q", 
    "fb_pages": {
      "paging": {
        "next": "https://graph.facebook.com/search?type=place&access_token=229546593895315|yPLlHqq6YvDLIH4nL0kjJtIFSlU&limit=5000&offset=5000&__after_id=158294334315681"
      }, 
      "data": [
        {
          "category": "Local business", 
          "name": "Park Avenue Cleaners", 
          "id": "192319060831800", 
          "category_list": [
            {
              "id": "133148010085253", 
              "name": "Dry Cleaner"
            }
          ], 
          "location": {
            "city": "Dublin", 
            "zip": "94568", 
            "country": "United States", 
            "longitude": -121.92164, 
            "state": "CA", 
            "street": "7104 Dublin Blvd", 
            "latitude": 37.705540999999997
          }
        }, 
        {
          "category": "Local business", 
          "name": "Park Avenue Cleaners", 
          "id": "333587084655", 
          "category_list": [
            {
              "id": "133148010085253", 
              "name": "Dry Cleaner"
            }
          ], 
          "location": {
            "city": "Beaumont", 
            "zip": "77702", 
            "country": "United States", 
            "longitude": -94.127441000000005, 
            "state": "TX", 
            "street": "2608 Calder ", 
            "latitude": 30.085951000000001
          }
        }, 
        {
          "category": "Local business", 
          "name": "Park Avenue Cleaners", 
          "id": "116644601728039", 
          "category_list": [
            {
              "id": "133148010085253", 
              "name": "Dry Cleaner"
            }
          ], 
          "location": {
            "city": "Port Arthur", 
            "zip": "77642-8025", 
            "country": "United States", 
            "longitude": -93.984133999999997, 
            "state": "TX", 
            "street": "8649 9th Ave", 
            "latitude": 29.952642999999998
          }
        }, 
        {
          "category": "Local business", 
          "name": "Park Avenue Cleaners", 
          "id": "103450013055451", 
          "category_list": [
            {
              "id": "133148010085253", 
              "name": "Dry Cleaner"
            }
          ], 
          "location": {
            "city": "Orange", 
            "zip": "92866-3426", 
            "country": "United States", 
            "longitude": -117.835121, 
            "state": "CA", 
            "street": "849 S Tustin St", 
            "latitude": 33.774394999999998
          }
        }, 
        {
          "category": "Local business", 
          "name": "Park Avenue Cleaners", 
          "id": "104798182920936", 
          "category_list": [
            {
              "id": "186564191378474", 
              "name": "Cleaning Service"
            }, 
            {
              "id": "133148010085253", 
              "name": "Dry Cleaner"
            }
          ], 
          "location": {
            "city": "Trenton", 
            "zip": "08610-5040", 
            "country": "United States", 
            "longitude": -74.724266999999998, 
            "state": "NJ", 
            "street": "19 E Park Ave", 
            "latitude": 40.196882000000002
          }
        }, 
        {
          "category": "Local business", 
          "name": "Park Avenue Cleaners", 
          "id": "110737452322879", 
          "category_list": [
            {
              "id": "133148010085253", 
              "name": "Dry Cleaner"
            }
          ], 
          "location": {
            "city": "Tampa", 
            "zip": "33618-4134", 
            "country": "United States", 
            "longitude": -82.505240999999998, 
            "state": "FL", 
            "street": "10428 N Dale Mabry Hwy", 
            "latitude": 28.046263
          }
        }, 
        {
          "category": "Local business", 
          "name": "Park Avenue Cleaners", 
          "id": "110883898976069", 
          "category_list": [
            {
              "id": "133148010085253", 
              "name": "Dry Cleaner"
            }
          ], 
          "location": {
            "city": "Petaluma", 
            "zip": "94954-8300", 
            "country": "United States", 
            "longitude": -122.629998, 
            "state": "CA", 
            "street": "231 N Mcdowell Blvd", 
            "latitude": 38.251334999999997
          }
        }, 
        {
          "category": "Local business", 
          "name": "Park Avenue Cleaners", 
          "id": "126244764096819", 
          "category_list": [
            {
              "id": "133148010085253", 
              "name": "Dry Cleaner"
            }
          ], 
          "location": {
            "city": "Alamo", 
            "zip": "94507-1958", 
            "country": "United States", 
            "longitude": -122.03079099999999, 
            "state": "CA", 
            "street": "1487 Danville Blvd", 
            "latitude": 37.847084000000002
          }
        }, 
        {
          "category": "Local business", 
          "name": "Park Avenue Cleaners", 
          "id": "136980429682794", 
          "category_list": [
            {
              "id": "133148010085253", 
              "name": "Dry Cleaner"
            }
          ], 
          "location": {
            "city": "Oak Park", 
            "zip": "60304-1244", 
            "country": "United States", 
            "longitude": -87.794241999999997, 
            "state": "IL", 
            "street": "817 S Oak Park Ave", 
            "latitude": 41.873510000000003
          }
        }, 
        {
          "category": "Local business", 
          "name": "Park Avenue Cleaners", 
          "id": "138089969571594", 
          "category_list": [
            {
              "id": "133148010085253", 
              "name": "Dry Cleaner"
            }
          ], 
          "location": {
            "city": "Pleasant Hill", 
            "zip": "94523-3036", 
            "country": "United States", 
            "longitude": -122.060402, 
            "state": "CA", 
            "street": "1643 Contra Costa Blvd", 
            "latitude": 37.954163999999999
          }
        }, 
        {
          "category": "Local business", 
          "name": "Park Avenue Cleaners", 
          "id": "138267936220337", 
          "category_list": [
            {
              "id": "133148010085253", 
              "name": "Dry Cleaner"
            }, 
            {
              "id": "286280034782160", 
              "name": "Laundromat"
            }
          ], 
          "location": {
            "city": "Tracy", 
            "zip": "95376-1768", 
            "country": "United States", 
            "longitude": -121.43423900000001, 
            "state": "CA", 
            "street": "2529 N Tracy Blvd", 
            "latitude": 37.754939
          }
        }, 
        {
          "category": "Local business", 
          "name": "Park Avenue Cleaners", 
          "id": "138612532852503", 
          "category_list": [
            {
              "id": "133148010085253", 
              "name": "Dry Cleaner"
            }
          ], 
          "location": {
            "city": "Northridge", 
            "zip": "91326-3507", 
            "country": "United States", 
            "longitude": -118.523493, 
            "state": "CA", 
            "street": "10313 Zelzah Ave", 
            "latitude": 34.257955000000003
          }
        }, 
        {
          "category": "Local business", 
          "name": "Park Avenue Cleaners", 
          "id": "142688219110387", 
          "category_list": [
            {
              "id": "140784189318631", 
              "name": "Sewing & Seamstress"
            }, 
            {
              "id": "133148010085253", 
              "name": "Dry Cleaner"
            }
          ], 
          "location": {
            "city": "Crowley", 
            "zip": "70526-4306", 
            "country": "United States", 
            "longitude": -92.375168000000002, 
            "state": "LA", 
            "street": "701 N Parkerson Ave", 
            "latitude": 30.216469
          }
        }, 
        {
          "category": "Local business", 
          "name": "Park Avenue Cleaners", 
          "id": "149525455091229", 
          "category_list": [
            {
              "id": "133148010085253", 
              "name": "Dry Cleaner"
            }
          ], 
          "location": {
            "city": "Casselberry", 
            "zip": "32707-5632", 
            "country": "United States", 
            "longitude": -81.326149000000001, 
            "state": "FL", 
            "street": "905 State Road 436", 
            "latitude": 28.649159999999998
          }
        }, 
        {
          "category": "Local business", 
          "name": "Park Avenue Cleaners", 
          "id": "153315978043445", 
          "category_list": [
            {
              "id": "133148010085253", 
              "name": "Dry Cleaner"
            }
          ], 
          "location": {
            "city": "Corona", 
            "zip": "92879-6564", 
            "country": "United States", 
            "longitude": -117.515604, 
            "state": "CA", 
            "street": "129 N Mckinley St Ste 101", 
            "latitude": 33.883901000000002
          }
        }, 
        {
          "category": "Local business", 
          "name": "Park Avenue Cleaners", 
          "id": "153855371319003", 
          "category_list": [
            {
              "id": "133148010085253", 
              "name": "Dry Cleaner"
            }
          ], 
          "location": {
            "city": "Lynchburg", 
            "zip": "24501-1829", 
            "country": "United States", 
            "longitude": -79.155288999999996, 
            "state": "VA", 
            "street": "1603 Park Ave", 
            "latitude": 37.407367999999998
          }
        }, 
        {
          "category": "Local business", 
          "name": "Park Avenue Cleaners", 
          "id": "156250724415279", 
          "category_list": [
            {
              "id": "133148010085253", 
              "name": "Dry Cleaner"
            }
          ], 
          "location": {
            "city": "Newark", 
            "zip": "07107-2351", 
            "country": "United States", 
            "longitude": -74.186515999999997, 
            "state": "NJ", 
            "street": "258 Park Ave", 
            "latitude": 40.758747
          }
        }, 
        {
          "category": "Local business", 
          "name": "Park Avenue Cleaners", 
          "id": "157063047658176", 
          "category_list": [
            {
              "id": "133148010085253", 
              "name": "Dry Cleaner"
            }
          ], 
          "location": {
            "city": "Tampa", 
            "zip": "33609-2814", 
            "country": "United States", 
            "longitude": -82.506103999999993, 
            "state": "FL", 
            "street": "107 S Dale Mabry Hwy", 
            "latitude": 27.944323000000001
          }
        }, 
        {
          "category": "Local business", 
          "name": "Park Avenue Cleaners", 
          "id": "157163777647334", 
          "category_list": [
            {
              "id": "133148010085253", 
              "name": "Dry Cleaner"
            }
          ], 
          "location": {
            "city": "Melbourne", 
            "zip": "32901", 
            "country": "United States", 
            "longitude": -80.607540999999998, 
            "state": "FL", 
            "street": "1268 S Harbor City Blvd", 
            "latitude": 28.088452
          }
        }, 
        {
          "category": "Local business", 
          "name": "Park Avenue Cleaners", 
          "id": "160559383964692", 
          "category_list": [
            {
              "id": "133148010085253", 
              "name": "Dry Cleaner"
            }
          ], 
          "location": {
            "city": "Orange", 
            "zip": "77632-4612", 
            "country": "United States", 
            "longitude": -93.747810999999999, 
            "state": "TX", 
            "street": "3777 N 16th St", 
            "latitude": 30.125108000000001
          }
        }, 
        {
          "category": "Local business", 
          "name": "Park Avenue Cleaners", 
          "id": "162495270442379", 
          "category_list": [
            {
              "id": "133148010085253", 
              "name": "Dry Cleaner"
            }
          ], 
          "location": {
            "city": "Livermore", 
            "zip": "94550-4009", 
            "country": "United States", 
            "longitude": -121.784897, 
            "state": "CA", 
            "street": "981 E Stanley Blvd", 
            "latitude": 37.677852999999999
          }
        }, 
        {
          "category": "Local business", 
          "name": "Park Avenue Cleaners", 
          "id": "162761303753646", 
          "category_list": [
            {
              "id": "133148010085253", 
              "name": "Dry Cleaner"
            }, 
            {
              "id": "192511100766680", 
              "name": "Movie Theatre"
            }
          ], 
          "location": {
            "city": "Tucson", 
            "zip": "85710-1606", 
            "country": "United States", 
            "longitude": -110.82617999999999, 
            "state": "AZ", 
            "street": "7794 E Speedway Blvd", 
            "latitude": 32.234760000000001
          }
        }, 
        {
          "category": "Local business", 
          "name": "Park Avenue Cleaners", 
          "id": "163470000347551", 
          "category_list": [
            {
              "id": "133148010085253", 
              "name": "Dry Cleaner"
            }
          ], 
          "location": {
            "city": "Manteca", 
            "zip": "95337-5125", 
            "country": "United States", 
            "longitude": -121.236019, 
            "state": "CA", 
            "street": "1265 W Yosemite Ave", 
            "latitude": 37.797555000000003
          }
        }, 
        {
          "category": "Local business", 
          "name": "Park Avenue Cleaners", 
          "id": "164884656870642", 
          "category_list": [
            {
              "id": "133148010085253", 
              "name": "Dry Cleaner"
            }
          ], 
          "location": {
            "city": "Rockwall", 
            "zip": "75032-5803", 
            "country": "United States", 
            "longitude": -96.472868000000005, 
            "state": "TX", 
            "street": "2910 Ridge Rd", 
            "latitude": 32.890371999999999
          }
        }, 
        {
          "category": "Local business", 
          "name": "Park Avenue Cleaners", 
          "id": "169281243086786", 
          "category_list": [
            {
              "id": "133148010085253", 
              "name": "Dry Cleaner"
            }
          ], 
          "location": {
            "city": "Sterling Heights", 
            "zip": "48310-1716", 
            "country": "United States", 
            "longitude": -83.070594999999997, 
            "state": "MI", 
            "street": "40824 Ryan Rd", 
            "latitude": 42.592570000000002
          }
        }, 
        {
          "category": "Local business", 
          "name": "Park Avenue Cleaners", 
          "id": "169656223048614", 
          "category_list": [
            {
              "id": "133148010085253", 
              "name": "Dry Cleaner"
            }, 
            {
              "id": "150060378385891", 
              "name": "Appliances"
            }
          ], 
          "location": {
            "city": "Brentwood", 
            "zip": "94513-5513", 
            "country": "United States", 
            "longitude": -121.722932, 
            "state": "CA", 
            "street": "3120 Balfour Rd", 
            "latitude": 37.925128999999998
          }
        }, 
        {
          "category": "Local business", 
          "name": "Park Avenue Cleaners", 
          "id": "201121503239177", 
          "category_list": [
            {
              "id": "133148010085253", 
              "name": "Dry Cleaner"
            }, 
            {
              "id": "187133811318958", 
              "name": "Business Services"
            }, 
            {
              "id": "286280034782160", 
              "name": "Laundromat"
            }
          ], 
          "location": {
            "city": "Columbus", 
            "zip": "43240", 
            "country": "United States", 
            "longitude": -82.992783000000003, 
            "state": "OH", 
            "street": "8655 Sancus Blvd", 
            "latitude": 40.139999000000003
          }
        }, 
        {
          "category": "Local business", 
          "name": "Park Avenue Cleaners", 
          "id": "411292232257755", 
          "category_list": [
            {
              "id": "176831012360626", 
              "name": "Professional Services"
            }
          ], 
          "location": {
            "city": "Phoenix", 
            "zip": "", 
            "country": "United States", 
            "longitude": -112.00172167300001, 
            "state": "AZ", 
            "street": "", 
            "latitude": 33.494980595999998
          }
        }, 
        {
          "category": "Local business", 
          "name": "Park Avenue Cleaners & Shoe Repair", 
          "id": "116385235088733", 
          "category_list": [
            {
              "id": "133148010085253", 
              "name": "Dry Cleaner"
            }, 
            {
              "id": "109512302457693", 
              "name": "Shoe Store"
            }
          ], 
          "location": {
            "city": "Las Vegas", 
            "zip": "89128-8353", 
            "country": "United States", 
            "longitude": -115.249304, 
            "state": "NV", 
            "street": "7210 W Lake Mead Blvd", 
            "latitude": 36.196249999999999
          }
        }, 
        {
          "category": "Local business", 
          "name": "Park Avenue Cleaners At Braeswood", 
          "id": "148989638478121", 
          "category_list": [
            {
              "id": "133148010085253", 
              "name": "Dry Cleaner"
            }
          ], 
          "location": {
            "city": "Houston", 
            "zip": "77025-3304", 
            "country": "United States", 
            "longitude": -95.442679999999996, 
            "state": "TX", 
            "street": "4038 S Braeswood Blvd", 
            "latitude": 29.689978
          }
        }, 
        {
          "category": "Local business", 
          "name": "Four Park Avenue Cleaners", 
          "id": "150029098373564", 
          "category_list": [
            {
              "id": "186564191378474", 
              "name": "Cleaning Service"
            }, 
            {
              "id": "198367566846946", 
              "name": "Steakhouse"
            }, 
            {
              "id": "133148010085253", 
              "name": "Dry Cleaner"
            }
          ], 
          "location": {
            "city": "New York", 
            "zip": "10016-5339", 
            "country": "United States", 
            "longitude": -73.982078000000001, 
            "state": "NY", 
            "street": "4 Park Ave Frnt 4", 
            "latitude": 40.746552000000001
          }
        }, 
        {
          "category": "Professional services", 
          "name": "Park Avenue $2.49 Cleaners", 
          "id": "264947583606160", 
          "category_list": [
            {
              "id": "176831012360626", 
              "name": "Professional Services"
            }
          ], 
          "location": {
            "city": "Port Arthur", 
            "zip": "77642", 
            "country": "United States", 
            "longitude": -93.984133999999997, 
            "state": "TX", 
            "street": "8649 9th Avenue", 
            "latitude": 29.952642999999998
          }
        }, 
        {
          "category": "Local business", 
          "name": "Park avenue $2.55 Cleaners", 
          "id": "263158442753", 
          "category_list": [
            {
              "id": "133148010085253", 
              "name": "Dry Cleaner"
            }
          ], 
          "location": {
            "city": "West Melbourne", 
            "zip": "32904", 
            "country": "United States", 
            "longitude": -80.668644999999998, 
            "state": "FL", 
            "street": "2907 W New Haven Avenue", 
            "latitude": 28.078641999999999
          }
        }, 
        {
          "category": "Local business", 
          "name": "Smart Wash Laundry", 
          "id": "103434463056621", 
          "category_list": [
            {
              "id": "133148010085253", 
              "name": "Dry Cleaner"
            }, 
            {
              "id": "286280034782160", 
              "name": "Laundromat"
            }
          ], 
          "location": {
            "city": "Franklin Park", 
            "zip": "60131-3305", 
            "country": "United States", 
            "longitude": -87.863438159615001, 
            "state": "IL", 
            "street": "9515 Grand Avenue", 
            "latitude": 41.929553907954997
          }
        }, 
        {
          "category": "Local business", 
          "name": "Villa Cleaners", 
          "id": "314788287179", 
          "category_list": [
            {
              "id": "176831012360626", 
              "name": "Professional Services"
            }, 
            {
              "id": "133148010085253", 
              "name": "Dry Cleaner"
            }
          ], 
          "location": {
            "city": "Deer Park", 
            "zip": "11729", 
            "country": "United States", 
            "longitude": -73.328468000000001, 
            "state": "NY", 
            "street": "1899 Deer Park Avenue", 
            "latitude": 40.761336999999997
          }
        }, 
        {
          "category": "Local business", 
          "name": "Park Avenue $2.75 Cleaners", 
          "id": "106557142754042", 
          "category_list": [
            {
              "id": "133148010085253", 
              "name": "Dry Cleaner"
            }
          ], 
          "location": {
            "city": "Canton", 
            "zip": "48188", 
            "country": "United States", 
            "longitude": -83.457741999999996, 
            "state": "MI", 
            "street": "101 S. Lilley Rd.", 
            "latitude": 42.307955
          }
        }, 
        {
          "category": "Local business", 
          "name": "Park Avenue 1.50 Cleaners", 
          "id": "163348573684449", 
          "category_list": [
            {
              "id": "133148010085253", 
              "name": "Dry Cleaner"
            }, 
            {
              "id": "192511100766680", 
              "name": "Movie Theatre"
            }
          ], 
          "location": {
            "city": "Tucson", 
            "zip": "85710-5193", 
            "country": "United States", 
            "longitude": -110.842918, 
            "state": "AZ", 
            "street": "7020 E 22nd St", 
            "latitude": 32.205860000000001
          }
        }, 
        {
          "category": "Local business", 
          "name": "Laundry Mat", 
          "id": "132714513449469", 
          "category_list": [
            {
              "id": "133148010085253", 
              "name": "Dry Cleaner"
            }, 
            {
              "id": "286280034782160", 
              "name": "Laundromat"
            }
          ], 
          "location": {
            "city": "Buena Park", 
            "zip": "90620-3850", 
            "country": "United States", 
            "longitude": -118.01167010944, 
            "state": "CA", 
            "street": "8575 Knott Avenue", 
            "latitude": 33.838525526999
          }
        }, 
        {
          "category": "Local business", 
          "name": "Stites Cleaners", 
          "id": "128542110504809", 
          "category_list": [
            {
              "id": "133148010085253", 
              "name": "Dry Cleaner"
            }
          ], 
          "location": {
            "city": "Kokomo", 
            "zip": "46901", 
            "country": "United States", 
            "longitude": -86.137527000000006, 
            "state": "IN", 
            "street": "519 West Park Avenue", 
            "latitude": 40.482607999999999
          }
        }, 
        {
          "category": "Professional services", 
          "name": "Priceless Cleaners", 
          "id": "297360933712025", 
          "category_list": [
            {
              "id": "176831012360626", 
              "name": "Professional Services"
            }
          ], 
          "location": {
            "city": "Winter Park", 
            "zip": "32789", 
            "country": "United States", 
            "longitude": -81.364784, 
            "state": "FL", 
            "street": "220 N. Orlando Avenue", 
            "latitude": 28.598880999999999
          }
        }, 
        {
          "category": "Local business", 
          "name": "Park Avenue", 
          "id": "105011252899375", 
          "category_list": [
            {
              "id": "133148010085253", 
              "name": "Dry Cleaner"
            }
          ], 
          "location": {
            "city": "Nashville", 
            "zip": "37209-3004", 
            "country": "United States", 
            "longitude": -86.853913000000006, 
            "state": "TN", 
            "street": "5414 Charlotte Ave", 
            "latitude": 36.151260000000001
          }
        }, 
        {
          "category": "Local business", 
          "name": "Naturalee Cleaners Park Avenue", 
          "id": "627449020627723", 
          "category_list": [
            {
              "id": "2500", 
              "name": "Local Business"
            }
          ], 
          "location": {
            "city": "New York", 
            "zip": "10128", 
            "country": "United States", 
            "longitude": -73.953102000000001, 
            "state": "NY", 
            "street": "78 E 96th St", 
            "latitude": 40.786484000000002
          }
        }, 
        {
          "category": "Local business", 
          "name": "Ken Carter DBA Park Avenue Cleaners I", 
          "id": "137916846255945", 
          "category_list": [
            {
              "id": "133148010085253", 
              "name": "Dry Cleaner"
            }
          ], 
          "location": {
            "city": "San Antonio", 
            "zip": "78247-4223", 
            "country": "United States", 
            "longitude": -98.461738999999994, 
            "state": "TX", 
            "street": "12914 Jones Maltsberger Rd", 
            "latitude": 29.558295999999999
          }
        }, 
        {
          "category": "Small business", 
          "name": "Master Cleaners", 
          "id": "167709196692310", 
          "category_list": [
            {
              "id": "133148010085253", 
              "name": "Dry Cleaner"
            }
          ], 
          "location": {
            "city": "Port Townsend", 
            "zip": "98368", 
            "country": "United States", 
            "longitude": -122.803802, 
            "state": "WA", 
            "street": "700 W. Park Avenue (Behind Goodwill)", 
            "latitude": 48.105026000000002
          }
        }, 
        {
          "category": "Industrials", 
          "name": "Hafcovac Industrial Vacuum Cleaners", 
          "id": "195190837168296", 
          "category_list": [
            {
              "id": "200600219953504", 
              "name": "Shopping & Retail"
            }
          ], 
          "location": {
            "city": "Midland Park", 
            "zip": " 07432", 
            "country": "United States", 
            "longitude": -74.156570000000002, 
            "state": "NJ", 
            "street": "301 Greenwood Avenue", 
            "latitude": 40.999096000000002
          }
        }, 
        {
          "category": "Local business", 
          "name": "Park Avenue Laundry", 
          "id": "393425470695653", 
          "category_list": [
            {
              "id": "2500", 
              "name": "Local Business"
            }
          ], 
          "location": {
            "city": "Rochester", 
            "zip": "14607", 
            "country": "United States", 
            "longitude": -77.578147999999999, 
            "state": "NY", 
            "street": "644 Park Avenue", 
            "latitude": 43.148589999999999
          }
        }, 
        {
          "category": "Professional services", 
          "name": "Platinum Valet Dry Cleaning", 
          "id": "188794594580799", 
          "category_list": [
            {
              "id": "133148010085253", 
              "name": "Dry Cleaner"
            }, 
            {
              "id": "176831012360626", 
              "name": "Professional Services"
            }
          ], 
          "location": {
            "city": "Baulkham Hills", 
            "zip": "2153", 
            "country": "Australia", 
            "longitude": 150.96474446407001, 
            "state": "NSW", 
            "street": "Suite 315, Level 3, 2-8 Brookhollow Avenue, Norwest Business Park", 
            "latitude": -33.734589808728003
          }
        }, 
        {
          "category": "Local business", 
          "name": "Plaza Dry Cleaners", 
          "id": "167828383230182", 
          "category_list": [
            {
              "id": "133148010085253", 
              "name": "Dry Cleaner"
            }
          ], 
          "location": {
            "city": "Meadville", 
            "zip": "16335-4015", 
            "country": "United States", 
            "longitude": -80.161925999999994, 
            "state": "PA", 
            "street": "18959 Park Avenue Plz", 
            "latitude": 41.622906
          }
        }, 
        {
          "category": "Local business", 
          "name": "Perkins Dry Cleaners", 
          "id": "109918019046723", 
          "category_list": [
            {
              "id": "2500", 
              "name": "Local Business"
            }
          ], 
          "location": {
            "city": "London", 
            "zip": "W11 3RB", 
            "country": "United Kingdom", 
            "longitude": -0.206128926568, 
            "state": "", 
            "street": "92-A Holland Park Avenue", 
            "latitude": 51.507469451600002
          }
        }, 
        {
          "category": "Professional services", 
          "name": "Dreams Dry Cleaners & Mary's Creations", 
          "id": "546309978753950", 
          "category_list": [
            {
              "id": "133148010085253", 
              "name": "Dry Cleaner"
            }, 
            {
              "id": "140784189318631", 
              "name": "Sewing & Seamstress"
            }
          ], 
          "location": {
            "city": "Cranston", 
            "zip": "02910", 
            "country": "United States", 
            "longitude": -71.425408000000004, 
            "state": "RI", 
            "street": "631 Park Avenue", 
            "latitude": 41.776978
          }
        }, 
        {
          "category": "Local business", 
          "name": "Floral Park Village Coin-Op Laundromat", 
          "id": "119723581394113", 
          "category_list": [
            {
              "id": "133148010085253", 
              "name": "Dry Cleaner"
            }
          ], 
          "location": {
            "city": "Floral Park", 
            "zip": "11001", 
            "country": "United States", 
            "longitude": -73.703442999999993, 
            "state": "NY", 
            "street": "154 Tulip Avenue", 
            "latitude": 40.724181000000002
          }
        }, 
        {
          "category": "Local business", 
          "name": "Park Avenue Laundry", 
          "id": "117520614975504", 
          "category_list": [
            {
              "id": "133148010085253", 
              "name": "Dry Cleaner"
            }
          ], 
          "location": {
            "city": "North Babylon", 
            "zip": "11703-4322", 
            "country": "United States", 
            "longitude": -73.322006000000002, 
            "state": "NY", 
            "street": "761 Deer Park Ave", 
            "latitude": 40.720734
          }
        }, 
        {
          "category": "Local business", 
          "name": "Park Avenue Laundry", 
          "id": "126996134021581", 
          "category_list": [
            {
              "id": "133148010085253", 
              "name": "Dry Cleaner"
            }
          ], 
          "location": {
            "city": "Wallkill", 
            "zip": "12589", 
            "country": "United States", 
            "longitude": -74.181437000000003, 
            "state": "NY", 
            "street": "1 Park Ave", 
            "latitude": 41.604112000000001
          }
        }, 
        {
          "category": "Local business", 
          "name": "Park Avenue Laundry", 
          "id": "166862479995913", 
          "category_list": [
            {
              "id": "133148010085253", 
              "name": "Dry Cleaner"
            }
          ], 
          "location": {
            "city": "East Hartford", 
            "zip": "06108-4012", 
            "country": "United States", 
            "longitude": -72.630471, 
            "state": "CT", 
            "street": "123 Park Ave", 
            "latitude": 41.779788000000003
          }
        }, 
        {
          "category": "Local business", 
          "name": "Park Avenue Laundromat", 
          "id": "122340981157706", 
          "category_list": [
            {
              "id": "133148010085253", 
              "name": "Dry Cleaner"
            }
          ], 
          "location": {
            "city": "Orange", 
            "zip": "07050-4141", 
            "country": "United States", 
            "longitude": -74.224655999999996, 
            "state": "NJ", 
            "street": "240 Park Ave", 
            "latitude": 40.775606000000003
          }
        }, 
        {
          "category": "Local business", 
          "name": "Park Avenue West Coin-Op", 
          "id": "165724796786646", 
          "category_list": [
            {
              "id": "133148010085253", 
              "name": "Dry Cleaner"
            }
          ], 
          "location": {
            "city": "Mansfield", 
            "zip": "44906-3720", 
            "country": "United States", 
            "longitude": -82.534485000000004, 
            "state": "OH", 
            "street": "518 Park Ave W", 
            "latitude": 40.759304
          }
        }, 
        {
          "category": "Local business", 
          "name": "Park Avenue Laundromat", 
          "id": "165994920093489", 
          "category_list": [
            {
              "id": "133148010085253", 
              "name": "Dry Cleaner"
            }
          ], 
          "location": {
            "city": "Babylon", 
            "zip": "11702-2837", 
            "country": "United States", 
            "longitude": -73.323311000000004, 
            "state": "NY", 
            "street": "180 Deer Park Ave", 
            "latitude": 40.699176999999999
          }
        }, 
        {
          "category": "Local business", 
          "name": "Park Avenue Laundry & Dry Cleaning", 
          "id": "111164938947769", 
          "category_list": [
            {
              "id": "133148010085253", 
              "name": "Dry Cleaner"
            }
          ], 
          "location": {
            "city": "Sturgis", 
            "zip": "57785-1349", 
            "country": "United States", 
            "longitude": -103.52882700000001, 
            "state": "SD", 
            "street": "2315 Park Ave", 
            "latitude": 44.418187000000003
          }
        }, 
        {
          "category": "Local business", 
          "name": "Laundry World", 
          "id": "148874838489399", 
          "category_list": [
            {
              "id": "133148010085253", 
              "name": "Dry Cleaner"
            }, 
            {
              "id": "286280034782160", 
              "name": "Laundromat"
            }
          ], 
          "location": {
            "city": "College Park", 
            "zip": "20740-3625", 
            "country": "United States", 
            "longitude": -76.937602532316006, 
            "state": "MD", 
            "street": "7125 Baltimore Avenue", 
            "latitude": 38.977058953728999
          }
        }, 
        {
          "category": "Local business", 
          "name": "Plaza Coin-Op Laundry", 
          "id": "111170005613258", 
          "category_list": [
            {
              "id": "133148010085253", 
              "name": "Dry Cleaner"
            }
          ], 
          "location": {
            "city": "Meadville", 
            "zip": "16335-4015", 
            "country": "United States", 
            "longitude": -80.161925999999994, 
            "state": "PA", 
            "street": "18915 Park Avenue Plz", 
            "latitude": 41.622909999999997
          }
        }, 
        {
          "category": "Local business", 
          "name": "All Washed Up Laundry", 
          "id": "125173224216578", 
          "category_list": [
            {
              "id": "2500", 
              "name": "Local Business"
            }
          ], 
          "location": {
            "city": "East Hartford", 
            "zip": "06108", 
            "country": "United States", 
            "longitude": -72.613382147400003, 
            "state": "CT", 
            "street": "488 Park Avenue", 
            "latitude": 41.783784686799997
          }
        }, 
        {
          "category": "Local business", 
          "name": "Four Star Drapery & Dry Cleaning", 
          "id": "270137309754751", 
          "category_list": [
            {
              "id": "199442556739626", 
              "name": "Upholstery Service"
            }, 
            {
              "id": "133148010085253", 
              "name": "Dry Cleaner"
            }
          ], 
          "location": {
            "city": "Normandy Park", 
            "zip": "98148", 
            "country": "United States", 
            "longitude": -122.33440400000001, 
            "state": "WA", 
            "street": "17835 1st Avenue South", 
            "latitude": 47.443190000000001
          }
        }, 
        {
          "category": "Professional services", 
          "name": "De Hygienique", 
          "id": "117964149266", 
          "category_list": [
            {
              "id": "210709755608101", 
              "name": "Carpet Cleaner"
            }, 
            {
              "id": "199442556739626", 
              "name": "Upholstery Service"
            }
          ], 
          "location": {
            "city": "Singapore", 
            "zip": "408934", 
            "country": "Singapore", 
            "longitude": 103.8965, 
            "street": "53 Ubi Avenue 1 #03-44 Paya Ubi Industrial Park", 
            "latitude": 1.325
          }
        }, 
        {
          "category": "Professional services", 
          "name": "Booths Cleaning Services Carpets & Upholstery", 
          "id": "580178858698105", 
          "category_list": [
            {
              "id": "210709755608101", 
              "name": "Carpet Cleaner"
            }, 
            {
              "id": "199442556739626", 
              "name": "Upholstery Service"
            }
          ], 
          "location": {
            "city": "Barnoldswick", 
            "zip": "bb18 5at", 
            "country": "United Kingdom", 
            "longitude": -2.1857904440408999, 
            "state": "", 
            "street": "27 Park Avenue", 
            "latitude": 53.913151262836003
          }
        }, 
        {
          "category": "Local business", 
          "name": "TruClean Carpet & Upholstery Cleaning", 
          "id": "345329217840", 
          "category_list": [
            {
              "id": "210709755608101", 
              "name": "Carpet Cleaner"
            }
          ], 
          "location": {
            "city": "Wilmington", 
            "zip": "28403", 
            "country": "United States", 
            "longitude": -77.850409999999997, 
            "state": "NC", 
            "street": "5615 Park Avenue", 
            "latitude": 34.211261999999998
          }
        }, 
        {
          "category": "Local business", 
          "name": "Bowden's Carpet Cleaning INC.", 
          "id": "102129773937", 
          "category_list": [
            {
              "id": "210709755608101", 
              "name": "Carpet Cleaner"
            }
          ], 
          "location": {
            "city": "Tallahassee", 
            "zip": "32301", 
            "country": "United States", 
            "longitude": -84.228834110199998, 
            "state": "FL", 
            "street": "2901 East Park Avenue #1300", 
            "latitude": 30.441621888899999
          }
        }, 
        {
          "category": "Local business", 
          "name": "First Class Carpet Cleaning", 
          "id": "143828165672203", 
          "category_list": [
            {
              "id": "210709755608101", 
              "name": "Carpet Cleaner"
            }
          ], 
          "location": {
            "city": "Villa Park", 
            "zip": "60181", 
            "country": "United States", 
            "longitude": -87.979240000000004, 
            "state": "IL", 
            "street": "718 S. Ardmore Avenue", 
            "latitude": 41.876204999999999
          }
        }, 
        {
          "category": "Home improvement", 
          "name": "B & M Carpet and Upholstery Care", 
          "id": "347314418623197", 
          "category_list": [
            {
              "id": "210709755608101", 
              "name": "Carpet Cleaner"
            }
          ], 
          "location": {
            "city": "Oakhurst", 
            "zip": "07755", 
            "country": "United States", 
            "longitude": -74.038878999999994, 
            "state": "NJ", 
            "street": "708 West Park Avenue", 
            "latitude": 40.265568000000002
          }
        }, 
        {
          "category": "Local business", 
          "name": "Heaven's Best Carpet Cleaning", 
          "id": "334898589876544", 
          "category_list": [
            {
              "id": "2500", 
              "name": "Local Business"
            }
          ], 
          "location": {
            "city": "College Park", 
            "zip": "20740", 
            "country": "United States", 
            "longitude": -76.930169000000006, 
            "state": "MD", 
            "street": "9204C Baltimore Avenue", 
            "latitude": 39.005994000000001
          }
        }, 
        {
          "category": "Professional services", 
          "name": "Deep Kleen and Maintenance. LLC", 
          "id": "158294334315681", 
          "category_list": [
            {
              "id": "210709755608101", 
              "name": "Carpet Cleaner"
            }, 
            {
              "id": "190108547677820", 
              "name": "Janitorial Service"
            }
          ], 
          "location": {
            "city": "Valley Park", 
            "zip": "63088", 
            "country": "United States", 
            "longitude": -90.490020999999999, 
            "state": "MO", 
            "street": "268 Wynstay Avenue", 
            "latitude": 38.561852000000002
          }
        }
      ]
    }
  }, 
  {
    "business_name": "Apex Endodontics", 
    "business_id": "FydUxPwn2p1pcGNacbIIdQ", 
    "fb_pages": {
      "paging": {
        "next": "https://graph.facebook.com/search?type=place&access_token=229546593895315|yPLlHqq6YvDLIH4nL0kjJtIFSlU&limit=5000&offset=5000&__after_id=168080236536488"
      }, 
      "data": [
        {
          "category": "Health/medical/pharmacy", 
          "name": "Apex Endodontics P.C", 
          "id": "115945813439", 
          "category_list": [
            {
              "id": "174187662626299", 
              "name": "Dentist"
            }
          ], 
          "location": {
            "city": "Smyrna", 
            "zip": "30127", 
            "country": "United States", 
            "longitude": -84.538330000000002, 
            "state": "GA", 
            "street": "577 Concord Road Suite A", 
            "latitude": 33.869236999999998
          }
        }, 
        {
          "category": "Local business", 
          "name": "Apex Endodontics", 
          "id": "303879275633", 
          "category_list": [
            {
              "id": "174187662626299", 
              "name": "Dentist"
            }
          ], 
          "location": {
            "city": "Nashville", 
            "zip": "37205", 
            "country": "United States", 
            "longitude": -86.854858823699999, 
            "state": "TN", 
            "street": "47 Brookwood Terrace", 
            "latitude": 36.1286791681
          }
        }, 
        {
          "category": "Health/medical/pharmacy", 
          "name": "Apex Endodontics", 
          "id": "309733379071317", 
          "category_list": [
            {
              "id": "174187662626299", 
              "name": "Dentist"
            }
          ], 
          "location": {
            "city": "Colorado Springs", 
            "zip": "80920", 
            "country": "United States", 
            "longitude": -104.731905, 
            "state": "CO", 
            "street": "8580 Scarborough Drive Suite 200", 
            "latitude": 38.955177999999997
          }
        }, 
        {
          "category": "Health/medical/pharmacy", 
          "name": "Apex Endodontics", 
          "id": "185668418134003", 
          "category_list": [
            {
              "id": "174187662626299", 
              "name": "Dentist"
            }
          ], 
          "location": {
            "city": "Birmingham", 
            "zip": "35216", 
            "country": "United States", 
            "longitude": -86.790581000000003, 
            "state": "AL", 
            "street": "1932 Laurel Rd. Suite #2C", 
            "latitude": 33.449959
          }
        }, 
        {
          "category": "Local business", 
          "name": "Apex Endodontics", 
          "id": "121291611262762", 
          "category_list": [
            {
              "id": "174187662626299", 
              "name": "Dentist"
            }
          ], 
          "location": {
            "city": "Mishawaka", 
            "zip": "46545-2744", 
            "country": "United States", 
            "longitude": -86.193611000000004, 
            "state": "IN", 
            "street": "812 W Edison Rd", 
            "latitude": 41.695103000000003
          }
        }, 
        {
          "category": "Local business", 
          "name": "Apex Endodontics", 
          "id": "128922060612388", 
          "category_list": [
            {
              "id": "174187662626299", 
              "name": "Dentist"
            }
          ], 
          "location": {
            "city": "Brentwood", 
            "zip": "37027", 
            "country": "United States", 
            "longitude": -86.802621148300005, 
            "state": "TN", 
            "street": "", 
            "latitude": 35.969553789700001
          }
        }, 
        {
          "category": "Local business", 
          "name": "Apex Endodontics", 
          "id": "105827906149584", 
          "category_list": [
            {
              "id": "174187662626299", 
              "name": "Dentist"
            }
          ], 
          "location": {
            "city": "Nanuet", 
            "zip": "10954-1617", 
            "country": "United States", 
            "longitude": -73.994056999999998, 
            "state": "NY", 
            "street": "446 Route 304", 
            "latitude": 41.113796000000001
          }
        }, 
        {
          "category": "Local business", 
          "name": "Apex Endodontics", 
          "id": "133594393359250", 
          "category_list": [
            {
              "id": "174187662626299", 
              "name": "Dentist"
            }
          ], 
          "location": {
            "city": "Anaheim", 
            "zip": "92805-6429", 
            "country": "United States", 
            "longitude": -117.89846799999999, 
            "state": "CA", 
            "street": "1265 S Lewis St", 
            "latitude": 33.816226999999998
          }
        }, 
        {
          "category": "Local business", 
          "name": "Apex Endodontics", 
          "id": "141470525899847", 
          "category_list": [
            {
              "id": "174187662626299", 
              "name": "Dentist"
            }
          ], 
          "location": {
            "city": "Costa Mesa", 
            "zip": "92627-2249", 
            "country": "United States", 
            "longitude": -117.914551, 
            "state": "CA", 
            "street": "1960 Newport Blvd", 
            "latitude": 33.644829000000001
          }
        }, 
        {
          "category": "Local business", 
          "name": "Apex Endodontics", 
          "id": "163331403694220", 
          "category_list": [
            {
              "id": "174187662626299", 
              "name": "Dentist"
            }
          ], 
          "location": {
            "city": "Apex", 
            "zip": "27502-3979", 
            "country": "United States", 
            "longitude": -78.869973000000002, 
            "state": "NC", 
            "street": "1011 W Williams St", 
            "latitude": 35.742809999999999
          }
        }, 
        {
          "category": "Health/medical/pharmacy", 
          "name": "Apex Endodontics, P.A.", 
          "id": "161639610565813", 
          "category_list": [
            {
              "id": "174187662626299", 
              "name": "Dentist"
            }
          ], 
          "location": {
            "city": "Overland Park", 
            "zip": "66213", 
            "country": "United States", 
            "longitude": -94.668053, 
            "state": "KS", 
            "street": "13364 Metcalf Avenue", 
            "latitude": 38.885866
          }
        }, 
        {
          "category": "Local business", 
          "name": "Apex Endodontics, P.C.", 
          "id": "119489794766427", 
          "category_list": [
            {
              "id": "174187662626299", 
              "name": "Dentist"
            }
          ], 
          "location": {
            "city": "Saginaw", 
            "zip": "48638", 
            "country": "United States", 
            "longitude": -84.024269000000004, 
            "state": "MI", 
            "street": "5481 Colony Drive North", 
            "latitude": 43.416718000000003
          }
        }, 
        {
          "category": "Local business", 
          "name": "Apex Endodontics", 
          "id": "109722632420253", 
          "category_list": [
            {
              "id": "174187662626299", 
              "name": "Dentist"
            }
          ], 
          "location": {
            "city": "Gilbert", 
            "zip": "85296", 
            "country": "United States", 
            "longitude": -111.77380678604, 
            "state": "AZ", 
            "street": "3303 South Lindsay Road Suite 127", 
            "latitude": 33.290584123998002
          }
        }, 
        {
          "category": "Local business", 
          "name": "Apex Endodontics, Inc.", 
          "id": "112990188800792", 
          "category_list": [
            {
              "id": "2500", 
              "name": "Local Business"
            }
          ], 
          "location": {
            "city": "Ballwin", 
            "zip": "63011", 
            "country": "United States", 
            "longitude": -90.567953388199996, 
            "state": "MO", 
            "street": "", 
            "latitude": 38.609566427200001
          }
        }, 
        {
          "category": "Local business", 
          "name": "Apex Endodontics LLC", 
          "id": "168080236536488", 
          "category_list": [
            {
              "id": "174187662626299", 
              "name": "Dentist"
            }
          ], 
          "location": {
            "city": "Westfield", 
            "zip": "07090-3312", 
            "country": "United States", 
            "longitude": -74.346596000000005, 
            "state": "NJ", 
            "street": "590 Westfield Ave", 
            "latitude": 40.644877999999999
          }
        }
      ]
    }
  }, 
  {
    "business_name": "Hampton Inn Phoenix Airport", 
    "business_id": "lnr7NDMDLTewL57x0pk1Aw", 
    "fb_pages": {
      "paging": {
        "next": "https://graph.facebook.com/search?type=place&access_token=229546593895315|yPLlHqq6YvDLIH4nL0kjJtIFSlU&limit=5000&offset=5000&__after_id=114208845270029"
      }, 
      "data": [
        {
          "category": "Local business", 
          "name": "Hampton Inn Phoenix Airport North", 
          "id": "114208845270029", 
          "category_list": [
            {
              "id": "164243073639257", 
              "name": "Hotel"
            }, 
            {
              "id": "128966563840349", 
              "name": "Airport"
            }
          ], 
          "location": {
            "city": "Phoenix", 
            "zip": "85008-6553", 
            "country": "United States", 
            "longitude": -111.98647851292, 
            "state": "AZ", 
            "street": "601 N 44th St", 
            "latitude": 33.454988515402
          }
        }
      ]
    }
  }, 
  {
    "business_name": "Lenny's Burger Shop", 
    "business_id": "MJ6_uOT55dq5ALphFqMVkw", 
    "fb_pages": {
      "paging": {
        "next": "https://graph.facebook.com/search?type=place&access_token=229546593895315|yPLlHqq6YvDLIH4nL0kjJtIFSlU&limit=5000&offset=5000&__after_id=241064829782"
      }, 
      "data": [
        {
          "category": "Local business", 
          "name": "Lenny's Burger Shop", 
          "id": "105930996115218", 
          "category_list": [
            {
              "id": "192803624072087", 
              "name": "Fast Food Restaurant"
            }, 
            {
              "id": "187425207958280", 
              "name": "Burger Restaurant"
            }
          ], 
          "location": {
            "city": "Phoenix", 
            "zip": "85051-6793", 
            "country": "United States", 
            "longitude": -112.11455266582, 
            "state": "AZ", 
            "street": "2545 W Glendale Ave", 
            "latitude": 33.538377959738
          }
        }, 
        {
          "category": "Local business", 
          "name": "Lenny's Burger Shop", 
          "id": "118801618135157", 
          "category_list": [
            {
              "id": "192803624072087", 
              "name": "Fast Food Restaurant"
            }, 
            {
              "id": "187425207958280", 
              "name": "Burger Restaurant"
            }
          ], 
          "location": {
            "city": "Glendale", 
            "zip": "85301-2526", 
            "country": "United States", 
            "longitude": -112.18194606527, 
            "state": "AZ", 
            "street": "5713 W Glendale Ave", 
            "latitude": 33.538473587147998
          }
        }, 
        {
          "category": "Local business", 
          "name": "Lenny's Burger Shop", 
          "id": "116629488361434", 
          "category_list": [
            {
              "id": "192803624072087", 
              "name": "Fast Food Restaurant"
            }, 
            {
              "id": "187425207958280", 
              "name": "Burger Restaurant"
            }
          ], 
          "location": {
            "city": "Phoenix", 
            "zip": "85004-1030", 
            "country": "United States", 
            "longitude": -112.07340001022, 
            "state": "AZ", 
            "street": "2737 W Indian School Rd", 
            "latitude": 33.479510512577001
          }
        }, 
        {
          "category": "Restaurant/cafe", 
          "name": "Lenny's Burger Shop 35th", 
          "id": "241064829782", 
          "category_list": [
            {
              "id": "187425207958280", 
              "name": "Burger Restaurant"
            }, 
            {
              "id": "212285478786733", 
              "name": "Hot Dog Joint"
            }, 
            {
              "id": "167954166588517", 
              "name": "Diner"
            }
          ], 
          "location": {
            "city": "Phoenix", 
            "zip": "85029", 
            "country": "United States", 
            "longitude": -112.13426301654, 
            "state": "AZ", 
            "street": "13616 N. 35th Ave. #1", 
            "latitude": 33.609377021347001
          }
        }
      ]
    }
  }, 
  {
    "business_name": "Nancy's Nail Salon", 
    "business_id": "-QdMyyV-GY3qXcXuLiqVqg", 
    "fb_pages": {
      "paging": {
        "next": "https://graph.facebook.com/search?type=place&access_token=229546593895315|yPLlHqq6YvDLIH4nL0kjJtIFSlU&limit=5000&offset=5000&__after_id=182585665090052"
      }, 
      "data": [
        {
          "category": "Local business", 
          "name": "Nancy's Salon", 
          "id": "108613569231167", 
          "category_list": [
            {
              "id": "198516863494646", 
              "name": "Nail Salon"
            }, 
            {
              "id": "199236533423806", 
              "name": "Beauty Salon"
            }
          ], 
          "location": {
            "city": "Alameda", 
            "zip": "94501", 
            "country": "United States", 
            "longitude": -122.262880165, 
            "state": "CA", 
            "street": "1307 Lincoln Ave", 
            "latitude": 37.774759232699999
          }
        }, 
        {
          "category": "Local business", 
          "name": "Nancy's Nail Salon", 
          "id": "162608453766859", 
          "category_list": [
            {
              "id": "198516863494646", 
              "name": "Nail Salon"
            }
          ], 
          "location": {
            "city": "Richmond", 
            "zip": "94804-3125", 
            "country": "United States", 
            "longitude": -122.337105979, 
            "state": "CA", 
            "street": "3320 Cutting Blvd", 
            "latitude": 37.925090782200002
          }
        }, 
        {
          "category": "Local business", 
          "name": "Nancy's Nails & Salon", 
          "id": "158341747532676", 
          "category_list": [
            {
              "id": "198516863494646", 
              "name": "Nail Salon"
            }, 
            {
              "id": "199236533423806", 
              "name": "Beauty Salon"
            }
          ], 
          "location": {
            "city": "Philadelphia", 
            "zip": "19149-3207", 
            "country": "United States", 
            "longitude": -75.081354067229995, 
            "state": "PA", 
            "street": "6045 Castor Ave", 
            "latitude": 40.035224008165002
          }
        }, 
        {
          "category": "Spas/beauty/personal care", 
          "name": "Nancy's Nails", 
          "id": "204640519551181", 
          "category_list": [
            {
              "id": "198516863494646", 
              "name": "Nail Salon"
            }
          ], 
          "location": {
            "city": "Rohnert Park", 
            "zip": "94928", 
            "country": "United States", 
            "longitude": -122.71095122168001, 
            "state": "CA", 
            "street": "6650 Commerce Blvd, Suite 18", 
            "latitude": 38.343500424584001
          }
        }, 
        {
          "category": "Local business", 
          "name": "Nancy's Nails", 
          "id": "112010272194941", 
          "category_list": [
            {
              "id": "198516863494646", 
              "name": "Nail Salon"
            }, 
            {
              "id": "200600219953504", 
              "name": "Shopping & Retail"
            }, 
            {
              "id": "199236533423806", 
              "name": "Beauty Salon"
            }
          ], 
          "location": {
            "city": "Redwood City", 
            "zip": "94061-3749", 
            "country": "United States", 
            "longitude": -122.22461709849, 
            "state": "CA", 
            "street": "738 Woodside Rd", 
            "latitude": 37.467714015421997
          }
        }, 
        {
          "category": "Local business", 
          "name": "Nancy's Hair and Nail Salon", 
          "id": "177274105638238", 
          "category_list": [
            {
              "id": "199236533423806", 
              "name": "Beauty Salon"
            }, 
            {
              "id": "198516863494646", 
              "name": "Nail Salon"
            }, 
            {
              "id": "144873802247220", 
              "name": "Cosmetics & Beauty Supply"
            }
          ], 
          "location": {
            "city": "Los Angeles", 
            "zip": "90029", 
            "country": "United States", 
            "longitude": -118.300835724, 
            "state": "CA", 
            "street": "", 
            "latitude": 34.091263111899998
          }
        }, 
        {
          "category": "Local business", 
          "name": "Nancy's Nails", 
          "id": "124457030951693", 
          "category_list": [
            {
              "id": "198516863494646", 
              "name": "Nail Salon"
            }
          ], 
          "location": {
            "city": "Little Rock", 
            "zip": "72205", 
            "country": "United States", 
            "longitude": -92.374595984967002, 
            "state": "AR", 
            "street": "", 
            "latitude": 34.752799536635003
          }
        }, 
        {
          "category": "Local business", 
          "name": "Nancy's Nails", 
          "id": "143577485700089", 
          "category_list": [
            {
              "id": "198516863494646", 
              "name": "Nail Salon"
            }
          ], 
          "location": {
            "city": "Lansing", 
            "zip": "48917", 
            "country": "United States", 
            "longitude": -84.6293977455, 
            "state": "MI", 
            "street": "", 
            "latitude": 42.743060110199998
          }
        }, 
        {
          "category": "Local business", 
          "name": "Nancy's Nails", 
          "id": "128462257204938", 
          "category_list": [
            {
              "id": "198516863494646", 
              "name": "Nail Salon"
            }, 
            {
              "id": "144873802247220", 
              "name": "Cosmetics & Beauty Supply"
            }
          ], 
          "location": {
            "city": "Oxnard", 
            "zip": "93036", 
            "country": "United States", 
            "longitude": -119.17795608483, 
            "state": "CA", 
            "street": "2087 N. Oxnard Blvd", 
            "latitude": 34.222878520216
          }
        }, 
        {
          "category": "Spas/beauty/personal care", 
          "name": "Nancy's Nails Tempe", 
          "id": "114443418598088", 
          "category_list": [
            {
              "id": "198516863494646", 
              "name": "Nail Salon"
            }
          ], 
          "location": {
            "city": "Tempe", 
            "zip": "85282", 
            "country": "United States", 
            "longitude": -111.938971053, 
            "state": "AZ", 
            "street": "45 e broadway rd", 
            "latitude": 33.406750413399998
          }
        }, 
        {
          "category": "Local business", 
          "name": "Nancy's Touch of Asia Nail Salon", 
          "id": "111378592258757", 
          "category_list": [
            {
              "id": "198516863494646", 
              "name": "Nail Salon"
            }, 
            {
              "id": "199236533423806", 
              "name": "Beauty Salon"
            }
          ], 
          "location": {
            "city": "North Hollywood", 
            "zip": "91607-2709", 
            "country": "United States", 
            "longitude": -118.396724194, 
            "state": "CA", 
            "street": "5221 Laurel Canyon Blvd", 
            "latitude": 34.165541388400001
          }
        }, 
        {
          "category": "Local business", 
          "name": "Nancy's Nails", 
          "id": "200109066672026", 
          "category_list": [
            {
              "id": "198516863494646", 
              "name": "Nail Salon"
            }, 
            {
              "id": "169758603141095", 
              "name": "Barber Shop"
            }
          ], 
          "location": {
            "city": "Hermosa Beach", 
            "zip": "90254", 
            "country": "United States", 
            "longitude": -118.390926036, 
            "state": "CA", 
            "street": "506 Pacific Coast Highway", 
            "latitude": 33.858965467099999
          }
        }, 
        {
          "category": "Local business", 
          "name": "Nancy's Hair and Nail Spa", 
          "id": "119106648153056", 
          "category_list": [
            {
              "id": "199236533423806", 
              "name": "Beauty Salon"
            }, 
            {
              "id": "198516863494646", 
              "name": "Nail Salon"
            }
          ], 
          "location": {
            "city": "San Antonio", 
            "zip": "78250", 
            "country": "United States", 
            "longitude": -98.665609767606, 
            "state": "TX", 
            "street": "11619 Bandera Rd, Ste 104", 
            "latitude": 29.549463725026001
          }
        }, 
        {
          "category": "Local business", 
          "name": "Nancy's Nails", 
          "id": "155901471088936", 
          "category_list": [
            {
              "id": "198516863494646", 
              "name": "Nail Salon"
            }, 
            {
              "id": "144873802247220", 
              "name": "Cosmetics & Beauty Supply"
            }
          ], 
          "location": {
            "city": "Chula Vista", 
            "zip": "91911", 
            "country": "United States", 
            "longitude": -117.08305563878, 
            "state": "CA", 
            "street": "", 
            "latitude": 32.613240504648999
          }
        }, 
        {
          "category": "Local business", 
          "name": "Nancy Nail Spa", 
          "id": "197238066969815", 
          "category_list": [
            {
              "id": "198516863494646", 
              "name": "Nail Salon"
            }, 
            {
              "id": "200814353265561", 
              "name": "Spa"
            }
          ], 
          "location": {
            "city": "Charlotte", 
            "zip": "28216", 
            "country": "United States", 
            "longitude": -80.857671051880004, 
            "state": "NC", 
            "street": "5009 beatties ford rd. #105", 
            "latitude": 35.303659093287997
          }
        }, 
        {
          "category": "Local business", 
          "name": "Nancy's  Nails", 
          "id": "153023411425223", 
          "category_list": [
            {
              "id": "198516863494646", 
              "name": "Nail Salon"
            }
          ], 
          "location": {
            "city": "La Puente", 
            "zip": "91746", 
            "country": "United States", 
            "longitude": -117.998621273, 
            "state": "CA", 
            "street": "", 
            "latitude": 34.0394182677
          }
        }, 
        {
          "category": "Local business", 
          "name": "Nancy Nails", 
          "id": "150104285032998", 
          "category_list": [
            {
              "id": "198516863494646", 
              "name": "Nail Salon"
            }, 
            {
              "id": "199236533423806", 
              "name": "Beauty Salon"
            }, 
            {
              "id": "200814353265561", 
              "name": "Spa"
            }
          ], 
          "location": {
            "city": "Rancho Palos Verdes", 
            "zip": "90275-1357", 
            "country": "United States", 
            "longitude": -118.30972527500001, 
            "state": "CA", 
            "street": "29505 S Western Ave Ste 101", 
            "latitude": 33.749910706500003
          }
        }, 
        {
          "category": "Local business", 
          "name": "Nancy's Nail Salon", 
          "id": "179918352071330", 
          "category_list": [
            {
              "id": "198516863494646", 
              "name": "Nail Salon"
            }
          ], 
          "location": {
            "city": "Bensalem", 
            "zip": "19020", 
            "country": "United States", 
            "longitude": -74.947183001699997, 
            "state": "PA", 
            "street": "", 
            "latitude": 40.098706119399999
          }
        }, 
        {
          "category": "Local business", 
          "name": "Nancy's Nails", 
          "id": "200273290003594", 
          "category_list": [
            {
              "id": "198516863494646", 
              "name": "Nail Salon"
            }
          ], 
          "location": {
            "city": "Oakland", 
            "zip": "94621", 
            "country": "United States", 
            "longitude": -122.175448469, 
            "state": "CA", 
            "street": "", 
            "latitude": 37.750684195600002
          }
        }, 
        {
          "category": "Local business", 
          "name": "Nancy's Nail Spa", 
          "id": "269418106436901", 
          "category_list": [
            {
              "id": "198516863494646", 
              "name": "Nail Salon"
            }
          ], 
          "location": {
            "city": "Front Royal", 
            "zip": "22630", 
            "country": "United States", 
            "longitude": -78.188698438800003, 
            "state": "VA", 
            "street": "50 Riverton Commons Plaza", 
            "latitude": 38.962960979199998
          }
        }, 
        {
          "category": "Local business", 
          "name": "Nancy's Nails & Spa", 
          "id": "199570863420712", 
          "category_list": [
            {
              "id": "198516863494646", 
              "name": "Nail Salon"
            }
          ], 
          "location": {
            "city": "Cookstown", 
            "zip": "08511", 
            "country": "United States", 
            "longitude": -74.580756571627006, 
            "state": "NJ", 
            "street": "", 
            "latitude": 40.041728443145999
          }
        }, 
        {
          "category": "Local business", 
          "name": "K and Nancy's Nails", 
          "id": "123219464403054", 
          "category_list": [
            {
              "id": "198516863494646", 
              "name": "Nail Salon"
            }
          ], 
          "location": {
            "city": "Oakland", 
            "zip": "94601-2532", 
            "country": "United States", 
            "longitude": -122.221959857, 
            "state": "CA", 
            "street": "2206 Fruitvale Ave", 
            "latitude": 37.785124300900002
          }
        }, 
        {
          "category": "Local business", 
          "name": "Nancy's Nails & Spa", 
          "id": "153497174718298", 
          "category_list": [
            {
              "id": "198516863494646", 
              "name": "Nail Salon"
            }
          ], 
          "location": {
            "city": "Wilmington", 
            "zip": "90744", 
            "country": "United States", 
            "longitude": -118.275854141, 
            "state": "CA", 
            "street": "", 
            "latitude": 33.778897895999997
          }
        }, 
        {
          "category": "Local business", 
          "name": "Nancy's Nails & Spa", 
          "id": "164060066944824", 
          "category_list": [
            {
              "id": "198516863494646", 
              "name": "Nail Salon"
            }, 
            {
              "id": "144873802247220", 
              "name": "Cosmetics & Beauty Supply"
            }
          ], 
          "location": {
            "city": "San Diego", 
            "zip": "92111", 
            "country": "United States", 
            "longitude": -117.15162303519, 
            "state": "CA", 
            "street": "", 
            "latitude": 32.833139483716003
          }
        }, 
        {
          "category": "Local business", 
          "name": "Nancy's Nails", 
          "id": "135615486488147", 
          "category_list": [
            {
              "id": "198516863494646", 
              "name": "Nail Salon"
            }
          ], 
          "location": {
            "city": "Silver Spring", 
            "zip": "20903-1722", 
            "country": "United States", 
            "longitude": -76.976241999999999, 
            "state": "MD", 
            "street": "1608 Elton Rd", 
            "latitude": 39.020476000000002
          }
        }, 
        {
          "category": "Local business", 
          "name": "Nancy's Nails", 
          "id": "155664511113330", 
          "category_list": [
            {
              "id": "198516863494646", 
              "name": "Nail Salon"
            }
          ], 
          "location": {
            "city": "Deltona", 
            "zip": "32713", 
            "country": "United States", 
            "longitude": -81.283556123500006, 
            "state": "FL", 
            "street": "", 
            "latitude": 28.896374941099999
          }
        }, 
        {
          "category": "Spas/beauty/personal care", 
          "name": "Nancy nails", 
          "id": "250141378471507", 
          "category_list": [
            {
              "id": "198516863494646", 
              "name": "Nail Salon"
            }
          ], 
          "location": {
            "city": "Ensenada", 
            "zip": "", 
            "country": "Mexico", 
            "longitude": -116.99890490297, 
            "state": "", 
            "street": "", 
            "latitude": 32.543399419384997
          }
        }, 
        {
          "category": "Local business", 
          "name": "Nancy`s Nails", 
          "id": "139093039452918", 
          "category_list": [
            {
              "id": "198516863494646", 
              "name": "Nail Salon"
            }
          ], 
          "location": {
            "city": "Baarle-Nassau", 
            "zip": "5111DM", 
            "country": "Netherlands", 
            "longitude": 4.9137437999999998, 
            "state": "", 
            "street": "Sperwerstraat 22", 
            "latitude": 51.450930700000001
          }
        }, 
        {
          "category": "Spas/beauty/personal care", 
          "name": "Nancy's Nails & Waxing", 
          "id": "538960832859240", 
          "category_list": [
            {
              "id": "199236533423806", 
              "name": "Beauty Salon"
            }
          ], 
          "location": {
            "city": "Swan Hill", 
            "zip": "3590", 
            "country": "Australia", 
            "longitude": 143.48094547472999, 
            "state": "VIC", 
            "street": "1601 Murray Valley Highway Beverford", 
            "latitude": -35.235427473260998
          }
        }, 
        {
          "category": "Spas/beauty/personal care", 
          "name": "Nancy's Nails", 
          "id": "381758965284177", 
          "category_list": [
            {
              "id": "198516863494646", 
              "name": "Nail Salon"
            }
          ], 
          "location": {
            "city": "Fontana", 
            "zip": "92335", 
            "country": "United States", 
            "longitude": -117.458, 
            "state": "CA", 
            "street": "****", 
            "latitude": 34.097700000000003
          }
        }, 
        {
          "category": "Spas/beauty/personal care", 
          "name": "Nancy's Nails", 
          "id": "128108507391186", 
          "category_list": [
            {
              "id": "198516863494646", 
              "name": "Nail Salon"
            }
          ], 
          "location": {
            "city": "Groningen", 
            "zip": "9741NE", 
            "country": "Netherlands", 
            "longitude": 6.5491508899899999, 
            "state": "", 
            "street": "Elzenlaan 2-4", 
            "latitude": 53.23207412
          }
        }, 
        {
          "category": "Spas/beauty/personal care", 
          "name": "Nail's  Nancy Ruiz", 
          "id": "601312763225606", 
          "category_list": [
            {
              "id": "198516863494646", 
              "name": "Nail Salon"
            }
          ], 
          "location": {
            "city": "Chihuahua", 
            "zip": "31000", 
            "country": "Mexico", 
            "longitude": -110.31699999999999, 
            "state": "", 
            "street": "31000", 
            "latitude": 27.466699999999999
          }
        }, 
        {
          "category": "Local business", 
          "name": "Perfect Nancy's Nail Salon", 
          "id": "158615824170833", 
          "category_list": [
            {
              "id": "198516863494646", 
              "name": "Nail Salon"
            }, 
            {
              "id": "199236533423806", 
              "name": "Beauty Salon"
            }
          ], 
          "location": {
            "city": "Southfield", 
            "zip": "48033-2930", 
            "country": "United States", 
            "longitude": -83.282951999999995, 
            "state": "MI", 
            "street": "24380 W 10 Mile Rd", 
            "latitude": 42.472026999999997
          }
        }, 
        {
          "category": "Spas/beauty/personal care", 
          "name": "Nancy's Nail Salon Feasterville PA", 
          "id": "251880731584583", 
          "category_list": [
            {
              "id": "139225689474222", 
              "name": "Spa, Beauty & Personal Care"
            }
          ], 
          "location": {
            "city": "Feasterville", 
            "zip": "19053", 
            "country": "United States", 
            "longitude": -75.001759000000007, 
            "state": "PA", 
            "street": "25 E. Street Rd.", 
            "latitude": 40.150080000000003
          }
        }, 
        {
          "category": "Local business", 
          "name": "Nancy's Nails salon", 
          "id": "277525332269695", 
          "category_list": [
            {
              "id": "198516863494646", 
              "name": "Nail Salon"
            }
          ], 
          "location": {
            "city": "Gulfport", 
            "zip": "33707", 
            "country": "United States", 
            "longitude": -82.700091813399993, 
            "state": "FL", 
            "street": "1001 49th St S", 
            "latitude": 27.760292253399999
          }
        }, 
        {
          "category": "Local business", 
          "name": "Nancy's Nails", 
          "id": "486847301376028", 
          "category_list": [
            {
              "id": "198516863494646", 
              "name": "Nail Salon"
            }
          ], 
          "location": {
            "city": "Brandon", 
            "zip": "", 
            "country": "Canada", 
            "longitude": -99.949352793700001, 
            "state": "MB", 
            "street": "7th and mctavish", 
            "latitude": 49.841185131099998
          }
        }, 
        {
          "category": "Spas/beauty/personal care", 
          "name": "Nancy Loves Nails", 
          "id": "354075864614635", 
          "category_list": [
            {
              "id": "198516863494646", 
              "name": "Nail Salon"
            }
          ], 
          "location": {
            "city": "Guisborough", 
            "zip": "ts146ba", 
            "country": "United Kingdom", 
            "longitude": -1.1577622046, 
            "state": "", 
            "street": "16 Westgate, Guisborough 6BA", 
            "latitude": 54.547038742600002
          }
        }, 
        {
          "category": "Spas/beauty/personal care", 
          "name": "Nail Salon NANCY", 
          "id": "210303485758300", 
          "category_list": [
            {
              "id": "139225689474222", 
              "name": "Spa, Beauty & Personal Care"
            }
          ], 
          "location": {
            "city": "Sapporo-shi", 
            "zip": "0600061", 
            "country": "Japan", 
            "longitude": 141.36077, 
            "state": "Hokkaido", 
            "street": "\u4e2d\u592e\u533a\u5357\uff11\u6761\u897f\uff11\u4e01\u76ee\uff11\uff16\uff0d\uff14 \u30b7\u30eb\u30ad\u30fc\u30d3\u30eb\uff14\uff10\uff15", 
            "latitude": 43.056669999999997
          }
        }, 
        {
          "category": "Spas/beauty/personal care", 
          "name": "Nancy's Beauty, Nail Salon & Spa", 
          "id": "141763879226157", 
          "category_list": [
            {
              "id": "199236533423806", 
              "name": "Beauty Salon"
            }
          ], 
          "location": {
            "city": "Rosemead", 
            "zip": "91770", 
            "country": "United States", 
            "longitude": -118.090746, 
            "state": "CA", 
            "street": "3357 San Gabriel Blvd.  #C ", 
            "latitude": 34.068949000000003
          }
        }, 
        {
          "category": "Local business", 
          "name": "Nancy's Nails", 
          "id": "160036154016943", 
          "category_list": [
            {
              "id": "198516863494646", 
              "name": "Nail Salon"
            }
          ], 
          "location": {
            "city": "Santa Monica", 
            "zip": "90405-1919", 
            "country": "United States", 
            "longitude": -118.46015556499999, 
            "state": "CA", 
            "street": "2815 Pico Blvd", 
            "latitude": 34.0246565566
          }
        }, 
        {
          "category": "Local business", 
          "name": "Nancy's Nails", 
          "id": "163103790408937", 
          "category_list": [
            {
              "id": "198516863494646", 
              "name": "Nail Salon"
            }
          ], 
          "location": {
            "city": "Encinitas", 
            "zip": "92007", 
            "country": "United States", 
            "longitude": -117.28376374600001, 
            "state": "CA", 
            "street": "", 
            "latitude": 33.035216332899999
          }
        }, 
        {
          "category": "Local business", 
          "name": "Nancy's Family Salon", 
          "id": "135848519801285", 
          "category_list": [
            {
              "id": "198516863494646", 
              "name": "Nail Salon"
            }, 
            {
              "id": "199236533423806", 
              "name": "Beauty Salon"
            }
          ], 
          "location": {
            "city": "Mount Laurel", 
            "zip": "08054-1600", 
            "country": "United States", 
            "longitude": -74.871082000000001, 
            "state": "NJ", 
            "street": "263 Masonville Rd", 
            "latitude": 39.981307000000001
          }
        }, 
        {
          "category": "Company", 
          "name": "Nancy's Nails & Beauty", 
          "id": "470265883043735", 
          "category_list": [
            {
              "id": "198516863494646", 
              "name": "Nail Salon"
            }
          ], 
          "location": {
            "city": "Barendrecht", 
            "zip": "2993 CR", 
            "country": "Netherlands", 
            "longitude": 4.4856557870855003, 
            "state": "", 
            "street": "Drogerij 15", 
            "latitude": 51.854883944302003
          }
        }, 
        {
          "category": "Local business", 
          "name": "Nancy's Nails", 
          "id": "170501039631183", 
          "category_list": [
            {
              "id": "198516863494646", 
              "name": "Nail Salon"
            }, 
            {
              "id": "169758603141095", 
              "name": "Barber Shop"
            }
          ], 
          "location": {
            "city": "Nederland", 
            "zip": "77627-5501", 
            "country": "United States", 
            "longitude": -93.979946999999996, 
            "state": "TX", 
            "street": "1708 Highway 365", 
            "latitude": 29.961825999999999
          }
        }, 
        {
          "category": "Local business", 
          "name": "Nancy's Nails", 
          "id": "146471332042543", 
          "category_list": [
            {
              "id": "198516863494646", 
              "name": "Nail Salon"
            }, 
            {
              "id": "169758603141095", 
              "name": "Barber Shop"
            }, 
            {
              "id": "144873802247220", 
              "name": "Cosmetics & Beauty Supply"
            }
          ], 
          "location": {
            "city": "Country Club Hills", 
            "zip": "60478", 
            "country": "United States", 
            "longitude": -87.715052092028003, 
            "state": "IL", 
            "street": "", 
            "latitude": 41.556656414848
          }
        }, 
        {
          "category": "Local business", 
          "name": "Nancy Nails!", 
          "id": "138615469612788", 
          "category_list": [
            {
              "id": "198516863494646", 
              "name": "Nail Salon"
            }
          ], 
          "location": {
            "city": "Pointe-Claire", 
            "zip": "", 
            "country": "Canada", 
            "longitude": -73.831330267200002, 
            "state": "QC", 
            "street": "", 
            "latitude": 45.469872951399999
          }
        }, 
        {
          "category": "Professional services", 
          "name": "Nancy Nails Salon", 
          "id": "629450463780737", 
          "category_list": [
            {
              "id": "198516863494646", 
              "name": "Nail Salon"
            }
          ], 
          "location": {
            "city": "San Nicol\u00e1s de los Garza", 
            "zip": "8119141339", 
            "country": "Mexico", 
            "longitude": -101.675495, 
            "state": "", 
            "street": "calle 7 #130 ", 
            "latitude": 21.186640000000001
          }
        }, 
        {
          "category": "Local business", 
          "name": "Nancy's Nails", 
          "id": "148692778507123", 
          "category_list": [
            {
              "id": "198516863494646", 
              "name": "Nail Salon"
            }
          ], 
          "location": {
            "city": "Vallejo", 
            "zip": "94590-4432", 
            "country": "United States", 
            "longitude": -122.252876, 
            "state": "CA", 
            "street": "601 Tennessee St", 
            "latitude": 38.109703000000003
          }
        }, 
        {
          "category": "Local business", 
          "name": "Nancy's Nails", 
          "id": "103161479750239", 
          "category_list": [
            {
              "id": "198516863494646", 
              "name": "Nail Salon"
            }
          ], 
          "location": {
            "city": "Redondo Beach", 
            "zip": "90278-1602", 
            "country": "United States", 
            "longitude": -118.36228199999999, 
            "state": "CA", 
            "street": "2737 Manhattan Beach Blvd", 
            "latitude": 33.887574999999998
          }
        }, 
        {
          "category": "Local business", 
          "name": "Nancy's Nails", 
          "id": "134915243226658", 
          "category_list": [
            {
              "id": "198516863494646", 
              "name": "Nail Salon"
            }
          ], 
          "location": {
            "city": "Petaluma", 
            "zip": "94954-3562", 
            "country": "United States", 
            "longitude": -122.62041000000001, 
            "state": "CA", 
            "street": "55 Maria Dr Ste 833", 
            "latitude": 38.250622
          }
        }, 
        {
          "category": "Local business", 
          "name": "Nancy's Nails", 
          "id": "160081730681308", 
          "category_list": [
            {
              "id": "198516863494646", 
              "name": "Nail Salon"
            }
          ], 
          "location": {
            "city": "Compton", 
            "zip": "90220-2835", 
            "country": "United States", 
            "longitude": -118.242079, 
            "state": "CA", 
            "street": "1009 W Compton Blvd", 
            "latitude": 33.896016000000003
          }
        }, 
        {
          "category": "Local business", 
          "name": "Nancy's Nails", 
          "id": "165516093474234", 
          "category_list": [
            {
              "id": "198516863494646", 
              "name": "Nail Salon"
            }
          ], 
          "location": {
            "city": "Plymouth", 
            "zip": "18651-3204", 
            "country": "United States", 
            "longitude": -75.933240999999995, 
            "state": "PA", 
            "street": "602 E Main St", 
            "latitude": 41.244242
          }
        }, 
        {
          "category": "Local business", 
          "name": "Nancy's Nails", 
          "id": "167981953212097", 
          "category_list": [
            {
              "id": "198516863494646", 
              "name": "Nail Salon"
            }
          ], 
          "location": {
            "city": "San Diego", 
            "zip": "92037-5016", 
            "country": "United States", 
            "longitude": -117.275711, 
            "state": "CA", 
            "street": "721 Pearl St", 
            "latitude": 32.839588999999997
          }
        }, 
        {
          "category": "Spas/beauty/personal care", 
          "name": "Nancy at Q's Nails", 
          "id": "481526441874433", 
          "category_list": [
            {
              "id": "198516863494646", 
              "name": "Nail Salon"
            }
          ], 
          "location": {
            "city": "Fullerton", 
            "zip": "92832", 
            "country": "United States", 
            "longitude": -117.941824, 
            "state": "CA", 
            "street": "324 N. Euclid St.", 
            "latitude": 33.872624999999999
          }
        }, 
        {
          "category": "Local business", 
          "name": "Nancy's Beauty & Tanning & Nail Salon", 
          "id": "136567806390747", 
          "category_list": [
            {
              "id": "185600691480842", 
              "name": "Tanning Salon"
            }, 
            {
              "id": "199236533423806", 
              "name": "Beauty Salon"
            }
          ], 
          "location": {
            "city": "Arcanum", 
            "zip": "45304-1114", 
            "country": "United States", 
            "longitude": -84.554114999999996, 
            "state": "OH", 
            "street": "7 N High St", 
            "latitude": 39.990622000000002
          }
        }, 
        {
          "category": "Health/beauty", 
          "name": "Sensual Nails by Nancy, Blaibach", 
          "id": "170777072962200", 
          "category_list": [
            {
              "id": "198516863494646", 
              "name": "Nail Salon"
            }
          ], 
          "location": {
            "city": "Blaibach", 
            "zip": "93476", 
            "country": "Germany", 
            "longitude": 12.809409918275, 
            "state": "", 
            "street": "", 
            "latitude": 49.168379000000002
          }
        }, 
        {
          "category": "Professional services", 
          "name": "Nancy's Nails & Spa", 
          "id": "402841696489773", 
          "category_list": [
            {
              "id": "176831012360626", 
              "name": "Professional Services"
            }
          ], 
          "location": {
            "city": "Jasper", 
            "zip": "35501", 
            "country": "United States", 
            "longitude": -87.259402081199994, 
            "state": "AL", 
            "street": "1306 Highway 78 E", 
            "latitude": 33.846480178
          }
        }, 
        {
          "category": "Spas/beauty/personal care", 
          "name": "Nancy's Nails Salon", 
          "id": "467552106697501", 
          "category_list": [
            {
              "id": "139225689474222", 
              "name": "Spa, Beauty & Personal Care"
            }
          ], 
          "location": {
            "city": "Silver Spring", 
            "zip": "20910", 
            "country": "United States", 
            "longitude": -77.025908999999999, 
            "state": "MD", 
            "street": "951 Bonifant St", 
            "latitude": 38.993972999999997
          }
        }, 
        {
          "category": "Local business", 
          "name": "Nancy's Nails", 
          "id": "172431306126157", 
          "category_list": [
            {
              "id": "198516863494646", 
              "name": "Nail Salon"
            }, 
            {
              "id": "144873802247220", 
              "name": "Cosmetics & Beauty Supply"
            }
          ], 
          "location": {
            "city": "Virginia Beach", 
            "zip": "23455", 
            "country": "United States", 
            "longitude": -76.150700267399998, 
            "state": "VA", 
            "street": "", 
            "latitude": 36.905401313600002
          }
        }, 
        {
          "category": "Local business", 
          "name": "Rose Nails by Nancy", 
          "id": "174765085870905", 
          "category_list": [
            {
              "id": "198516863494646", 
              "name": "Nail Salon"
            }
          ], 
          "location": {
            "city": "Port Orchard", 
            "zip": "98366", 
            "country": "United States", 
            "longitude": -122.635628, 
            "state": "WA", 
            "street": "815 Bay Street", 
            "latitude": 47.541758999999999
          }
        }, 
        {
          "category": "Spas/beauty/personal care", 
          "name": "Nancy's Nails & Hair", 
          "id": "174782192573936", 
          "category_list": [
            {
              "id": "198516863494646", 
              "name": "Nail Salon"
            }, 
            {
              "id": "199236533423806", 
              "name": "Beauty Salon"
            }
          ], 
          "location": {
            "city": "Salt Lake City", 
            "zip": "84117-4980", 
            "country": "United States", 
            "longitude": -111.866011, 
            "state": "UT", 
            "street": "4700 S 900 E #10", 
            "latitude": 40.667436000000002
          }
        }, 
        {
          "category": "Local business", 
          "name": "Nancy's Nails", 
          "id": "172870122772340", 
          "category_list": [
            {
              "id": "198516863494646", 
              "name": "Nail Salon"
            }
          ], 
          "location": {
            "city": "Orange", 
            "zip": "06477", 
            "country": "United States", 
            "longitude": -73.0013390668, 
            "state": "CT", 
            "street": "15 Old Tavern Rd", 
            "latitude": 41.267870956300001
          }
        }, 
        {
          "category": "Local business", 
          "name": "Nancy Bailey's Nails", 
          "id": "100790679997590", 
          "category_list": [
            {
              "id": "198516863494646", 
              "name": "Nail Salon"
            }
          ], 
          "location": {
            "city": "Prospect", 
            "zip": "40026", 
            "country": "United States", 
            "longitude": -85.622467, 
            "state": "KY", 
            "street": "9535 Hwy 42", 
            "latitude": 38.332898
          }
        }, 
        {
          "category": "Local business", 
          "name": "Nails By Nancy", 
          "id": "137435639666077", 
          "category_list": [
            {
              "id": "198516863494646", 
              "name": "Nail Salon"
            }
          ], 
          "location": {
            "city": "Glenview", 
            "zip": "60025", 
            "country": "United States", 
            "longitude": -87.824607304300002, 
            "state": "IL", 
            "street": "", 
            "latitude": 42.054780341300003
          }
        }, 
        {
          "category": "Local business", 
          "name": "Nancy's Hair & Nail Studio", 
          "id": "153327054708674", 
          "category_list": [
            {
              "id": "198516863494646", 
              "name": "Nail Salon"
            }, 
            {
              "id": "199236533423806", 
              "name": "Beauty Salon"
            }
          ], 
          "location": {
            "city": "Vero Beach", 
            "zip": "32960-6707", 
            "country": "United States", 
            "longitude": -80.395381110700001, 
            "state": "FL", 
            "street": "1086 12th St", 
            "latitude": 27.6239564738
          }
        }, 
        {
          "category": "Local business", 
          "name": "Nancy's Professional Nail Care", 
          "id": "150892498285319", 
          "category_list": [
            {
              "id": "198516863494646", 
              "name": "Nail Salon"
            }
          ], 
          "location": {
            "city": "Laguna Niguel", 
            "zip": "92677-1226", 
            "country": "United States", 
            "longitude": -117.676514, 
            "state": "CA", 
            "street": "27812 Forbes Rd Ste C", 
            "latitude": 33.559078
          }
        }, 
        {
          "category": "Local business", 
          "name": "Nancy's Nails Salon", 
          "id": "133374643380064", 
          "category_list": [
            {
              "id": "199236533423806", 
              "name": "Beauty Salon"
            }, 
            {
              "id": "198516863494646", 
              "name": "Nail Salon"
            }
          ], 
          "location": {
            "city": "Philadelphia", 
            "zip": "19139-1511", 
            "country": "United States", 
            "longitude": -75.223845999999995, 
            "state": "PA", 
            "street": "5148 Haverford Ave", 
            "latitude": 39.964458
          }
        }, 
        {
          "category": "Local business", 
          "name": "Nancy's Hair Studio", 
          "id": "136411253074439", 
          "category_list": [
            {
              "id": "198516863494646", 
              "name": "Nail Salon"
            }, 
            {
              "id": "199236533423806", 
              "name": "Beauty Salon"
            }
          ], 
          "location": {
            "city": "Scotch Plains", 
            "zip": "07076-1751", 
            "country": "United States", 
            "longitude": -74.397262999999995, 
            "state": "NJ", 
            "street": "1810 E 2nd St", 
            "latitude": 40.648319000000001
          }
        }, 
        {
          "category": "Local business", 
          "name": "Nancy's Hair Design", 
          "id": "141969355850032", 
          "category_list": [
            {
              "id": "198516863494646", 
              "name": "Nail Salon"
            }, 
            {
              "id": "199236533423806", 
              "name": "Beauty Salon"
            }
          ], 
          "location": {
            "city": "Bronx", 
            "zip": "10467-3906", 
            "country": "United States", 
            "longitude": -73.879469, 
            "state": "NY", 
            "street": "3232 Bainbridge Ave", 
            "latitude": 40.876348
          }
        }, 
        {
          "category": "Local business", 
          "name": "Nancy's Nails", 
          "id": "154288611276535", 
          "category_list": [
            {
              "id": "199236533423806", 
              "name": "Beauty Salon"
            }, 
            {
              "id": "198516863494646", 
              "name": "Nail Salon"
            }
          ], 
          "location": {
            "city": "Redwood City", 
            "zip": "94063-3732", 
            "country": "United States", 
            "longitude": -122.205208, 
            "state": "CA", 
            "street": "3144 Middlefield Rd", 
            "latitude": 37.472394000000001
          }
        }, 
        {
          "category": "Local business", 
          "name": "Nancy's Nails", 
          "id": "154676081234200", 
          "category_list": [
            {
              "id": "199236533423806", 
              "name": "Beauty Salon"
            }, 
            {
              "id": "198516863494646", 
              "name": "Nail Salon"
            }
          ], 
          "location": {
            "city": "Rocky Hill", 
            "zip": "06067-2346", 
            "country": "United States", 
            "longitude": -72.642341999999999, 
            "state": "CT", 
            "street": "2162 Silas Deane Hwy", 
            "latitude": 41.669392000000002
          }
        }, 
        {
          "category": "Professional services", 
          "name": "Nails by Nancy", 
          "id": "443343869119183", 
          "category_list": [
            {
              "id": "198516863494646", 
              "name": "Nail Salon"
            }
          ], 
          "location": {
            "city": "West Point", 
            "zip": "95255", 
            "country": "United States", 
            "longitude": -120.528374, 
            "state": "CA", 
            "street": "Shear Image Salon 429 Main Street, Ste.#1", 
            "latitude": 38.402794
          }
        }, 
        {
          "category": "Spas/beauty/personal care", 
          "name": "Fancy Nancy's Beauty & The Beach Hair, Nail & Tanning Team", 
          "id": "240997302598344", 
          "category_list": [
            {
              "id": "199236533423806", 
              "name": "Beauty Salon"
            }
          ], 
          "location": {
            "city": "Digby", 
            "zip": "B0V1A0", 
            "country": "Canada", 
            "longitude": -65.763243382100001, 
            "state": "NS", 
            "street": "87 Warwick Street, Evangeline Mall", 
            "latitude": 44.615701441399999
          }
        }, 
        {
          "category": "Local business", 
          "name": "Nails by Nancy", 
          "id": "163587306993233", 
          "category_list": [
            {
              "id": "198516863494646", 
              "name": "Nail Salon"
            }, 
            {
              "id": "200814353265561", 
              "name": "Spa"
            }
          ], 
          "location": {
            "city": "Houston", 
            "zip": "77077-5365", 
            "country": "United States", 
            "longitude": -95.639358000000001, 
            "state": "TX", 
            "street": "14234 Westheimer Rd", 
            "latitude": 29.735863999999999
          }
        }, 
        {
          "category": "Local business", 
          "name": "Nancy Nails", 
          "id": "182777758421943", 
          "category_list": [
            {
              "id": "198516863494646", 
              "name": "Nail Salon"
            }
          ], 
          "location": {
            "city": "Chilliwack", 
            "zip": "", 
            "country": "Canada", 
            "longitude": -121.953370897, 
            "state": "BC", 
            "street": "", 
            "latitude": 49.169180777199998
          }
        }, 
        {
          "category": "Local business", 
          "name": "Nancy Nails", 
          "id": "184211221629937", 
          "category_list": [
            {
              "id": "198516863494646", 
              "name": "Nail Salon"
            }
          ], 
          "location": {
            "city": "Omaha", 
            "zip": "68106", 
            "country": "United States", 
            "longitude": -95.992676504100004, 
            "state": "NE", 
            "street": "", 
            "latitude": 41.226693299499999
          }
        }, 
        {
          "category": "Spas/beauty/personal care", 
          "name": "Couture Nails by Nancy", 
          "id": "274567872585842", 
          "category_list": [
            {
              "id": "198516863494646", 
              "name": "Nail Salon"
            }
          ], 
          "location": {
            "city": "Gonzales", 
            "zip": "70737", 
            "country": "United States", 
            "longitude": -90.921041930200005, 
            "state": "LA", 
            "street": "625 S. Burnside Ave, St 8", 
            "latitude": 30.228028625499999
          }
        }, 
        {
          "category": "Spas/beauty/personal care", 
          "name": "U\u00d1AS NANCY MEJIA", 
          "id": "1417182568508236", 
          "category_list": [
            {
              "id": "198516863494646", 
              "name": "Nail Salon"
            }
          ], 
          "location": {
            "city": "Puebla", 
            "zip": "72170", 
            "country": "Mexico", 
            "longitude": -98.212535794711002, 
            "state": "", 
            "street": "calle buganbilias # 48 col. sta. cruz buenavista ", 
            "latitude": 19.070899698881998
          }
        }, 
        {
          "category": "Local business", 
          "name": "Nancy Nails", 
          "id": "228592247184182", 
          "category_list": [
            {
              "id": "198516863494646", 
              "name": "Nail Salon"
            }, 
            {
              "id": "144873802247220", 
              "name": "Cosmetics & Beauty Supply"
            }
          ], 
          "location": {
            "city": "North Miami Beach", 
            "zip": "33162", 
            "country": "United States", 
            "longitude": -80.177417571600003, 
            "state": "FL", 
            "street": "", 
            "latitude": 25.9258475014
          }
        }, 
        {
          "category": "Local business", 
          "name": "Nancy's Hair & Nails", 
          "id": "159952074027343", 
          "category_list": [
            {
              "id": "199236533423806", 
              "name": "Beauty Salon"
            }, 
            {
              "id": "198516863494646", 
              "name": "Nail Salon"
            }
          ], 
          "location": {
            "city": "Houston", 
            "zip": "77089-2510", 
            "country": "United States", 
            "longitude": -95.222885000000005, 
            "state": "TX", 
            "street": "11001 Fuqua St", 
            "latitude": 29.612677000000001
          }
        }, 
        {
          "category": "Local business", 
          "name": "Nails by Nancy", 
          "id": "180119492004098", 
          "category_list": [
            {
              "id": "199236533423806", 
              "name": "Beauty Salon"
            }, 
            {
              "id": "198516863494646", 
              "name": "Nail Salon"
            }, 
            {
              "id": "144873802247220", 
              "name": "Cosmetics & Beauty Supply"
            }
          ], 
          "location": {
            "city": "Quincy", 
            "zip": "02184", 
            "country": "United States", 
            "longitude": -71.004159632699995, 
            "state": "MA", 
            "street": "", 
            "latitude": 42.2204561824
          }
        }, 
        {
          "category": "Professional services", 
          "name": "U\u00f1as nancy fashion'nails", 
          "id": "1407046666184073", 
          "category_list": [
            {
              "id": "198516863494646", 
              "name": "Nail Salon"
            }
          ], 
          "location": {
            "city": "Alajuela", 
            "zip": "", 
            "country": "Costa Rica", 
            "longitude": -84.222848066666998, 
            "state": "", 
            "street": "urbanizacion gregorio", 
            "latitude": 10.009364166667
          }
        }, 
        {
          "category": "Local business", 
          "name": "Nancy's Hair & Nails", 
          "id": "158350324199767", 
          "category_list": [
            {
              "id": "199236533423806", 
              "name": "Beauty Salon"
            }, 
            {
              "id": "198516863494646", 
              "name": "Nail Salon"
            }
          ], 
          "location": {
            "city": "Las Vegas", 
            "zip": "89121-3622", 
            "country": "United States", 
            "longitude": -115.117096, 
            "state": "NV", 
            "street": "2466 E Desert Inn Rd", 
            "latitude": 36.130885999999997
          }
        }, 
        {
          "category": "Spas/beauty/personal care", 
          "name": "Nancy hair & nail", 
          "id": "244020825688780", 
          "category_list": [
            {
              "id": "198516863494646", 
              "name": "Nail Salon"
            }
          ], 
          "location": {
            "city": "Suisun City", 
            "zip": "94585", 
            "country": "United States", 
            "longitude": -122.034485726, 
            "state": "CA", 
            "street": "407 marina center", 
            "latitude": 38.243768124699997
          }
        }, 
        {
          "category": "Local business", 
          "name": "Nancy's Nails & Hair", 
          "id": "168380813175217", 
          "category_list": [
            {
              "id": "199236533423806", 
              "name": "Beauty Salon"
            }, 
            {
              "id": "198516863494646", 
              "name": "Nail Salon"
            }
          ], 
          "location": {
            "city": "Sunbury", 
            "zip": "17801-2323", 
            "country": "United States", 
            "longitude": -76.786514999999994, 
            "state": "PA", 
            "street": "817 Market St", 
            "latitude": 40.859664000000002
          }
        }, 
        {
          "category": "Spas/beauty/personal care", 
          "name": "Nancy Nails - m\u0171k\u00f6r\u00f6m", 
          "id": "490336554387642", 
          "category_list": [
            {
              "id": "198516863494646", 
              "name": "Nail Salon"
            }
          ], 
          "location": {
            "city": "Szeged", 
            "zip": "6722", 
            "country": "Hungary", 
            "longitude": 20.137685566666999, 
            "state": "", 
            "street": "Pet\u0151fi S\u00e1ndor sgt 46.", 
            "latitude": 46.246763133332998
          }
        }, 
        {
          "category": "Spas/beauty/personal care", 
          "name": "Nails by Nancy", 
          "id": "398186733572994", 
          "category_list": [
            {
              "id": "198516863494646", 
              "name": "Nail Salon"
            }
          ], 
          "location": {
            "city": "Dunwoody", 
            "zip": "30338", 
            "country": "United States", 
            "longitude": -84.332694000000004, 
            "state": "GA", 
            "street": "1408 Dunwoody Village Pkwy", 
            "latitude": 33.949491000000002
          }
        }, 
        {
          "category": "Local business", 
          "name": "Nancy's Nails and Hair", 
          "id": "125303894189644", 
          "category_list": [
            {
              "id": "199236533423806", 
              "name": "Beauty Salon"
            }, 
            {
              "id": "198516863494646", 
              "name": "Nail Salon"
            }
          ], 
          "location": {
            "city": "Norristown", 
            "zip": "19401-5169", 
            "country": "United States", 
            "longitude": -75.336547999999993, 
            "state": "PA", 
            "street": "422 E Main St", 
            "latitude": 40.111300999999997
          }
        }, 
        {
          "category": "Local business", 
          "name": "Nancy Nails & Spa", 
          "id": "292205904226276", 
          "category_list": [
            {
              "id": "198516863494646", 
              "name": "Nail Salon"
            }
          ], 
          "location": {
            "city": "Lufkin", 
            "zip": "75901", 
            "country": "United States", 
            "longitude": -94.721706352799998, 
            "state": "TX", 
            "street": "", 
            "latitude": 31.3305707558
          }
        }, 
        {
          "category": "Local business", 
          "name": "Nancy Nails", 
          "id": "199086633459608", 
          "category_list": [
            {
              "id": "198516863494646", 
              "name": "Nail Salon"
            }, 
            {
              "id": "200814353265561", 
              "name": "Spa"
            }, 
            {
              "id": "169758603141095", 
              "name": "Barber Shop"
            }
          ], 
          "location": {
            "city": "North Palm Beach", 
            "zip": "33408", 
            "country": "United States", 
            "longitude": -80.058602215299999, 
            "state": "FL", 
            "street": "", 
            "latitude": 26.8544022496
          }
        }, 
        {
          "category": "Spas/beauty/personal care", 
          "name": "Nancy Nails HOLT", 
          "id": "215652321888306", 
          "category_list": [
            {
              "id": "139225689474222", 
              "name": "Spa, Beauty & Personal Care"
            }
          ], 
          "location": {
            "city": "Holt", 
            "zip": "48842", 
            "country": "United States", 
            "longitude": -84.517516739599998, 
            "state": "MI", 
            "street": "2068 N CEDAR ST", 
            "latitude": 42.642541251799997
          }
        }, 
        {
          "category": "Spas/beauty/personal care", 
          "name": "Scottsdale Nails By Nancy", 
          "id": "195695277246780", 
          "category_list": [
            {
              "id": "198516863494646", 
              "name": "Nail Salon"
            }
          ], 
          "location": {
            "city": "Scottsdale", 
            "zip": "85251", 
            "country": "United States", 
            "longitude": -111.925386, 
            "state": "AZ", 
            "street": "4821 North Scottsdale Road Suite 105", 
            "latitude": 33.506587000000003
          }
        }, 
        {
          "category": "Business services", 
          "name": "Nagelstudio Nancy Seehaus", 
          "id": "204787472961916", 
          "category_list": [
            {
              "id": "198516863494646", 
              "name": "Nail Salon"
            }, 
            {
              "id": "187133811318958", 
              "name": "Business Services"
            }
          ], 
          "location": {
            "city": "Velden am W\u00f6rthersee", 
            "zip": "9220", 
            "country": "Austria", 
            "longitude": 14.058774426337999, 
            "state": "", 
            "street": "Excelsiorstrasse 34", 
            "latitude": 46.606042094669
          }
        }, 
        {
          "category": "Local business", 
          "name": "Nancy & Company", 
          "id": "126535920732861", 
          "category_list": [
            {
              "id": "198516863494646", 
              "name": "Nail Salon"
            }
          ], 
          "location": {
            "city": "Greenville", 
            "zip": "75401-5952", 
            "country": "United States", 
            "longitude": -96.107776121499995, 
            "state": "TX", 
            "street": "4510 Stonewall St", 
            "latitude": 33.124695304900001
          }
        }, 
        {
          "category": "Local business", 
          "name": "Nails by Nancy", 
          "id": "144274248988232", 
          "category_list": [
            {
              "id": "198516863494646", 
              "name": "Nail Salon"
            }
          ], 
          "location": {
            "city": "Golden Glades", 
            "zip": "33168", 
            "country": "United States", 
            "longitude": -80.213004741800006, 
            "state": "FL", 
            "street": "", 
            "latitude": 25.912168915599999
          }
        }, 
        {
          "category": "Small business", 
          "name": "\"Nails and Hairstyle\" Inh. Nancy Haese", 
          "id": "231879433541188", 
          "category_list": [
            {
              "id": "198516863494646", 
              "name": "Nail Salon"
            }
          ], 
          "location": {
            "city": "Magdeburg", 
            "zip": "39112", 
            "country": "Germany", 
            "longitude": 11.619832000000001, 
            "state": "", 
            "street": "Leipzigerstrasse 29", 
            "latitude": 52.108041999999998
          }
        }, 
        {
          "category": "Local business", 
          "name": "Nancy Nails", 
          "id": "132082740206783", 
          "category_list": [
            {
              "id": "198516863494646", 
              "name": "Nail Salon"
            }
          ], 
          "location": {
            "city": "West Babylon", 
            "zip": "11704", 
            "country": "United States", 
            "longitude": -73.343087906600005, 
            "state": "NY", 
            "street": "", 
            "latitude": 40.701774757999999
          }
        }, 
        {
          "category": "Local business", 
          "name": "Nancy Le Nails", 
          "id": "116249435103641", 
          "category_list": [
            {
              "id": "198516863494646", 
              "name": "Nail Salon"
            }
          ], 
          "location": {
            "city": "Philadelphia", 
            "zip": "19150-3709", 
            "country": "United States", 
            "longitude": -75.167458798499993, 
            "state": "PA", 
            "street": "7419 Stenton Ave", 
            "latitude": 40.060931765600003
          }
        }, 
        {
          "category": "Spas/beauty/personal care", 
          "name": "Nancy Fancy Nails Spa", 
          "id": "151789328257133", 
          "category_list": [
            {
              "id": "139225689474222", 
              "name": "Spa, Beauty & Personal Care"
            }
          ], 
          "location": {
            "city": "The Woodlands", 
            "zip": "77382", 
            "country": "United States", 
            "longitude": -95.585908742900003, 
            "state": "TX", 
            "street": "9950 Woodlands Parkway Suite 300", 
            "latitude": 30.191712214199999
          }
        }, 
        {
          "category": "Local business", 
          "name": "Nancy Le Nails", 
          "id": "182077181812086", 
          "category_list": [
            {
              "id": "198516863494646", 
              "name": "Nail Salon"
            }
          ], 
          "location": {
            "city": "Philadelphia", 
            "zip": "19104", 
            "country": "United States", 
            "longitude": -75.202631049700003, 
            "state": "PA", 
            "street": "", 
            "latitude": 39.957193370200002
          }
        }, 
        {
          "category": "Local business", 
          "name": "Nancy Nails & Spa", 
          "id": "144622655592873", 
          "category_list": [
            {
              "id": "198516863494646", 
              "name": "Nail Salon"
            }, 
            {
              "id": "144873802247220", 
              "name": "Cosmetics & Beauty Supply"
            }
          ], 
          "location": {
            "city": "Palm Bay", 
            "zip": "", 
            "country": "United States", 
            "longitude": -80.628679131200002, 
            "state": "FL", 
            "street": "", 
            "latitude": 27.998279606400001
          }
        }, 
        {
          "category": "Spas/beauty/personal care", 
          "name": "Nancy Nails / Above & Beyond salon", 
          "id": "192747874143473", 
          "category_list": [
            {
              "id": "174177802634376", 
              "name": "Hair Salon"
            }
          ], 
          "location": {
            "city": "Jacksonville", 
            "zip": "28546", 
            "country": "United States", 
            "longitude": -77.384517000000002, 
            "state": "NC", 
            "street": "353-B Western Blvd", 
            "latitude": 34.767198
          }
        }, 
        {
          "category": "Business services", 
          "name": "Nancys Nagelstudio", 
          "id": "1426293084266050", 
          "category_list": [
            {
              "id": "198516863494646", 
              "name": "Nail Salon"
            }
          ], 
          "location": {
            "city": "M\u00fchlheim", 
            "zip": "63165", 
            "country": "Germany", 
            "longitude": 8.8278892356981995, 
            "state": "", 
            "street": "Offenbacher Str. 37", 
            "latitude": 50.123651382376003
          }
        }, 
        {
          "category": "Local business", 
          "name": "Nancys Nails", 
          "id": "138316969547044", 
          "category_list": [
            {
              "id": "198516863494646", 
              "name": "Nail Salon"
            }
          ], 
          "location": {
            "city": "Houston", 
            "zip": "77088", 
            "country": "United States", 
            "longitude": -95.480852823567005, 
            "state": "TX", 
            "street": "", 
            "latitude": 29.866182459046001
          }
        }, 
        {
          "category": "Local business", 
          "name": "Nanci's Nailtique & Esthetique", 
          "id": "162175513801590", 
          "category_list": [
            {
              "id": "198516863494646", 
              "name": "Nail Salon"
            }, 
            {
              "id": "200121186665577", 
              "name": "Police Station"
            }, 
            {
              "id": "145118935550090", 
              "name": "Medical & Health"
            }
          ], 
          "location": {
            "city": "Litchfield", 
            "zip": "03052-2468", 
            "country": "United States", 
            "longitude": -71.472329000000002, 
            "state": "NH", 
            "street": "10 Broadview Dr", 
            "latitude": 42.822057999999998
          }
        }, 
        {
          "category": "Local business", 
          "name": "Nancys Nails", 
          "id": "151860364855400", 
          "category_list": [
            {
              "id": "198516863494646", 
              "name": "Nail Salon"
            }
          ], 
          "location": {
            "city": "Terre Haute", 
            "zip": "47802-4415", 
            "country": "United States", 
            "longitude": -87.408284552330002, 
            "state": "IN", 
            "street": "4818 S Us Highway 41", 
            "latitude": 39.407540839017997
          }
        }, 
        {
          "category": "Local business", 
          "name": "Nancys Nails", 
          "id": "239868079376640", 
          "category_list": [
            {
              "id": "198516863494646", 
              "name": "Nail Salon"
            }
          ], 
          "location": {
            "city": "Glenview", 
            "zip": "60025", 
            "country": "United States", 
            "longitude": -87.806301219199995, 
            "state": "IL", 
            "street": "", 
            "latitude": 42.072814237300001
          }
        }, 
        {
          "category": "Local business", 
          "name": "Nancys Nails", 
          "id": "182585665090052", 
          "category_list": [
            {
              "id": "198516863494646", 
              "name": "Nail Salon"
            }
          ], 
          "location": {
            "city": "Oakdale", 
            "zip": "71463", 
            "country": "United States", 
            "longitude": -92.662147457230006, 
            "state": "LA", 
            "street": "", 
            "latitude": 30.814969295409
          }
        }
      ]
    }
  }, 
  {
    "business_name": "Rod Works", 
    "business_id": "ayPvmIg5fIU0DNxXmWHcAQ", 
    "fb_pages": {
      "paging": {
        "next": "https://graph.facebook.com/search?type=place&access_token=229546593895315|yPLlHqq6YvDLIH4nL0kjJtIFSlU&limit=5000&offset=5000&__after_id=168236563354559"
      }, 
      "data": [
        {
          "category": "Shopping/retail", 
          "name": "Rod Works Arizona", 
          "id": "163770763663081", 
          "category_list": [
            {
              "id": "200600219953504", 
              "name": "Shopping & Retail"
            }
          ], 
          "location": {
            "city": "Gilbert", 
            "zip": "85296", 
            "country": "United States", 
            "longitude": -111.72059180700001, 
            "state": "AZ", 
            "street": "1493 S Higley Rd #104", 
            "latitude": 33.323053868899997
          }
        }, 
        {
          "category": "Local business", 
          "name": "Rod Works Las Vegas", 
          "id": "212541467307", 
          "category_list": [
            {
              "id": "192647794097278", 
              "name": "Home Decor"
            }
          ], 
          "location": {
            "city": "Las Vegas", 
            "zip": "89129", 
            "country": "United States", 
            "longitude": -115.32559620000001, 
            "state": "NV", 
            "street": "10470 W Cheyenne and 2nd location at 9302 S Eastern #100 in Henderson ", 
            "latitude": 36.219398638000001
          }
        }, 
        {
          "category": "Local business", 
          "name": "Rod Works", 
          "id": "296705577075624", 
          "category_list": [
            {
              "id": "2500", 
              "name": "Local Business"
            }
          ], 
          "location": {
            "city": "Henderson", 
            "zip": "89123", 
            "country": "United States", 
            "longitude": -115.117664269, 
            "state": "NV", 
            "street": "", 
            "latitude": 36.020178863300004
          }
        }, 
        {
          "category": "Local business", 
          "name": "Rod Works", 
          "id": "166202873405974", 
          "category_list": [
            {
              "id": "162845797101278", 
              "name": "Furniture Store"
            }, 
            {
              "id": "183680385005847", 
              "name": "Housewares"
            }
          ], 
          "location": {
            "city": "Lehi", 
            "zip": "84043-2906", 
            "country": "United States", 
            "longitude": -111.900558, 
            "state": "UT", 
            "street": "4275 Thanksgiving Way", 
            "latitude": 40.439456999999997
          }
        }, 
        {
          "category": "Local business", 
          "name": "Rod Works", 
          "id": "131973440298611", 
          "category_list": [
            {
              "id": "369730359717478", 
              "name": "Other"
            }
          ], 
          "location": {
            "city": "Folsom", 
            "zip": "95630", 
            "country": "United States", 
            "longitude": -121.120678752, 
            "state": "CA", 
            "street": "", 
            "latitude": 38.6507174264
          }
        }, 
        {
          "category": "Local business", 
          "name": "Rod Works", 
          "id": "134271046624686", 
          "category_list": [
            {
              "id": "2500", 
              "name": "Local Business"
            }
          ], 
          "location": {
            "city": "Draper", 
            "zip": "84020", 
            "country": "United States", 
            "longitude": -111.870349543, 
            "state": "UT", 
            "street": "12200 S 726 E", 
            "latitude": 40.528224933499999
          }
        }, 
        {
          "category": "Local business", 
          "name": "Rod Works", 
          "id": "160002607356390", 
          "category_list": [
            {
              "id": "2500", 
              "name": "Local Business"
            }
          ], 
          "location": {
            "city": "Springville", 
            "zip": "84663-5706", 
            "country": "United States", 
            "longitude": -111.643066, 
            "state": "UT", 
            "street": "484 S 1750 W", 
            "latitude": 40.160739999999997
          }
        }, 
        {
          "category": "Local business", 
          "name": "ROD Works Fabrication", 
          "id": "426773440726099", 
          "category_list": [
            {
              "id": "2500", 
              "name": "Local Business"
            }
          ], 
          "location": {
            "city": "Austin", 
            "zip": "", 
            "country": "United States", 
            "longitude": -97.704032999999995, 
            "state": "TX", 
            "street": "", 
            "latitude": 30.414401999999999
          }
        }, 
        {
          "category": "Automobiles and parts", 
          "name": "ANDY'S Rod Works", 
          "id": "113202998843654", 
          "category_list": [
            {
              "id": "2240", 
              "name": "Automobiles and Parts"
            }
          ], 
          "location": {
            "city": "Matsudo-shi", 
            "zip": "270-2214", 
            "country": "Japan", 
            "longitude": 139.96402, 
            "state": "Chiba", 
            "street": "\u677e\u98db\u53f0286-12", 
            "latitude": 35.77928
          }
        }, 
        {
          "category": "Local business", 
          "name": "Rod's Cedar Works", 
          "id": "229075840604420", 
          "category_list": [
            {
              "id": "162845797101278", 
              "name": "Furniture Store"
            }, 
            {
              "id": "199611383389617", 
              "name": "Lodge"
            }
          ], 
          "location": {
            "city": "O'Neill", 
            "zip": "68763", 
            "country": "United States", 
            "longitude": -98.650812000000002, 
            "state": "NE", 
            "street": "710 N 2nd St", 
            "latitude": 42.464407000000001
          }
        }, 
        {
          "category": "Automotive", 
          "name": "Thompson Rod Works", 
          "id": "182871061804125", 
          "category_list": [
            {
              "id": "176831012360626", 
              "name": "Professional Services"
            }
          ], 
          "location": {
            "city": "Warsaw", 
            "zip": "62379", 
            "country": "United States", 
            "longitude": -91.437652999999997, 
            "state": "IL", 
            "street": "346 S 4th ST", 
            "latitude": 40.357661999999998
          }
        }, 
        {
          "category": "Local business", 
          "name": "California Rod Works", 
          "id": "107502169309087", 
          "category_list": [
            {
              "id": "2500", 
              "name": "Local Business"
            }
          ], 
          "location": {
            "city": "Rancho Cordova", 
            "zip": "95742", 
            "country": "United States", 
            "longitude": -121.263374, 
            "state": "CA", 
            "street": "11300 Sunrise Gold Circle, Unit E", 
            "latitude": 38.599299999999999
          }
        }, 
        {
          "category": "Local business", 
          "name": "Dixie Rod Works", 
          "id": "116036541791515", 
          "category_list": [
            {
              "id": "2500", 
              "name": "Local Business"
            }
          ], 
          "location": {
            "city": "Waycross", 
            "zip": "31501-1037", 
            "country": "United States", 
            "longitude": -82.334777000000003, 
            "state": "GA", 
            "street": "1805 Old Reynolds St", 
            "latitude": 31.204028999999998
          }
        }, 
        {
          "category": "Local business", 
          "name": "Wickford Rod Works", 
          "id": "120604277997683", 
          "category_list": [
            {
              "id": "165823830131654", 
              "name": "Sporting Goods Store"
            }
          ], 
          "location": {
            "city": "North Kingstown", 
            "zip": "02852-6219", 
            "country": "United States", 
            "longitude": -71.440094000000002, 
            "state": "RI", 
            "street": "125 Duck Cove Rd", 
            "latitude": 41.558169999999997
          }
        }, 
        {
          "category": "Local business", 
          "name": "Dedner's Rod Workshop", 
          "id": "126571250731254", 
          "category_list": [
            {
              "id": "149998721725634", 
              "name": "Automotive Repair"
            }
          ], 
          "location": {
            "city": "West Sayville", 
            "zip": "11796-1229", 
            "country": "United States", 
            "longitude": -73.095665999999994, 
            "state": "NY", 
            "street": "200 Cherry Ave Unit B", 
            "latitude": 40.740842999999998
          }
        }, 
        {
          "category": "Local business", 
          "name": "Dixie Rod Works", 
          "id": "164077520285225", 
          "category_list": [
            {
              "id": "180410821995109", 
              "name": "Automotive"
            }
          ], 
          "location": {
            "city": "Waycross", 
            "zip": "31501-2226", 
            "country": "United States", 
            "longitude": -82.358315000000005, 
            "state": "GA", 
            "street": "201 Jenkins St", 
            "latitude": 31.208193000000001
          }
        }, 
        {
          "category": "Local business", 
          "name": "Spartan Rod Works", 
          "id": "166149993410618", 
          "category_list": [
            {
              "id": "2500", 
              "name": "Local Business"
            }
          ], 
          "location": {
            "city": "Sparta", 
            "zip": "54656-4694", 
            "country": "United States", 
            "longitude": -90.884648999999996, 
            "state": "WI", 
            "street": "7149 Canine Rd", 
            "latitude": 44.069887999999999
          }
        }, 
        {
          "category": "Local business", 
          "name": "Rod Builders Workshop", 
          "id": "154846857885637", 
          "category_list": [
            {
              "id": "165823830131654", 
              "name": "Sporting Goods Store"
            }, 
            {
              "id": "108427109235243", 
              "name": "Home Improvement"
            }
          ], 
          "location": {
            "city": "Kingston", 
            "zip": "02364-2239", 
            "country": "United States", 
            "longitude": -70.707644999999999, 
            "state": "MA", 
            "street": "100 Main St", 
            "latitude": 41.987355000000001
          }
        }, 
        {
          "category": "Sports/recreation/activities", 
          "name": "South Pass Rod Works", 
          "id": "621548104556375", 
          "category_list": [
            {
              "id": "110098282406681", 
              "name": "Fishing"
            }
          ], 
          "location": {
            "city": "Katy", 
            "zip": "77450", 
            "country": "United States", 
            "longitude": -95.731162999999995, 
            "state": "TX", 
            "street": "20636 Cranfield Dr", 
            "latitude": 29.779506999999999
          }
        }, 
        {
          "category": "Local business", 
          "name": "Rod's Auto Works", 
          "id": "122837461107290", 
          "category_list": [
            {
              "id": "149998721725634", 
              "name": "Automotive Repair"
            }
          ], 
          "location": {
            "city": "Miami", 
            "zip": "33186-5423", 
            "country": "United States", 
            "longitude": -80.397071999999994, 
            "state": "FL", 
            "street": "12520 SW 128th St", 
            "latitude": 25.648367
          }
        }, 
        {
          "category": "Local business", 
          "name": "L Rod Iron Works", 
          "id": "168657576483506", 
          "category_list": [
            {
              "id": "183680385005847", 
              "name": "Housewares"
            }, 
            {
              "id": "187133811318958", 
              "name": "Business Services"
            }
          ], 
          "location": {
            "city": "Northridge", 
            "zip": "91324-4006", 
            "country": "United States", 
            "longitude": -118.53751699999999, 
            "state": "CA", 
            "street": "8739 Baird Ave", 
            "latitude": 34.230114999999998
          }
        }, 
        {
          "category": "Health/beauty", 
          "name": "NIC ROD ELI 11 It works Global", 
          "id": "1375035616054685", 
          "category_list": [
            {
              "id": "2214", 
              "name": "Health/Beauty"
            }
          ], 
          "location": {
            "city": "Mildura", 
            "zip": "3500", 
            "country": "Australia", 
            "longitude": 142.15000000000001, 
            "state": "VIC", 
            "street": "4 beasy crt", 
            "latitude": -34.200000000000003
          }
        }, 
        {
          "category": "Outdoor gear/sporting goods", 
          "name": "Brando Custom Rod Works", 
          "id": "327205274052088", 
          "category_list": [
            {
              "id": "110098282406681", 
              "name": "Fishing"
            }, 
            {
              "id": "175333089178368", 
              "name": "Hunting and Fishing"
            }
          ], 
          "location": {
            "city": "Polk", 
            "zip": "16342", 
            "country": "United States", 
            "longitude": -79.988792000000004, 
            "state": "PA", 
            "street": "111 Palm Hill Rd", 
            "latitude": 41.361651000000002
          }
        }, 
        {
          "category": "Outdoor gear/sporting goods", 
          "name": "Down South Rod Works", 
          "id": "200394360029915", 
          "category_list": [
            {
              "id": "2231", 
              "name": "Outdoor Gear/Sporting Goods"
            }
          ], 
          "location": {
            "city": "Willard", 
            "zip": "28478", 
            "country": "United States", 
            "longitude": -78.049484000000007, 
            "state": "NC", 
            "street": "139 Gail Rd.", 
            "latitude": 34.662028999999997
          }
        }, 
        {
          "category": "Local business", 
          "name": "Calderon Rod & Kustom Works", 
          "id": "362905207078336", 
          "category_list": [
            {
              "id": "2500", 
              "name": "Local Business"
            }
          ], 
          "location": {
            "city": "Sacramento", 
            "zip": "95691", 
            "country": "United States", 
            "longitude": -121.549255, 
            "state": "CA", 
            "street": "529 Houston Street, Unit D", 
            "latitude": 38.583678999999997
          }
        }, 
        {
          "category": "Local business", 
          "name": "Rod's Concrete Works LLC", 
          "id": "149485758427423", 
          "category_list": [
            {
              "id": "179618232079666", 
              "name": "Concrete Contractor"
            }
          ], 
          "location": {
            "city": "Tucson", 
            "zip": "85745-1011", 
            "country": "United States", 
            "longitude": -111.02594000000001, 
            "state": "AZ", 
            "street": "2530 N Broken Arrow Trl", 
            "latitude": 32.253310999999997
          }
        }, 
        {
          "category": "Local business", 
          "name": "Gamache Rod & Custom Works", 
          "id": "159493190748093", 
          "category_list": [
            {
              "id": "180410821995109", 
              "name": "Automotive"
            }
          ], 
          "location": {
            "city": "East Freetown", 
            "zip": "02717-1711", 
            "country": "United States", 
            "longitude": -70.937798000000001, 
            "state": "MA", 
            "street": "114 Middleboro Rd", 
            "latitude": 41.76952
          }
        }, 
        {
          "category": "Local business", 
          "name": "Tex Engler's Rod & Kustom Works", 
          "id": "112458325483964", 
          "category_list": [
            {
              "id": "188462984509706", 
              "name": "Auto Body Shop"
            }
          ], 
          "location": {
            "city": "Auburn", 
            "zip": "42206-9386", 
            "country": "United States", 
            "longitude": -86.752880000000005, 
            "state": "KY", 
            "street": "70 Cartmill Rd", 
            "latitude": 36.855379999999997
          }
        }, 
        {
          "category": "Sports/recreation/activities", 
          "name": "Bad Addiction Custom Rod Works", 
          "id": "175023342555894", 
          "category_list": [
            {
              "id": "186982054657561", 
              "name": "Sports & Recreation"
            }
          ], 
          "location": {
            "city": "Bakersfield", 
            "zip": "93309", 
            "country": "United States", 
            "longitude": -119.078186, 
            "state": "CA", 
            "street": "3813 Louisville Drive", 
            "latitude": 35.319499999999998
          }
        }, 
        {
          "category": "Professional services", 
          "name": "Dave's Rod Work's/ FOB Fabricatiom", 
          "id": "374754449308906", 
          "category_list": [
            {
              "id": "176831012360626", 
              "name": "Professional Services"
            }
          ], 
          "location": {
            "city": "Kankakee", 
            "zip": "60901", 
            "country": "United States", 
            "longitude": -87.863900000000001, 
            "state": "IL", 
            "street": "Justice Way", 
            "latitude": 41.116999999999997
          }
        }, 
        {
          "category": "Local business", 
          "name": "Lime Works Street Rod & Classic Restoration & Repair", 
          "id": "122608407797952", 
          "category_list": [
            {
              "id": "124718197599943", 
              "name": "Automotive Restoration"
            }, 
            {
              "id": "149998721725634", 
              "name": "Automotive Repair"
            }
          ], 
          "location": {
            "city": "Whittier", 
            "zip": "90602-2106", 
            "country": "United States", 
            "longitude": -118.03775, 
            "state": "CA", 
            "street": "7717 Greenleaf Ave", 
            "latitude": 33.971252
          }
        }, 
        {
          "category": "Local business", 
          "name": "Iron works customs & rods", 
          "id": "150627544968601", 
          "category_list": [
            {
              "id": "2500", 
              "name": "Local Business"
            }
          ], 
          "location": {
            "city": "New Harbor", 
            "zip": "04554", 
            "country": "United States", 
            "longitude": -69.511564000000007, 
            "state": "ME", 
            "street": "10 loring rd", 
            "latitude": 43.873918000000003
          }
        }, 
        {
          "category": "Local business", 
          "name": "Rods Babbitt & Mach Works", 
          "id": "154784394558430", 
          "category_list": [
            {
              "id": "149998721725634", 
              "name": "Automotive Repair"
            }
          ], 
          "location": {
            "city": "Mount Vernon", 
            "zip": "10550-5009", 
            "country": "United States", 
            "longitude": -73.825812999999997, 
            "state": "NY", 
            "street": "529 S Fulton Ave", 
            "latitude": 40.899506000000002
          }
        }, 
        {
          "category": "Automotive", 
          "name": "EZ Work Street Rods", 
          "id": "168236563354559", 
          "category_list": [
            {
              "id": "186712678028215", 
              "name": "Automotive Customizing"
            }
          ], 
          "location": {
            "city": "Spring", 
            "zip": "77389", 
            "country": "United States", 
            "longitude": -95.537086000000002, 
            "state": "TX", 
            "street": "7527 Root Rd", 
            "latitude": 30.101292999999998
          }
        }
      ]
    }
  }, 
  {
    "business_name": "El Jardinero Landscaping and Pools", 
    "business_id": "G8gnKW4aKckwtSe_XbP39Q", 
    "fb_pages": {
      "data": []
    }
  }, 
  {
    "business_name": "Gilbert True Value Hardware", 
    "business_id": "Qjjydo_zzWLyr7S7zwv8EQ", 
    "fb_pages": {
      "paging": {
        "next": "https://graph.facebook.com/search?type=place&access_token=229546593895315|yPLlHqq6YvDLIH4nL0kjJtIFSlU&limit=5000&offset=5000&__after_id=152617801419717"
      }, 
      "data": [
        {
          "category": "Local business", 
          "name": "Gilbert's True Value Hardware", 
          "id": "283709985071280", 
          "category_list": [
            {
              "id": "2500", 
              "name": "Local Business"
            }
          ], 
          "location": {
            "city": "DeWitt", 
            "zip": "48820", 
            "country": "United States", 
            "longitude": -84.544559977500001, 
            "state": "MI", 
            "street": "", 
            "latitude": 42.828897052999999
          }
        }, 
        {
          "category": "Local business", 
          "name": "True Value", 
          "id": "152617801419717", 
          "category_list": [
            {
              "id": "148906328500868", 
              "name": "Hardware Store"
            }
          ], 
          "location": {
            "city": "Gilbert", 
            "zip": "85234-4600", 
            "country": "United States", 
            "longitude": -111.789345, 
            "state": "AZ", 
            "street": "601 N Gilbert Rd", 
            "latitude": 33.360638000000002
          }
        }
      ]
    }
  }
]