[
  {
    "business_name": "Macayo's Mexican Kitchen", 
    "business_id": "EreqxAEKm62XtDMRYXglDw", 
    "fb_pages": {
      "paging": {
        "next": "https://graph.facebook.com/search?type=place&access_token=229546593895315|yPLlHqq6YvDLIH4nL0kjJtIFSlU&limit=5000&offset=5000&__after_id=109492952423011"
      }, 
      "data": [
        {
          "category": "Local business", 
          "name": "Macayo's Mexican Kitchen", 
          "id": "109565469081308", 
          "category_list": [
            {
              "id": "199377230079198", 
              "name": "Mexican Restaurant"
            }
          ], 
          "location": {
            "city": "Phoenix", 
            "zip": "85033-5442", 
            "country": "United States", 
            "longitude": -112.22785026029, 
            "state": "AZ", 
            "street": "7829 W Thomas Rd", 
            "latitude": 33.479545479320997
          }
        }, 
        {
          "category": "Local business", 
          "name": "Macayo's Mexican Kitchen", 
          "id": "115778215112061", 
          "category_list": [
            {
              "id": "199377230079198", 
              "name": "Mexican Restaurant"
            }
          ], 
          "location": {
            "city": "Mesa", 
            "zip": "85202-5616", 
            "country": "United States", 
            "longitude": -111.87837529273, 
            "state": "AZ", 
            "street": "1920 S Dobson Rd", 
            "latitude": 33.379623010712002
          }
        }, 
        {
          "category": "Local business", 
          "name": "Macayo's Mexican Kitchen", 
          "id": "113383578694675", 
          "category_list": [
            {
              "id": "199377230079198", 
              "name": "Mexican Restaurant"
            }
          ], 
          "location": {
            "city": "Goodyear", 
            "zip": "85395-1263", 
            "country": "United States", 
            "longitude": -112.35947596024999, 
            "state": "AZ", 
            "street": "1474 N Litchfield Rd", 
            "latitude": 33.463768243681002
          }
        }, 
        {
          "category": "Local business", 
          "name": "Macayo's Mexican Kitchen", 
          "id": "115984958422061", 
          "category_list": [
            {
              "id": "139433292785470", 
              "name": "Caterer"
            }, 
            {
              "id": "199377230079198", 
              "name": "Mexican Restaurant"
            }, 
            {
              "id": "191173027579272", 
              "name": "Wedding Planning"
            }
          ], 
          "location": {
            "city": "Tucson", 
            "zip": "85710-2805", 
            "country": "United States", 
            "longitude": -110.84222861094, 
            "state": "AZ", 
            "street": "7040 E Broadway Blvd", 
            "latitude": 32.220422376807001
          }
        }, 
        {
          "category": "Local business", 
          "name": "Macayo's Mexican Kitchen", 
          "id": "109492952423011", 
          "category_list": [
            {
              "id": "199377230079198", 
              "name": "Mexican Restaurant"
            }, 
            {
              "id": "162264673824073", 
              "name": "Specialty Grocery Store"
            }
          ], 
          "location": {
            "city": "Phoenix", 
            "zip": "85016-7609", 
            "country": "United States", 
            "longitude": -112.047264, 
            "state": "AZ", 
            "street": "3117 N 16th St", 
            "latitude": 33.484580999999999
          }
        }
      ]
    }
  }, 
  {
    "business_name": "QT 421", 
    "business_id": "fkoiZ4YDyIe8Fdm4tNBNGg", 
    "fb_pages": {
      "paging": {
        "next": "https://graph.facebook.com/search?type=place&access_token=229546593895315|yPLlHqq6YvDLIH4nL0kjJtIFSlU&limit=5000&offset=5000&__after_id=166433503382823"
      }, 
      "data": [
        {
          "category": "Local business", 
          "name": "Qt 421", 
          "id": "166433503382823", 
          "category_list": [
            {
              "id": "2500", 
              "name": "Local Business"
            }
          ], 
          "location": {
            "city": "Phoenix", 
            "zip": "85024", 
            "country": "United States", 
            "longitude": -112.040766, 
            "state": "AZ", 
            "street": "19990 N 19th St", 
            "latitude": 33.668227000000002
          }
        }
      ]
    }
  }, 
  {
    "business_name": "Phoenix Airport Marriott", 
    "business_id": "_yGo2ubkwQPXcKrdcURSNw", 
    "fb_pages": {
      "paging": {
        "next": "https://graph.facebook.com/search?type=place&access_token=229546593895315|yPLlHqq6YvDLIH4nL0kjJtIFSlU&limit=5000&offset=5000&__after_id=177680388937341"
      }, 
      "data": [
        {
          "category": "Hotel", 
          "name": "Phoenix Airport Marriott", 
          "id": "180521468628796", 
          "category_list": [
            {
              "id": "128966563840349", 
              "name": "Airport"
            }, 
            {
              "id": "164243073639257", 
              "name": "Hotel"
            }
          ], 
          "location": {
            "city": "Phoenix", 
            "zip": "85008", 
            "country": "United States", 
            "longitude": -111.9852869196, 
            "state": "AZ", 
            "street": "1101 North 44th Street", 
            "latitude": 33.460407287568003
          }
        }, 
        {
          "category": "Local business", 
          "name": "JW Marriott Phoenix Airport", 
          "id": "177680388937341", 
          "category_list": [
            {
              "id": "177950465654024", 
              "name": "Airport Terminal"
            }, 
            {
              "id": "164243073639257", 
              "name": "Hotel"
            }
          ], 
          "location": {
            "city": "Phoenix", 
            "zip": "85008", 
            "country": "United States", 
            "longitude": -111.996056056, 
            "state": "AZ", 
            "street": "", 
            "latitude": 33.437833592200001
          }
        }
      ]
    }
  }, 
  {
    "business_name": "Horwitz Vision Center", 
    "business_id": "itpHJcXW0PXNsdTbbKMfpA", 
    "fb_pages": {
      "paging": {
        "next": "https://graph.facebook.com/search?type=place&access_token=229546593895315|yPLlHqq6YvDLIH4nL0kjJtIFSlU&limit=5000&offset=5000&__after_id=168533099823462"
      }, 
      "data": [
        {
          "category": "Local business", 
          "name": "Horwitz Vision Center", 
          "id": "168533099823462", 
          "category_list": [
            {
              "id": "192316870798061", 
              "name": "Optometrist"
            }, 
            {
              "id": "133472970051251", 
              "name": "Eye Wear"
            }
          ], 
          "location": {
            "city": "Mesa", 
            "zip": "85210-2000", 
            "country": "United States", 
            "longitude": -111.856319, 
            "state": "AZ", 
            "street": "1425 S Alma School Rd Ste 103", 
            "latitude": 33.387230000000002
          }
        }
      ]
    }
  }, 
  {
    "business_name": "Campfire Bistro", 
    "business_id": "lnv6CfmevO0EEoB_8M1Czw", 
    "fb_pages": {
      "paging": {
        "next": "https://graph.facebook.com/search?type=place&access_token=229546593895315|yPLlHqq6YvDLIH4nL0kjJtIFSlU&limit=5000&offset=5000&__after_id=223075767780816"
      }, 
      "data": [
        {
          "category": "Local business", 
          "name": "Campfire Bistro In Tom's Thumb Fresh Market", 
          "id": "223075767780816", 
          "category_list": [
            {
              "id": "2500", 
              "name": "Local Business"
            }
          ], 
          "location": {
            "city": "Scottsdale", 
            "zip": "", 
            "country": "United States", 
            "longitude": -111.879534299, 
            "state": "AZ", 
            "street": "", 
            "latitude": 33.639454063700001
          }
        }
      ]
    }
  }, 
  {
    "business_name": "Phoenix Spectrum Mall", 
    "business_id": "siatNcf5O_vH0sL6OdvYLQ", 
    "fb_pages": {
      "paging": {
        "next": "https://graph.facebook.com/search?type=place&access_token=229546593895315|yPLlHqq6YvDLIH4nL0kjJtIFSlU&limit=5000&offset=5000&__after_id=236865433077061"
      }, 
      "data": [
        {
          "category": "Local business", 
          "name": "Phoenix Spectrum Mall", 
          "id": "263883586989530", 
          "category_list": [
            {
              "id": "109527622457518", 
              "name": "Shopping Mall"
            }
          ], 
          "location": {
            "city": "Phoenix", 
            "zip": "85015", 
            "country": "United States", 
            "longitude": -112.09650846962001, 
            "state": "AZ", 
            "street": "", 
            "latitude": 33.522880971074997
          }
        }, 
        {
          "category": "Local business", 
          "name": "Harkins Theater Spectrum Mall", 
          "id": "236865433077061", 
          "category_list": [
            {
              "id": "192511100766680", 
              "name": "Movie Theatre"
            }
          ], 
          "location": {
            "city": "Phoenix", 
            "zip": "85013", 
            "country": "United States", 
            "longitude": -112.093702114, 
            "state": "AZ", 
            "street": "", 
            "latitude": 33.520751601599997, 
            "located_in": 103202509733078
          }
        }
      ]
    }
  }, 
  {
    "business_name": "Applebee's Neighborhood Grill & Bar", 
    "business_id": "-WXH-j7_Ugm6phJDdY5bzw", 
    "fb_pages": {
      "paging": {
        "next": "https://graph.facebook.com/search?type=place&access_token=229546593895315|yPLlHqq6YvDLIH4nL0kjJtIFSlU&limit=5000&offset=5000&__after_id=116049168493070"
      }, 
      "data": [
        {
          "category": "Local business", 
          "name": "Applebee's Neighborhood Grill & Bar", 
          "id": "111507285556089", 
          "category_list": [
            {
              "id": "110107385737667", 
              "name": "New American Restaurant"
            }
          ], 
          "location": {
            "city": "Oxford", 
            "zip": "36203-1817", 
            "country": "United States", 
            "longitude": -85.825484134503995, 
            "state": "AL", 
            "street": "612 Hamric Dr E", 
            "latitude": 33.610059587889999
          }
        }, 
        {
          "category": "Local business", 
          "name": "Applebee's Neighborhood Grill and Bar", 
          "id": "119941261392083", 
          "category_list": [
            {
              "id": "233804719972590", 
              "name": "Bar & Grill"
            }, 
            {
              "id": "110107385737667", 
              "name": "New American Restaurant"
            }
          ], 
          "location": {
            "city": "S\u00e3o Paulo", 
            "zip": "48823", 
            "country": "Brazil", 
            "longitude": -121.0624280455, 
            "state": "", 
            "street": "Irondequoit ", 
            "latitude": 37.691590609175002, 
            "located_in": 110600405625917
          }
        }, 
        {
          "category": "Local business", 
          "name": "Applebee's Neighborhood Grill & Bar", 
          "id": "121136091233897", 
          "category_list": [
            {
              "id": "233804719972590", 
              "name": "Bar & Grill"
            }, 
            {
              "id": "110107385737667", 
              "name": "New American Restaurant"
            }
          ], 
          "location": {
            "city": "Folsom", 
            "zip": "19033-2509", 
            "country": "United States", 
            "longitude": -75.327237981489006, 
            "state": "PA", 
            "street": "320 Macdade Blvd.", 
            "latitude": 39.888649629470997
          }
        }, 
        {
          "category": "Local business", 
          "name": "Applebee's Neighborhood Grill & Bar", 
          "id": "115748248445628", 
          "category_list": [
            {
              "id": "149803325077018", 
              "name": "American Restaurant"
            }, 
            {
              "id": "110290705711626", 
              "name": "Bar"
            }
          ], 
          "location": {
            "city": "Albany", 
            "zip": "31707-2193", 
            "country": "United States", 
            "longitude": -84.223661585753007, 
            "state": "GA", 
            "street": "637 N. Westover Blvd", 
            "latitude": 31.612982003605001
          }
        }, 
        {
          "category": "Local business", 
          "name": "Applebee's Neighborhood Grill", 
          "id": "129025857143411", 
          "category_list": [
            {
              "id": "110107385737667", 
              "name": "New American Restaurant"
            }
          ], 
          "location": {
            "city": "Clarksburg", 
            "zip": "26301", 
            "country": "United States", 
            "longitude": -80.287782049832998, 
            "state": "WV", 
            "street": "531 Emily Dr.", 
            "latitude": 39.264838520105002
          }
        }, 
        {
          "category": "Local business", 
          "name": "Applebee's Neighborhood Grill & Bar", 
          "id": "117075958312106", 
          "category_list": [
            {
              "id": "110107385737667", 
              "name": "New American Restaurant"
            }
          ], 
          "location": {
            "city": "Rabat", 
            "zip": "97301-2928", 
            "country": "Morocco", 
            "longitude": -122.98349726454001, 
            "state": "", 
            "street": "747 Lancaster Drive, N.E.", 
            "latitude": 44.940533126079998
          }
        }, 
        {
          "category": "Local business", 
          "name": "Applebee's Neighborhood Grill & Bar", 
          "id": "105891309452026", 
          "category_list": [
            {
              "id": "110107385737667", 
              "name": "New American Restaurant"
            }
          ], 
          "location": {
            "city": "Vancouver", 
            "zip": "98682-6123", 
            "country": "United States", 
            "longitude": -122.55790470846, 
            "state": "WA", 
            "street": "5111 NE 112th Ave", 
            "latitude": 45.660060955345998
          }
        }, 
        {
          "category": "Restaurant/cafe", 
          "name": "Applebee's Neighborhood Grill & Bar - Greece", 
          "id": "135059609872580", 
          "category_list": [
            {
              "id": "187425207958280", 
              "name": "Burger Restaurant"
            }, 
            {
              "id": "110107385737667", 
              "name": "New American Restaurant"
            }
          ], 
          "location": {
            "city": "Rochester", 
            "zip": "14615", 
            "country": "United States", 
            "longitude": -77.673528718255994, 
            "state": "NY", 
            "street": "200 Paddy Creek Circle", 
            "latitude": 43.205763369353001
          }
        }, 
        {
          "category": "Local business", 
          "name": "Applebee's Neighborhood Grill", 
          "id": "155969511099856", 
          "category_list": [
            {
              "id": "110107385737667", 
              "name": "New American Restaurant"
            }
          ], 
          "location": {
            "city": "Kissimmee", 
            "zip": "32837-7678", 
            "country": "United States", 
            "longitude": -81.503116313378996, 
            "state": "FL", 
            "street": "13500 S John Young Pkwy", 
            "latitude": 28.372180508182002
          }
        }, 
        {
          "category": "Local business", 
          "name": "Applebee's Neighborhood Grill & Bar", 
          "id": "118074161537221", 
          "category_list": [
            {
              "id": "184460441595855", 
              "name": "Sports Bar"
            }, 
            {
              "id": "110107385737667", 
              "name": "New American Restaurant"
            }
          ], 
          "location": {
            "city": "Mobile", 
            "zip": "36608-3145", 
            "country": "United States", 
            "longitude": -88.174972878649996, 
            "state": "AL", 
            "street": "4721 Airport Blvd", 
            "latitude": 30.675828003283002
          }
        }, 
        {
          "category": "Restaurant/cafe", 
          "name": "Applebee's Neighborhood Grill & Bar - Amherst", 
          "id": "203875189652301", 
          "category_list": [
            {
              "id": "187425207958280", 
              "name": "Burger Restaurant"
            }, 
            {
              "id": "110107385737667", 
              "name": "New American Restaurant"
            }
          ], 
          "location": {
            "city": "Amherst", 
            "zip": "14228", 
            "country": "United States", 
            "longitude": -78.821929883500005, 
            "state": "NY", 
            "street": "1641 Niagara Falls Blvd", 
            "latitude": 43.000312280579998
          }
        }, 
        {
          "category": "Restaurant/cafe", 
          "name": "Applebee's Neighborhood Grill & Bar - Henrietta", 
          "id": "152566801445186", 
          "category_list": [
            {
              "id": "187425207958280", 
              "name": "Burger Restaurant"
            }, 
            {
              "id": "110107385737667", 
              "name": "New American Restaurant"
            }
          ], 
          "location": {
            "city": "Rochester", 
            "zip": "14623", 
            "country": "United States", 
            "longitude": -77.636591431520003, 
            "state": "NY", 
            "street": "3360 W. Henrietta Road", 
            "latitude": 43.085976629732997
          }
        }, 
        {
          "category": "Local business", 
          "name": "Applebee's Neighborhood Grill & Bar", 
          "id": "113967048634696", 
          "category_list": [
            {
              "id": "198367566846946", 
              "name": "Steakhouse"
            }, 
            {
              "id": "110107385737667", 
              "name": "New American Restaurant"
            }
          ], 
          "location": {
            "city": "Albuquerque", 
            "zip": "87112-5464", 
            "country": "United States", 
            "longitude": -106.52964670889, 
            "state": "NM", 
            "street": "10600 Lomas Blvd NE", 
            "latitude": 35.086789825388998
          }
        }, 
        {
          "category": "Local business", 
          "name": "Applebee's Neighborhood Grill & Bar", 
          "id": "183450328368538", 
          "category_list": [
            {
              "id": "110107385737667", 
              "name": "New American Restaurant"
            }
          ], 
          "location": {
            "city": "San Antonio", 
            "zip": "78216", 
            "country": "United States", 
            "longitude": -98.484730619019999, 
            "state": "TX", 
            "street": "97 Loop 410 NE", 
            "latitude": 29.52149943042
          }
        }, 
        {
          "category": "Local business", 
          "name": "Applebee's Neighborhood Grill & Bar", 
          "id": "111551492218107", 
          "category_list": [
            {
              "id": "110107385737667", 
              "name": "New American Restaurant"
            }
          ], 
          "location": {
            "city": "New Philadelphia", 
            "zip": "44663", 
            "country": "United States", 
            "longitude": -81.444800665833, 
            "state": "OH", 
            "street": "233 Graff Road SE, New Philadelphia, Ohio", 
            "latitude": 40.480415216240999
          }
        }, 
        {
          "category": "Local business", 
          "name": "Applebee's Neighborhood Grill & Bar", 
          "id": "221186737932901", 
          "category_list": [
            {
              "id": "110107385737667", 
              "name": "New American Restaurant"
            }
          ], 
          "location": {
            "city": "Stockton", 
            "zip": "95207", 
            "country": "United States", 
            "longitude": -121.34206842294, 
            "state": "CA", 
            "street": "", 
            "latitude": 37.985012884619003
          }
        }, 
        {
          "category": "Local business", 
          "name": "Applebee's Neighborhood Grill", 
          "id": "106467709439870", 
          "category_list": [
            {
              "id": "110107385737667", 
              "name": "New American Restaurant"
            }
          ], 
          "location": {
            "city": "McAllen", 
            "zip": "78501", 
            "country": "United States", 
            "longitude": -98.216667555083006, 
            "state": "TX", 
            "street": "514 E Expressway 83", 
            "latitude": 26.186904868121001
          }
        }, 
        {
          "category": "Local business", 
          "name": "Applebee's Neighborhood Bar & Grill", 
          "id": "198098656887922", 
          "category_list": [
            {
              "id": "110290705711626", 
              "name": "Bar"
            }, 
            {
              "id": "110107385737667", 
              "name": "New American Restaurant"
            }
          ], 
          "location": {
            "city": "Joplin", 
            "zip": "64804", 
            "country": "United States", 
            "longitude": -94.480218060940004, 
            "state": "MO", 
            "street": "", 
            "latitude": 37.055190892029003
          }
        }, 
        {
          "category": "Local business", 
          "name": "Applebee's Neighborhood Grill & Bar", 
          "id": "102236519819049", 
          "category_list": [
            {
              "id": "110107385737667", 
              "name": "New American Restaurant"
            }
          ], 
          "location": {
            "city": "Grand Forks", 
            "zip": "58201-6007", 
            "country": "United States", 
            "longitude": -97.066159681087001, 
            "state": "ND", 
            "street": "2851 S Columbia Rd", 
            "latitude": 47.891811763196003
          }
        }, 
        {
          "category": "Local business", 
          "name": "Applebee's Neighborhood Grill & Bar", 
          "id": "113348015364620", 
          "category_list": [
            {
              "id": "187425207958280", 
              "name": "Burger Restaurant"
            }, 
            {
              "id": "233804719972590", 
              "name": "Bar & Grill"
            }, 
            {
              "id": "110107385737667", 
              "name": "New American Restaurant"
            }
          ], 
          "location": {
            "city": "Champaign", 
            "zip": "61822-1238", 
            "country": "United States", 
            "longitude": -88.258303825294007, 
            "state": "IL", 
            "street": "2121 N. Prospect Ave.", 
            "latitude": 40.142236073040998
          }
        }, 
        {
          "category": "Restaurant/cafe", 
          "name": "Applebee's Neighborhood Grill and Bar Mansfield, CT", 
          "id": "156756754340393", 
          "category_list": [
            {
              "id": "187425207958280", 
              "name": "Burger Restaurant"
            }, 
            {
              "id": "110107385737667", 
              "name": "New American Restaurant"
            }
          ], 
          "location": {
            "city": "Willimantic", 
            "zip": "06226", 
            "country": "United States", 
            "longitude": -72.200434672553001, 
            "state": "CT", 
            "street": "93 Storrs Rd", 
            "latitude": 41.734411526157999
          }
        }, 
        {
          "category": "Restaurant/cafe", 
          "name": "Applebee's Neighborhood Grill and Bar", 
          "id": "141919622485777", 
          "category_list": [
            {
              "id": "273819889375819", 
              "name": "Restaurant"
            }
          ], 
          "location": {
            "city": "Moscow", 
            "zip": "83843-4025", 
            "country": "United States", 
            "longitude": -117.03808329224999, 
            "state": "ID", 
            "street": "105 Warbonnet Drive", 
            "latitude": 46.732725869592002
          }
        }, 
        {
          "category": "Local business", 
          "name": "Applebee's Neighborhood Grill & Bar", 
          "id": "111563348880918", 
          "category_list": [
            {
              "id": "110107385737667", 
              "name": "New American Restaurant"
            }
          ], 
          "location": {
            "city": "Hackettstown", 
            "zip": "07840", 
            "country": "United States", 
            "longitude": -74.823069978904996, 
            "state": "NJ", 
            "street": "225 Mountain Ave", 
            "latitude": 40.837329279043999
          }
        }, 
        {
          "category": "Local business", 
          "name": "Applebee's Neighborhood Grill & Bar", 
          "id": "114009011952553", 
          "category_list": [
            {
              "id": "110107385737667", 
              "name": "New American Restaurant"
            }
          ], 
          "location": {
            "city": "Shakopee", 
            "zip": "55379-8110", 
            "country": "United States", 
            "longitude": -93.504598128020007, 
            "state": "MN", 
            "street": "1568 Vierling Dr E", 
            "latitude": 44.779536006798999
          }
        }, 
        {
          "category": "Local business", 
          "name": "Applebee's Neighborhood Grill & Bar", 
          "id": "139351306133905", 
          "category_list": [
            {
              "id": "110107385737667", 
              "name": "New American Restaurant"
            }, 
            {
              "id": "233804719972590", 
              "name": "Bar & Grill"
            }
          ], 
          "location": {
            "city": "Tampa", 
            "zip": "33614", 
            "country": "United States", 
            "longitude": -82.509920447379002, 
            "state": "FL", 
            "street": "", 
            "latitude": 27.995774089112999
          }
        }, 
        {
          "category": "Restaurant/cafe", 
          "name": "Applebee's Neighborhood Grill and Bar Newburgh, NY", 
          "id": "140252052706841", 
          "category_list": [
            {
              "id": "187425207958280", 
              "name": "Burger Restaurant"
            }, 
            {
              "id": "110107385737667", 
              "name": "New American Restaurant"
            }
          ], 
          "location": {
            "city": "Newburgh", 
            "zip": "12550", 
            "country": "United States", 
            "longitude": -74.072103091469003, 
            "state": "NY", 
            "street": "1205 Route 300", 
            "latitude": 41.498478074734003
          }
        }, 
        {
          "category": "Restaurant/cafe", 
          "name": "Applebee's Neighborhood Grill & Bar Painted Post", 
          "id": "135523083165616", 
          "category_list": [
            {
              "id": "187425207958280", 
              "name": "Burger Restaurant"
            }, 
            {
              "id": "110107385737667", 
              "name": "New American Restaurant"
            }
          ], 
          "location": {
            "city": "Painted Post", 
            "zip": "14870", 
            "country": "United States", 
            "longitude": -77.104707840073999, 
            "state": "NY", 
            "street": "3149 Silverback Lane", 
            "latitude": 42.154187631073
          }
        }, 
        {
          "category": "Local business", 
          "name": "Applebee's Neighborhood Grill & Bar", 
          "id": "120616161282703", 
          "category_list": [
            {
              "id": "110107385737667", 
              "name": "New American Restaurant"
            }
          ], 
          "location": {
            "city": "West Mifflin", 
            "zip": "15122-2461", 
            "country": "United States", 
            "longitude": -79.947730305511001, 
            "state": "PA", 
            "street": "2045 Lebanon Church Rd", 
            "latitude": 40.348238129485999
          }
        }, 
        {
          "category": "Restaurant/cafe", 
          "name": "Applebee's Neighborhood Grill and Bar Manchester, CT", 
          "id": "184403944940837", 
          "category_list": [
            {
              "id": "187425207958280", 
              "name": "Burger Restaurant"
            }, 
            {
              "id": "110107385737667", 
              "name": "New American Restaurant"
            }
          ], 
          "location": {
            "city": "Manchester", 
            "zip": "06040", 
            "country": "United States", 
            "longitude": -72.527280537945998, 
            "state": "CT", 
            "street": "191 Deming Street", 
            "latitude": 41.814238375483001
          }
        }, 
        {
          "category": "Local business", 
          "name": "Applebee's Neighborhood Grill & Bar", 
          "id": "133065853384359", 
          "category_list": [
            {
              "id": "192831537402299", 
              "name": "Family Style Restaurant"
            }, 
            {
              "id": "149803325077018", 
              "name": "American Restaurant"
            }
          ], 
          "location": {
            "city": "Thunder Bay", 
            "zip": "P7B6M8", 
            "country": "Canada", 
            "longitude": -89.258892076787006, 
            "state": "ON", 
            "street": "1155 Alloy Dr", 
            "latitude": 48.407513886201997
          }
        }, 
        {
          "category": "Local business", 
          "name": "Applebee's Neighborhood Grill & Bar", 
          "id": "114544868570831", 
          "category_list": [
            {
              "id": "149803325077018", 
              "name": "American Restaurant"
            }, 
            {
              "id": "233804719972590", 
              "name": "Bar & Grill"
            }
          ], 
          "location": {
            "city": "Hartsville", 
            "zip": "29550-4211", 
            "country": "United States", 
            "longitude": -80.072025097006005, 
            "state": "SC", 
            "street": "203 S 5th St", 
            "latitude": 34.372290065721003
          }
        }, 
        {
          "category": "Local business", 
          "name": "Applebee's Neighborhood bar and grill", 
          "id": "249299485104377", 
          "category_list": [
            {
              "id": "184460441595855", 
              "name": "Sports Bar"
            }, 
            {
              "id": "110107385737667", 
              "name": "New American Restaurant"
            }
          ], 
          "location": {
            "city": "Turlock", 
            "zip": "95380", 
            "country": "United States", 
            "longitude": -120.87641448237, 
            "state": "CA", 
            "street": "", 
            "latitude": 37.507509941662001
          }
        }, 
        {
          "category": "Local business", 
          "name": "Applebee's Neighborhood Bar and Grill", 
          "id": "250194684997630", 
          "category_list": [
            {
              "id": "110290705711626", 
              "name": "Bar"
            }, 
            {
              "id": "110107385737667", 
              "name": "New American Restaurant"
            }
          ], 
          "location": {
            "city": "Gilroy", 
            "zip": "95020", 
            "country": "United States", 
            "longitude": -121.56184392462001, 
            "state": "CA", 
            "street": "8200 Arroyo Circle", 
            "latitude": 37.021333304492003
          }
        }, 
        {
          "category": "Restaurant/cafe", 
          "name": "Applebee's Neighborhood Grill and Bar Saratoga, NY", 
          "id": "180399028676054", 
          "category_list": [
            {
              "id": "110107385737667", 
              "name": "New American Restaurant"
            }
          ], 
          "location": {
            "city": "Saratoga Springs", 
            "zip": "12866", 
            "country": "United States", 
            "longitude": -73.747570969239007, 
            "state": "NY", 
            "street": "3 Lowes Drive", 
            "latitude": 43.102115644808002
          }
        }, 
        {
          "category": "Local business", 
          "name": "Applebee's Neighborhood Bar & Grill", 
          "id": "249665475055932", 
          "category_list": [
            {
              "id": "149803325077018", 
              "name": "American Restaurant"
            }
          ], 
          "location": {
            "city": "Woodland", 
            "zip": "95776", 
            "country": "United States", 
            "longitude": -121.7392228189, 
            "state": "CA", 
            "street": "", 
            "latitude": 38.676714045430998
          }
        }, 
        {
          "category": "Restaurant/cafe", 
          "name": "Applebee's Neighborhood Grill and bar Poughkeepsie,NY", 
          "id": "195575637152881", 
          "category_list": [
            {
              "id": "187425207958280", 
              "name": "Burger Restaurant"
            }, 
            {
              "id": "110107385737667", 
              "name": "New American Restaurant"
            }
          ], 
          "location": {
            "city": "Poughkeepsie", 
            "zip": "12601", 
            "country": "United States", 
            "longitude": -73.931429413206999, 
            "state": "NY", 
            "street": "3450 North Road", 
            "latitude": 41.725212484929003
          }
        }, 
        {
          "category": "Local business", 
          "name": "Applebee's Neighborhood Grill", 
          "id": "199409326757287", 
          "category_list": [
            {
              "id": "149803325077018", 
              "name": "American Restaurant"
            }
          ], 
          "location": {
            "city": "Oroville", 
            "zip": "95965", 
            "country": "United States", 
            "longitude": -121.571582256, 
            "state": "CA", 
            "street": "", 
            "latitude": 39.501600548600003
          }
        }, 
        {
          "category": "Local business", 
          "name": "Applebee's Neighborhood Grill", 
          "id": "132096736869339", 
          "category_list": [
            {
              "id": "110107385737667", 
              "name": "New American Restaurant"
            }
          ], 
          "location": {
            "latitude": 40.026122586, 
            "street": "", 
            "zip": "17602", 
            "longitude": -76.209604420000005
          }
        }, 
        {
          "category": "Local business", 
          "name": "Applebee's Neighborhood Grill & Bar", 
          "id": "121046421242682", 
          "category_list": [
            {
              "id": "149803325077018", 
              "name": "American Restaurant"
            }
          ], 
          "location": {
            "city": "Dalton", 
            "zip": "30720-3827", 
            "country": "United States", 
            "longitude": -84.994242479527998, 
            "state": "GA", 
            "street": "1322 W Walnut Ave", 
            "latitude": 34.759888942068002
          }
        }, 
        {
          "category": "Local business", 
          "name": "Applebee's Neighborhood Grill & Bar", 
          "id": "122159517794808", 
          "category_list": [
            {
              "id": "110107385737667", 
              "name": "New American Restaurant"
            }
          ], 
          "location": {
            "city": "Strongsville", 
            "zip": "44136-9331", 
            "country": "United States", 
            "longitude": -81.823759636399998, 
            "state": "OH", 
            "street": "17771 Southpark Ctr", 
            "latitude": 41.312411516569
          }
        }, 
        {
          "category": "Local business", 
          "name": "Applebee's Neighborhood Grill & Bar", 
          "id": "119919934690646", 
          "category_list": [
            {
              "id": "110107385737667", 
              "name": "New American Restaurant"
            }
          ], 
          "location": {
            "city": "Columbia", 
            "zip": "29223-4383", 
            "country": "United States", 
            "longitude": -80.887925994075999, 
            "state": "SC", 
            "street": "10102 Two Notch Rd", 
            "latitude": 34.114609215133001
          }
        }, 
        {
          "category": "Local business", 
          "name": "Applebee's Neighborhood Bar & Grill", 
          "id": "131141480315904", 
          "category_list": [
            {
              "id": "110107385737667", 
              "name": "New American Restaurant"
            }, 
            {
              "id": "187425207958280", 
              "name": "Burger Restaurant"
            }
          ], 
          "location": {
            "city": "Bakersfield", 
            "zip": "93311", 
            "country": "United States", 
            "longitude": -119.10166079559001, 
            "state": "CA", 
            "street": "", 
            "latitude": 35.340142473922
          }
        }, 
        {
          "category": "Local business", 
          "name": "Applebee's Neighborhood Grill & Bar", 
          "id": "157751280970726", 
          "category_list": [
            {
              "id": "149803325077018", 
              "name": "American Restaurant"
            }
          ], 
          "location": {
            "city": "Rosemead", 
            "zip": "90640", 
            "country": "United States", 
            "longitude": -118.09211871187, 
            "state": "CA", 
            "street": "", 
            "latitude": 34.034437447457002
          }
        }, 
        {
          "category": "Local business", 
          "name": "Applebee's Neighborhood Grill & Bar", 
          "id": "111593565545586", 
          "category_list": [
            {
              "id": "110107385737667", 
              "name": "New American Restaurant"
            }, 
            {
              "id": "233804719972590", 
              "name": "Bar & Grill"
            }
          ], 
          "location": {
            "city": "Cedar Rapids", 
            "zip": "52402-3118", 
            "country": "United States", 
            "longitude": -91.632283691436996, 
            "state": "IA", 
            "street": "303 Collins Rd NE", 
            "latitude": 42.027729676033999
          }
        }, 
        {
          "category": "Local business", 
          "name": "Applebee's Neighborhood Grill & Bar", 
          "id": "115380458487369", 
          "category_list": [
            {
              "id": "110107385737667", 
              "name": "New American Restaurant"
            }, 
            {
              "id": "110290705711626", 
              "name": "Bar"
            }, 
            {
              "id": "192831537402299", 
              "name": "Family Style Restaurant"
            }
          ], 
          "location": {
            "city": "Milpitas", 
            "zip": "95035-5103", 
            "country": "United States", 
            "longitude": -121.92119938571, 
            "state": "CA", 
            "street": "84 Ranch Dr", 
            "latitude": 37.426781242796999
          }
        }, 
        {
          "category": "Local business", 
          "name": "Applebee's Neighborhood Grill & Bar", 
          "id": "195495443832541", 
          "category_list": [
            {
              "id": "149803325077018", 
              "name": "American Restaurant"
            }
          ], 
          "location": {
            "city": "Edinburg", 
            "zip": "78539", 
            "country": "United States", 
            "longitude": -98.190666625299997, 
            "state": "TX", 
            "street": "", 
            "latitude": 26.264766595699999
          }
        }, 
        {
          "category": "Local business", 
          "name": "Applebee's Neighborhood Grill and Bar", 
          "id": "115456105139784", 
          "category_list": [
            {
              "id": "192831537402299", 
              "name": "Family Style Restaurant"
            }, 
            {
              "id": "110107385737667", 
              "name": "New American Restaurant"
            }, 
            {
              "id": "233804719972590", 
              "name": "Bar & Grill"
            }
          ], 
          "location": {
            "city": "Hendersonville", 
            "zip": "28792-2857", 
            "country": "United States", 
            "longitude": -82.448171619004, 
            "state": "NC", 
            "street": "1635 Four Seasons Blvd", 
            "latitude": 35.334475418747999
          }
        }, 
        {
          "category": "Local business", 
          "name": "Applebee's Neighborhood Grill", 
          "id": "160133354033363", 
          "category_list": [
            {
              "id": "110107385737667", 
              "name": "New American Restaurant"
            }
          ], 
          "location": {
            "city": "Knoxville", 
            "zip": "", 
            "country": "United States", 
            "longitude": -83.9807017957, 
            "state": "TN", 
            "street": "", 
            "latitude": 35.815516217700001, 
            "located_in": 110765608975702
          }
        }, 
        {
          "category": "Local business", 
          "name": "Applebee's Neighborhood Grill & Bar", 
          "id": "208157222550898", 
          "category_list": [
            {
              "id": "110107385737667", 
              "name": "New American Restaurant"
            }
          ], 
          "location": {
            "city": "Lexington", 
            "zip": "27292", 
            "country": "United States", 
            "longitude": -80.255160109599998, 
            "state": "NC", 
            "street": "", 
            "latitude": 35.78262187
          }
        }, 
        {
          "category": "Local business", 
          "name": "Applebee's Neighborhood Grill & Bar", 
          "id": "205831989517580", 
          "category_list": [
            {
              "id": "110107385737667", 
              "name": "New American Restaurant"
            }
          ], 
          "location": {
            "city": "La Vale", 
            "zip": "21502", 
            "country": "United States", 
            "longitude": -78.838783652999993, 
            "state": "MD", 
            "street": "", 
            "latitude": 39.628894901199999
          }
        }, 
        {
          "category": "Local business", 
          "name": "Applebee's Neighborhood Grill & Bar", 
          "id": "104380829612391", 
          "category_list": [
            {
              "id": "149803325077018", 
              "name": "American Restaurant"
            }
          ], 
          "location": {
            "city": "Edmonton", 
            "zip": "T5A4V9", 
            "country": "Canada", 
            "longitude": -113.41867517596, 
            "state": "AB", 
            "street": "13006 50 St NW", 
            "latitude": 53.590523253836999
          }
        }, 
        {
          "category": "Local business", 
          "name": "Applebee's neighborhood grill &bar", 
          "id": "169988759778389", 
          "category_list": [
            {
              "id": "110107385737667", 
              "name": "New American Restaurant"
            }
          ], 
          "location": {
            "city": "Houma", 
            "zip": "70360", 
            "country": "United States", 
            "longitude": -90.735362138699998, 
            "state": "LA", 
            "street": "", 
            "latitude": 29.592070600100001
          }
        }, 
        {
          "category": "Local business", 
          "name": "Applebee's Neighborhood Grill and Bar", 
          "id": "140672402654345", 
          "category_list": [
            {
              "id": "149803325077018", 
              "name": "American Restaurant"
            }
          ], 
          "location": {
            "city": "Ada", 
            "zip": "74820", 
            "country": "United States", 
            "longitude": -96.669483859411002, 
            "state": "OK", 
            "street": "", 
            "latitude": 34.788494008089998
          }
        }, 
        {
          "category": "Local business", 
          "name": "Applebee's Neighborhood Bar & Grill", 
          "id": "231245020222847", 
          "category_list": [
            {
              "id": "110290705711626", 
              "name": "Bar"
            }, 
            {
              "id": "110107385737667", 
              "name": "New American Restaurant"
            }
          ], 
          "location": {
            "city": "Clearwater", 
            "zip": "33764-5720", 
            "country": "United States", 
            "longitude": -82.733655636899996, 
            "state": "FL", 
            "street": "5110 Easy Bay Drive", 
            "latitude": 27.916764547900002
          }
        }, 
        {
          "category": "Local business", 
          "name": "Applebee's Neighborhood Grill & Bar", 
          "id": "134840009875042", 
          "category_list": [
            {
              "id": "149803325077018", 
              "name": "American Restaurant"
            }
          ], 
          "location": {
            "city": "Red Deer", 
            "zip": "T4R2T4", 
            "country": "Canada", 
            "longitude": -113.81809247152, 
            "state": "AB", 
            "street": "5250 22 St 22ND", 
            "latitude": 52.239420241226
          }
        }, 
        {
          "category": "Local business", 
          "name": "Applebee's Neighborhood Bar and Grill", 
          "id": "152807768116037", 
          "category_list": [
            {
              "id": "110107385737667", 
              "name": "New American Restaurant"
            }, 
            {
              "id": "110290705711626", 
              "name": "Bar"
            }
          ], 
          "location": {
            "city": "Hot Springs", 
            "zip": "71913", 
            "country": "United States", 
            "longitude": -93.076903241400004, 
            "state": "AR", 
            "street": "", 
            "latitude": 34.452123411899997
          }
        }, 
        {
          "category": "Local business", 
          "name": "Applebee's Neighborhood Grill", 
          "id": "150556998321673", 
          "category_list": [
            {
              "id": "149803325077018", 
              "name": "American Restaurant"
            }
          ], 
          "location": {
            "city": "Freeport", 
            "zip": "61032", 
            "country": "United States", 
            "longitude": -89.631946293300004, 
            "state": "IL", 
            "street": "", 
            "latitude": 42.275988139399999
          }
        }, 
        {
          "category": "Local business", 
          "name": "Applebee's Neighborhood Grill", 
          "id": "186371901402053", 
          "category_list": [
            {
              "id": "110107385737667", 
              "name": "New American Restaurant"
            }, 
            {
              "id": "110290705711626", 
              "name": "Bar"
            }
          ], 
          "location": {
            "city": "Macon", 
            "zip": "31206", 
            "country": "United States", 
            "longitude": -83.691116840000007, 
            "state": "GA", 
            "street": "", 
            "latitude": 32.814953511600002
          }
        }, 
        {
          "category": "Local business", 
          "name": "Applebee's Neighborhood Grill & Bar", 
          "id": "199907603384750", 
          "category_list": [
            {
              "id": "149803325077018", 
              "name": "American Restaurant"
            }
          ], 
          "location": {
            "city": "East York", 
            "zip": "17402", 
            "country": "United States", 
            "longitude": -76.673869824899995, 
            "state": "PA", 
            "street": "", 
            "latitude": 39.977290488599998
          }
        }, 
        {
          "category": "Local business", 
          "name": "Applebee's Neighborhood Bar & Grill", 
          "id": "354257154591323", 
          "category_list": [
            {
              "id": "149803325077018", 
              "name": "American Restaurant"
            }
          ], 
          "location": {
            "city": "Anchorage", 
            "zip": "99503", 
            "country": "United States", 
            "longitude": -149.88802227942, 
            "state": "AK", 
            "street": "", 
            "latitude": 61.181256464541001
          }
        }, 
        {
          "category": "Local business", 
          "name": "Applebee's Neighborhood Bar And Grill", 
          "id": "246361515377954", 
          "category_list": [
            {
              "id": "110107385737667", 
              "name": "New American Restaurant"
            }
          ], 
          "location": {
            "city": "Salinas", 
            "zip": "", 
            "country": "United States", 
            "longitude": -121.667268111, 
            "state": "CA", 
            "street": "", 
            "latitude": 36.702340747999997
          }
        }, 
        {
          "category": "Local business", 
          "name": "Applebee's Neighborhood Bar & Grill", 
          "id": "131935000203398", 
          "category_list": [
            {
              "id": "149803325077018", 
              "name": "American Restaurant"
            }
          ], 
          "location": {
            "city": "Melbourne", 
            "zip": "32935", 
            "country": "United States", 
            "longitude": -80.671968249700001, 
            "state": "FL", 
            "street": "", 
            "latitude": 28.1282234972
          }
        }, 
        {
          "category": "Local business", 
          "name": "Applebee's Neighborhood Bar & Grill", 
          "id": "181848231862103", 
          "category_list": [
            {
              "id": "110107385737667", 
              "name": "New American Restaurant"
            }, 
            {
              "id": "110290705711626", 
              "name": "Bar"
            }
          ], 
          "location": {
            "city": "Laredo", 
            "zip": "78041", 
            "country": "United States", 
            "longitude": -99.501870865900003, 
            "state": "TX", 
            "street": "", 
            "latitude": 27.570920683000001
          }
        }, 
        {
          "category": "Local business", 
          "name": "Applebee's Neighborhood Bar & Grill", 
          "id": "182918728423940", 
          "category_list": [
            {
              "id": "110290705711626", 
              "name": "Bar"
            }, 
            {
              "id": "110107385737667", 
              "name": "New American Restaurant"
            }
          ], 
          "location": {
            "city": "El Dorado", 
            "zip": "71730", 
            "country": "United States", 
            "longitude": -92.665319680699994, 
            "state": "AR", 
            "street": "", 
            "latitude": 33.231664926100002
          }
        }, 
        {
          "category": "Restaurant/cafe", 
          "name": "Applebee's Neighborhood Bar & Grill", 
          "id": "154250427165", 
          "category_list": [
            {
              "id": "273819889375819", 
              "name": "Restaurant"
            }, 
            {
              "id": "133436743388217", 
              "name": "Arts & Entertainment"
            }, 
            {
              "id": "110290705711626", 
              "name": "Bar"
            }
          ], 
          "location": {
            "city": "Columbia", 
            "zip": "65202", 
            "country": "United States", 
            "longitude": -92.298853166599997, 
            "state": "MO", 
            "street": "2601 E. Broadway", 
            "latitude": 38.9473294963
          }
        }, 
        {
          "category": "Local business", 
          "name": "Applebee's neighborhood bar & Grill.", 
          "id": "123144851085305", 
          "category_list": [
            {
              "id": "110107385737667", 
              "name": "New American Restaurant"
            }
          ], 
          "location": {
            "city": "Georgetown", 
            "zip": "40324", 
            "country": "United States", 
            "longitude": -84.534330860899999, 
            "state": "KY", 
            "street": "", 
            "latitude": 38.232238278099999
          }
        }, 
        {
          "category": "Local business", 
          "name": "Applebee's Neighborhood Grill & Bar", 
          "id": "128044377274350", 
          "category_list": [
            {
              "id": "110107385737667", 
              "name": "New American Restaurant"
            }
          ], 
          "location": {
            "city": "El Paso", 
            "zip": "79924", 
            "country": "United States", 
            "longitude": -106.423534037, 
            "state": "TX", 
            "street": "", 
            "latitude": 31.9040499213
          }
        }, 
        {
          "category": "Local business", 
          "name": "Applebee's Neighborhood Grill", 
          "id": "118589288222408", 
          "category_list": [
            {
              "id": "110107385737667", 
              "name": "New American Restaurant"
            }
          ], 
          "location": {
            "latitude": 33.573102558800002, 
            "street": "", 
            "zip": "", 
            "longitude": -84.361879269300005
          }
        }, 
        {
          "category": "Local business", 
          "name": "Applebee's Neighborhood Grill & Bar", 
          "id": "193230527406190", 
          "category_list": [
            {
              "id": "110107385737667", 
              "name": "New American Restaurant"
            }
          ], 
          "location": {
            "city": "Topeka", 
            "zip": "66604", 
            "country": "United States", 
            "longitude": -95.759534796799997, 
            "state": "KS", 
            "street": "", 
            "latitude": 39.036751636799998
          }
        }, 
        {
          "category": "Local business", 
          "name": "Applebee's Neighborhood Grill & Bar", 
          "id": "167883326568528", 
          "category_list": [
            {
              "id": "149803325077018", 
              "name": "American Restaurant"
            }
          ], 
          "location": {
            "city": "Schenectady", 
            "zip": "12304-3437 ", 
            "country": "United States", 
            "longitude": -73.915325988999996, 
            "state": "NY", 
            "street": "2400 Cambridge Road", 
            "latitude": 42.783301885599997
          }
        }, 
        {
          "category": "Local business", 
          "name": "Applebee's Neighborhood Bar & Grill", 
          "id": "259670594061650", 
          "category_list": [
            {
              "id": "149803325077018", 
              "name": "American Restaurant"
            }
          ], 
          "location": {
            "city": "Visalia", 
            "zip": "93277", 
            "country": "United States", 
            "longitude": -119.313281573, 
            "state": "CA", 
            "street": "", 
            "latitude": 36.3000343263
          }
        }, 
        {
          "category": "Local business", 
          "name": "Applebee's Neighborhood Bar & Grill", 
          "id": "313502165336670", 
          "category_list": [
            {
              "id": "149803325077018", 
              "name": "American Restaurant"
            }
          ], 
          "location": {
            "city": "Apple Valley", 
            "zip": "55124", 
            "country": "United States", 
            "longitude": -93.217052823299994, 
            "state": "MN", 
            "street": "", 
            "latitude": 44.7357096832
          }
        }, 
        {
          "category": "Local business", 
          "name": "Applebee's Neighborhood Grill & Bar", 
          "id": "113317728690974", 
          "category_list": [
            {
              "id": "110107385737667", 
              "name": "New American Restaurant"
            }
          ], 
          "location": {
            "city": "Commack", 
            "zip": "11725-3408", 
            "country": "United States", 
            "longitude": -73.284906966063005, 
            "state": "NY", 
            "street": "105 Veterans Memorial Hwy", 
            "latitude": 40.841111354464999
          }
        }, 
        {
          "category": "Local business", 
          "name": "Applebee's Neighborhood Bar & Grill", 
          "id": "188169107870934", 
          "category_list": [
            {
              "id": "110290705711626", 
              "name": "Bar"
            }, 
            {
              "id": "149803325077018", 
              "name": "American Restaurant"
            }
          ], 
          "location": {
            "city": "Tallahassee", 
            "zip": "", 
            "country": "United States", 
            "longitude": -84.250518847999999, 
            "state": "FL", 
            "street": "", 
            "latitude": 30.503207381599999
          }
        }, 
        {
          "category": "Local business", 
          "name": "Applebee's Neighborhood Bar And Grill", 
          "id": "209082942491802", 
          "category_list": [
            {
              "id": "149803325077018", 
              "name": "American Restaurant"
            }
          ], 
          "location": {
            "city": "Jersey City", 
            "zip": "", 
            "country": "United States", 
            "longitude": -74.0940439516, 
            "state": "NJ", 
            "street": "", 
            "latitude": 40.720216851399996
          }
        }, 
        {
          "category": "Local business", 
          "name": "Applebee's Neighborhood Bar & Grill", 
          "id": "121597091247130", 
          "category_list": [
            {
              "id": "110290705711626", 
              "name": "Bar"
            }, 
            {
              "id": "149803325077018", 
              "name": "American Restaurant"
            }
          ], 
          "location": {
            "city": "Jefferson City", 
            "zip": "65109", 
            "country": "United States", 
            "longitude": -92.212164533600003, 
            "state": "MO", 
            "street": "", 
            "latitude": 38.581182034699999
          }
        }, 
        {
          "category": "Local business", 
          "name": "Applebee's Neighborhood Grill", 
          "id": "231508986875096", 
          "category_list": [
            {
              "id": "149803325077018", 
              "name": "American Restaurant"
            }
          ], 
          "location": {
            "city": "New York", 
            "zip": "11423", 
            "country": "United States", 
            "longitude": -73.768495524299993, 
            "state": "NY", 
            "street": "", 
            "latitude": 40.711744609900002
          }
        }, 
        {
          "category": "Local business", 
          "name": "Applebee's Neighborhood Grill & Bar", 
          "id": "113466768751084", 
          "category_list": [
            {
              "id": "149803325077018", 
              "name": "American Restaurant"
            }
          ], 
          "location": {
            "city": "Gallup", 
            "zip": "87301", 
            "country": "United States", 
            "longitude": -108.766640008, 
            "state": "NM", 
            "street": "", 
            "latitude": 35.527340450499999
          }
        }, 
        {
          "category": "Local business", 
          "name": "Applebee's Neighborhood Grill and Bar", 
          "id": "172469936124631", 
          "category_list": [
            {
              "id": "110107385737667", 
              "name": "New American Restaurant"
            }
          ], 
          "location": {
            "city": "Lockport", 
            "zip": "14094", 
            "country": "United States", 
            "longitude": -78.697308102600005, 
            "state": "NY", 
            "street": "", 
            "latitude": 43.142010019300002
          }
        }, 
        {
          "category": "Local business", 
          "name": "applebee's Neighborhood Bar And Grill", 
          "id": "188235821194570", 
          "category_list": [
            {
              "id": "149803325077018", 
              "name": "American Restaurant"
            }
          ], 
          "location": {
            "city": "Fairfield", 
            "zip": "94533", 
            "country": "United States", 
            "longitude": -122.055344304, 
            "state": "CA", 
            "street": "1350 Travis Blvd # 401", 
            "latitude": 38.260445317699997
          }
        }, 
        {
          "category": "Local business", 
          "name": "Applebee's Neighborhood Bar & Grill", 
          "id": "195175467166193", 
          "category_list": [
            {
              "id": "110107385737667", 
              "name": "New American Restaurant"
            }, 
            {
              "id": "110290705711626", 
              "name": "Bar"
            }
          ], 
          "location": {
            "city": "Beaufort", 
            "zip": "29902", 
            "country": "United States", 
            "longitude": -80.701764121699995, 
            "state": "SC", 
            "street": "", 
            "latitude": 32.440813387699997
          }
        }, 
        {
          "category": "Local business", 
          "name": "Applebee's Neighborhood Grill & Bar", 
          "id": "340404232656424", 
          "category_list": [
            {
              "id": "149803325077018", 
              "name": "American Restaurant"
            }
          ], 
          "location": {
            "city": "Norco", 
            "zip": "", 
            "country": "United States", 
            "longitude": -117.552454363, 
            "state": "CA", 
            "street": "", 
            "latitude": 33.975508648900004
          }
        }, 
        {
          "category": "Local business", 
          "name": "Applebee's Neighborhood Bar & Grill", 
          "id": "197738936910767", 
          "category_list": [
            {
              "id": "110290705711626", 
              "name": "Bar"
            }, 
            {
              "id": "110107385737667", 
              "name": "New American Restaurant"
            }
          ], 
          "location": {
            "city": "New Orleans", 
            "zip": "", 
            "country": "United States", 
            "longitude": -90.184564337300003, 
            "state": "LA", 
            "street": "", 
            "latitude": 29.961140232200002
          }
        }, 
        {
          "category": "Local business", 
          "name": "Applebee's Neighborhood Bar and Grill", 
          "id": "183064508416710", 
          "category_list": [
            {
              "id": "110290705711626", 
              "name": "Bar"
            }, 
            {
              "id": "110107385737667", 
              "name": "New American Restaurant"
            }
          ], 
          "location": {
            "city": "Redlands", 
            "zip": "", 
            "country": "United States", 
            "longitude": -117.222305326, 
            "state": "CA", 
            "street": "", 
            "latitude": 34.063256687600003
          }
        }, 
        {
          "category": "Local business", 
          "name": "Applebee's Neighborhood Bar and Grill", 
          "id": "174150699301566", 
          "category_list": [
            {
              "id": "110107385737667", 
              "name": "New American Restaurant"
            }, 
            {
              "id": "110290705711626", 
              "name": "Bar"
            }
          ], 
          "location": {
            "city": "Baton Rouge", 
            "zip": "70809", 
            "country": "United States", 
            "longitude": -91.081106333600005, 
            "state": "LA", 
            "street": "", 
            "latitude": 30.431405488300001
          }
        }, 
        {
          "category": "Local business", 
          "name": "Applebee's - Neighborhood Grill & Bar", 
          "id": "192349900796071", 
          "category_list": [
            {
              "id": "110107385737667", 
              "name": "New American Restaurant"
            }
          ], 
          "location": {
            "city": "Augusta", 
            "zip": "04330", 
            "country": "United States", 
            "longitude": -69.792201849099996, 
            "state": "ME", 
            "street": "", 
            "latitude": 44.312340076600002
          }
        }, 
        {
          "category": "Local business", 
          "name": "Applebees's Neighborhood Grill & Bar", 
          "id": "115279691876298", 
          "category_list": [
            {
              "id": "149803325077018", 
              "name": "American Restaurant"
            }
          ], 
          "location": {
            "city": "San Antonio", 
            "zip": "", 
            "country": "United States", 
            "longitude": -98.669803428685995, 
            "state": "TX", 
            "street": "", 
            "latitude": 29.552597276349999
          }
        }, 
        {
          "category": "Local business", 
          "name": "Applebee's Neighborhood Grill and Bar", 
          "id": "129569087110040", 
          "category_list": [
            {
              "id": "110107385737667", 
              "name": "New American Restaurant"
            }, 
            {
              "id": "187425207958280", 
              "name": "Burger Restaurant"
            }
          ], 
          "location": {
            "city": "Winston-Salem", 
            "zip": " 27105-1365", 
            "country": "United States", 
            "longitude": -80.274117000000004, 
            "state": "NC", 
            "street": "4690 N Patterson Ave", 
            "latitude": 36.182155999999999
          }
        }, 
        {
          "category": "Local business", 
          "name": "Applebee's Neighborhood bar n grills.", 
          "id": "205908179442587", 
          "category_list": [
            {
              "id": "149803325077018", 
              "name": "American Restaurant"
            }, 
            {
              "id": "110290705711626", 
              "name": "Bar"
            }
          ], 
          "location": {
            "city": "Hammond", 
            "zip": "70401", 
            "country": "United States", 
            "longitude": -90.500096767572003, 
            "state": "LA", 
            "street": "", 
            "latitude": 30.50478649471
          }
        }, 
        {
          "category": "Local business", 
          "name": "Applebee's Neighborhood Bar&Grill", 
          "id": "218550868175507", 
          "category_list": [
            {
              "id": "110290705711626", 
              "name": "Bar"
            }, 
            {
              "id": "149803325077018", 
              "name": "American Restaurant"
            }
          ], 
          "location": {
            "city": "McMinnville", 
            "zip": "37110", 
            "country": "United States", 
            "longitude": -85.7565170126, 
            "state": "TN", 
            "street": "", 
            "latitude": 35.700337905600001
          }
        }, 
        {
          "category": "Restaurant/cafe", 
          "name": "Applebee's Neighborhood Grill & Bar", 
          "id": "451467894960942", 
          "category_list": [
            {
              "id": "273819889375819", 
              "name": "Restaurant"
            }
          ], 
          "location": {
            "city": "Millington", 
            "zip": "38053", 
            "country": "United States", 
            "longitude": -89.894428000000005, 
            "state": "TN", 
            "street": "8472 Highway 51", 
            "latitude": 35.357038000000003
          }
        }, 
        {
          "category": "Restaurant/cafe", 
          "name": "Applebee's Neighborhood Grill", 
          "id": "588593191152469", 
          "category_list": [
            {
              "id": "149803325077018", 
              "name": "American Restaurant"
            }
          ], 
          "location": {
            "city": "Gadsden", 
            "zip": "35901", 
            "country": "United States", 
            "longitude": -86.006218000000004, 
            "state": "AL", 
            "street": "1722 Rainbow Dr, ", 
            "latitude": 33.980549000000003
          }
        }, 
        {
          "category": "Local business", 
          "name": "Applebee's Neighborhood Grill & Bar,", 
          "id": "269952903026769", 
          "category_list": [
            {
              "id": "2500", 
              "name": "Local Business"
            }
          ], 
          "location": {
            "city": "Reiffton", 
            "zip": "19606", 
            "country": "United States", 
            "longitude": -75.849941299999998, 
            "state": "PA", 
            "street": "", 
            "latitude": 40.305455799999997
          }
        }, 
        {
          "category": "Restaurant/cafe", 
          "name": "Applebee's Neighborhood Grill & Bar (NY Metro Area)", 
          "id": "88301767679", 
          "category_list": [
            {
              "id": "149803325077018", 
              "name": "American Restaurant"
            }
          ], 
          "location": {
            "city": "Harrison", 
            "zip": "10528", 
            "country": "United States", 
            "longitude": -73.742754170200001, 
            "state": "NY", 
            "street": "550 Mamaroneck Avenue, Suite 204", 
            "latitude": 40.979683325700002
          }
        }, 
        {
          "category": "Restaurant/cafe", 
          "name": "Applebee's Neighborhood Grill - Perris", 
          "id": "502676606480523", 
          "category_list": [
            {
              "id": "110107385737667", 
              "name": "New American Restaurant"
            }, 
            {
              "id": "150534008338515", 
              "name": "Barbecue Restaurant"
            }
          ], 
          "location": {
            "city": "Perris", 
            "zip": "92571", 
            "country": "United States", 
            "longitude": -117.22637899999999, 
            "state": "CA", 
            "street": "1892 N. Perris Blvd.", 
            "latitude": 33.805852999999999
          }
        }, 
        {
          "category": "Local business", 
          "name": "Applebee's Neighborhood Bar and Grill", 
          "id": "189943117720358", 
          "category_list": [
            {
              "id": "273819889375819", 
              "name": "Restaurant"
            }, 
            {
              "id": "110290705711626", 
              "name": "Bar"
            }
          ], 
          "location": {
            "city": "Addison", 
            "zip": "", 
            "country": "United States", 
            "longitude": -88.000461000000001, 
            "state": "IL", 
            "street": "", 
            "latitude": 41.944681000000003
          }
        }, 
        {
          "category": "Restaurant/cafe", 
          "name": "Applebee's Neighborhood Grill & Bar - Highland", 
          "id": "641200085903762", 
          "category_list": [
            {
              "id": "273819889375819", 
              "name": "Restaurant"
            }
          ], 
          "location": {
            "city": "Highland", 
            "zip": "92346", 
            "country": "United States", 
            "longitude": -117.19813000000001, 
            "state": "CA", 
            "street": "4080 E. Highland Ave.", 
            "latitude": 34.135944000000002
          }
        }, 
        {
          "category": "Local business", 
          "name": "Applebee's Neighborhood Bar and Grill", 
          "id": "139729126100841", 
          "category_list": [
            {
              "id": "110107385737667", 
              "name": "New American Restaurant"
            }, 
            {
              "id": "110290705711626", 
              "name": "Bar"
            }
          ], 
          "location": {
            "city": "Islip", 
            "zip": "11722", 
            "country": "United States", 
            "longitude": -73.200261580200007, 
            "state": "NY", 
            "street": "", 
            "latitude": 40.752592901699998
          }
        }, 
        {
          "category": "Local business", 
          "name": "Applebee's Neighborhood Bar and Grille", 
          "id": "104878692929540", 
          "category_list": [
            {
              "id": "149803325077018", 
              "name": "American Restaurant"
            }
          ], 
          "location": {
            "city": "West Columbia", 
            "zip": "", 
            "country": "United States", 
            "longitude": -81.129058400000005, 
            "state": "SC", 
            "street": "", 
            "latitude": 33.977566000000003
          }
        }, 
        {
          "category": "Local business", 
          "name": "Applebees's Neighborhood Grill & Bar", 
          "id": "116049168493070", 
          "category_list": [
            {
              "id": "2500", 
              "name": "Local Business"
            }
          ], 
          "location": {
            "city": "Camarillo", 
            "zip": "93010", 
            "country": "United States", 
            "longitude": -119.074590441, 
            "state": "CA", 
            "street": "", 
            "latitude": 34.2187178557
          }
        }
      ]
    }
  }, 
  {
    "business_name": "Mind the Gap Marketing Solutions", 
    "business_id": "jcXeqw7G2g4zvf0igG2Hdg", 
    "fb_pages": {
      "paging": {
        "next": "https://graph.facebook.com/search?type=place&access_token=229546593895315|yPLlHqq6YvDLIH4nL0kjJtIFSlU&limit=5000&offset=5000&__after_id=304865262371"
      }, 
      "data": [
        {
          "category": "Local business", 
          "name": "Mind the Gap Marketing Solutions", 
          "id": "304865262371", 
          "category_list": [
            {
              "id": "2500", 
              "name": "Local Business"
            }
          ], 
          "location": {
            "city": "Phoenix", 
            "zip": "85014", 
            "country": "United States", 
            "longitude": -112.065181, 
            "state": "AZ", 
            "street": "6232 n 7th st ste 214", 
            "latitude": 33.528117000000002
          }
        }
      ]
    }
  }, 
  {
    "business_name": "Tony's Shoe Repair", 
    "business_id": "HYQkeVwAslLyTO0aZzg9qw", 
    "fb_pages": {
      "paging": {
        "next": "https://graph.facebook.com/search?type=place&access_token=229546593895315|yPLlHqq6YvDLIH4nL0kjJtIFSlU&limit=5000&offset=5000&__after_id=158813657484326"
      }, 
      "data": [
        {
          "category": "Local business", 
          "name": "Tony's Shoe Repair", 
          "id": "436408223087473", 
          "category_list": [
            {
              "id": "2500", 
              "name": "Local Business"
            }
          ], 
          "location": {
            "city": "New York", 
            "zip": "10001", 
            "country": "United States", 
            "longitude": -73.990746000000001, 
            "state": "NY", 
            "street": "208 W. 35th Street", 
            "latitude": 40.751465000000003
          }
        }, 
        {
          "category": "Local business", 
          "name": "Tony's Shoe Repair", 
          "id": "212107930512", 
          "category_list": [
            {
              "id": "2500", 
              "name": "Local Business"
            }
          ], 
          "location": {
            "city": "Fairport", 
            "zip": "14450", 
            "country": "United States", 
            "longitude": -77.441584000000006, 
            "state": "NY", 
            "street": "4 High Street", 
            "latitude": 43.104610999999998
          }
        }, 
        {
          "category": "Local business", 
          "name": "Tony's Shoe Repair", 
          "id": "111098128953961", 
          "category_list": [
            {
              "id": "109512302457693", 
              "name": "Shoe Store"
            }
          ], 
          "location": {
            "city": "Sierra Vista", 
            "zip": "85635-1900", 
            "country": "United States", 
            "longitude": -110.291634, 
            "state": "AZ", 
            "street": "104 N 7th St", 
            "latitude": 31.55537
          }
        }, 
        {
          "category": "Local business", 
          "name": "Tony's Shoe Repair", 
          "id": "113516775382330", 
          "category_list": [
            {
              "id": "109512302457693", 
              "name": "Shoe Store"
            }
          ], 
          "location": {
            "city": "Phoenix", 
            "zip": "", 
            "country": "United States", 
            "longitude": -112.07574744, 
            "state": "AZ", 
            "street": "", 
            "latitude": 33.484296792899997
          }
        }, 
        {
          "category": "Local business", 
          "name": "Tony's Shoe Repair", 
          "id": "125659200822343", 
          "category_list": [
            {
              "id": "109512302457693", 
              "name": "Shoe Store"
            }
          ], 
          "location": {
            "city": "Phoenix", 
            "zip": "85015-2507", 
            "country": "United States", 
            "longitude": -112.093801, 
            "state": "AZ", 
            "street": "1619 W Bethany Home Rd", 
            "latitude": 33.523879999999998
          }
        }, 
        {
          "category": "Local business", 
          "name": "Tony's Shoe Repair", 
          "id": "126795580709409", 
          "category_list": [
            {
              "id": "109512302457693", 
              "name": "Shoe Store"
            }
          ], 
          "location": {
            "city": "Napa", 
            "zip": "94558-4922", 
            "country": "United States", 
            "longitude": -122.29781699999999, 
            "state": "CA", 
            "street": "3022 Jefferson St", 
            "latitude": 38.316217999999999
          }
        }, 
        {
          "category": "Local business", 
          "name": "Tony's Shoe Repair", 
          "id": "140939089277886", 
          "category_list": [
            {
              "id": "109512302457693", 
              "name": "Shoe Store"
            }
          ], 
          "location": {
            "city": "Waterford", 
            "zip": "48329-3568", 
            "country": "United States", 
            "longitude": -83.376610999999997, 
            "state": "MI", 
            "street": "4458 Dixie Hwy Ste 2", 
            "latitude": 42.683954
          }
        }, 
        {
          "category": "Local business", 
          "name": "Tony's Shoe Repair", 
          "id": "141564212550691", 
          "category_list": [
            {
              "id": "109512302457693", 
              "name": "Shoe Store"
            }
          ], 
          "location": {
            "city": "Rochester", 
            "zip": "48307-4545", 
            "country": "United States", 
            "longitude": -83.132171, 
            "state": "MI", 
            "street": "2622 S Rochester Rd", 
            "latitude": 42.641140999999998
          }
        }, 
        {
          "category": "Local business", 
          "name": "Tony's Shoe Repair", 
          "id": "142767295768941", 
          "category_list": [
            {
              "id": "109512302457693", 
              "name": "Shoe Store"
            }
          ], 
          "location": {
            "city": "San Gabriel", 
            "zip": "91776-1502", 
            "country": "United States", 
            "longitude": -118.096501, 
            "state": "CA", 
            "street": "310 E Las Tunas Dr", 
            "latitude": 34.103031000000001
          }
        }, 
        {
          "category": "Local business", 
          "name": "Tony's Shoe Repair", 
          "id": "145201058845549", 
          "category_list": [
            {
              "id": "109512302457693", 
              "name": "Shoe Store"
            }
          ], 
          "location": {
            "city": "Los Angeles", 
            "zip": "90022-1733", 
            "country": "United States", 
            "longitude": -118.152655, 
            "state": "CA", 
            "street": "258 S Atlantic Blvd", 
            "latitude": 34.033062000000001
          }
        }, 
        {
          "category": "Local business", 
          "name": "Tony's Shoe Repair", 
          "id": "146566682034837", 
          "category_list": [
            {
              "id": "109512302457693", 
              "name": "Shoe Store"
            }
          ], 
          "location": {
            "city": "Monrovia", 
            "zip": "91016-2841", 
            "country": "United States", 
            "longitude": -118.00135899999999, 
            "state": "CA", 
            "street": "112 W Lime Ave", 
            "latitude": 34.147917
          }
        }, 
        {
          "category": "Local business", 
          "name": "Tony's Shoe's & Repair", 
          "id": "147876021898575", 
          "category_list": [
            {
              "id": "109512302457693", 
              "name": "Shoe Store"
            }
          ], 
          "location": {
            "city": "Magna", 
            "zip": "84044-1296", 
            "country": "United States", 
            "longitude": -112.096968, 
            "state": "UT", 
            "street": "2709 S 8585 W", 
            "latitude": 40.710971000000001
          }
        }, 
        {
          "category": "Local business", 
          "name": "Tony's Shoe Repair", 
          "id": "152052934836291", 
          "category_list": [
            {
              "id": "109512302457693", 
              "name": "Shoe Store"
            }
          ], 
          "location": {
            "city": "Temple City", 
            "zip": "91780-1907", 
            "country": "United States", 
            "longitude": -118.067865, 
            "state": "CA", 
            "street": "9212 Las Tunas Dr", 
            "latitude": 34.105589000000002
          }
        }, 
        {
          "category": "Local business", 
          "name": "Tony's Shoe Repair", 
          "id": "152643514777307", 
          "category_list": [
            {
              "id": "109512302457693", 
              "name": "Shoe Store"
            }
          ], 
          "location": {
            "city": "Glenview", 
            "zip": "60025-4314", 
            "country": "United States", 
            "longitude": -87.798760000000001, 
            "state": "IL", 
            "street": "985 Waukegan Rd", 
            "latitude": 42.072321000000002
          }
        }, 
        {
          "category": "Local business", 
          "name": "Tony's Shoe Repair", 
          "id": "156118871095614", 
          "category_list": [
            {
              "id": "109512302457693", 
              "name": "Shoe Store"
            }
          ], 
          "location": {
            "city": "Ossining", 
            "zip": "10562-2905", 
            "country": "United States", 
            "longitude": -73.866478000000001, 
            "state": "NY", 
            "street": "226 N Highland Ave", 
            "latitude": 41.174163999999998
          }
        }, 
        {
          "category": "Local business", 
          "name": "Tony's Shoe Repair", 
          "id": "158013924231960", 
          "category_list": [
            {
              "id": "109512302457693", 
              "name": "Shoe Store"
            }
          ], 
          "location": {
            "city": "Livingston", 
            "zip": "07039-3002", 
            "country": "United States", 
            "longitude": -74.314132999999998, 
            "state": "NJ", 
            "street": "24 E Mount Pleasant Ave", 
            "latitude": 40.795769
          }
        }, 
        {
          "category": "Local business", 
          "name": "Shoe Repair Tony's", 
          "id": "169283366415439", 
          "category_list": [
            {
              "id": "109512302457693", 
              "name": "Shoe Store"
            }
          ], 
          "location": {
            "city": "Ludlow", 
            "zip": "01056", 
            "country": "United States", 
            "longitude": -72.478863000000004, 
            "state": "MA", 
            "street": "165 East St", 
            "latitude": 42.157589000000002
          }
        }, 
        {
          "category": "Local business", 
          "name": "Tony's Shoe Repair", 
          "id": "200026840088824", 
          "category_list": [
            {
              "id": "109512302457693", 
              "name": "Shoe Store"
            }
          ], 
          "location": {
            "city": "Nashville", 
            "zip": "", 
            "country": "United States", 
            "longitude": -86.780368415699996, 
            "state": "TN", 
            "street": "", 
            "latitude": 36.164408214399998
          }
        }, 
        {
          "category": "Local business", 
          "name": "Tony's Shoe Repair", 
          "id": "134290129956460", 
          "category_list": [
            {
              "id": "109527622457518", 
              "name": "Shopping Mall"
            }, 
            {
              "id": "176831012360626", 
              "name": "Professional Services"
            }, 
            {
              "id": "109512302457693", 
              "name": "Shoe Store"
            }
          ], 
          "location": {
            "city": "Scottsdale", 
            "zip": "85251-3834", 
            "country": "United States", 
            "longitude": -111.92853700000001, 
            "state": "AZ", 
            "street": "7062 E Indian School Rd", 
            "latitude": 33.495078999999997
          }
        }, 
        {
          "category": "Local business", 
          "name": "Tony's Boot & Shoe Repair", 
          "id": "160055780683591", 
          "category_list": [
            {
              "id": "109512302457693", 
              "name": "Shoe Store"
            }
          ], 
          "location": {
            "city": "Cincinnati", 
            "zip": "45239-3900", 
            "country": "United States", 
            "longitude": -84.587515999999994, 
            "state": "OH", 
            "street": "8325 Colerain Ave Ste 6", 
            "latitude": 39.222250000000003
          }
        }, 
        {
          "category": "Local business", 
          "name": "Tony's Shoe Repair & Sales", 
          "id": "124181190962855", 
          "category_list": [
            {
              "id": "109512302457693", 
              "name": "Shoe Store"
            }
          ], 
          "location": {
            "city": "Westfield", 
            "zip": "14787-1021", 
            "country": "United States", 
            "longitude": -79.578636000000003, 
            "state": "NY", 
            "street": "12 N Portage St", 
            "latitude": 42.322124000000002
          }
        }, 
        {
          "category": "Local business", 
          "name": "Tony's Quality Shoe Repair", 
          "id": "158278527537463", 
          "category_list": [
            {
              "id": "109512302457693", 
              "name": "Shoe Store"
            }
          ], 
          "location": {
            "city": "South Bend", 
            "zip": "46615-1426", 
            "country": "United States", 
            "longitude": -86.225112999999993, 
            "state": "IN", 
            "street": "1508 Mishawaka Ave", 
            "latitude": 41.665526999999997
          }
        }, 
        {
          "category": "Local business", 
          "name": "Tony's Shoe and Boot Repair", 
          "id": "137566369617901", 
          "category_list": [
            {
              "id": "109512302457693", 
              "name": "Shoe Store"
            }
          ], 
          "location": {
            "city": "Albuquerque", 
            "zip": "87102-1056", 
            "country": "United States", 
            "longitude": -106.647153, 
            "state": "NM", 
            "street": "2413 4th St NW", 
            "latitude": 35.109639999999999
          }
        }, 
        {
          "category": "Local business", 
          "name": "Tony's Cleaners & Shoe Repair", 
          "id": "162151087142629", 
          "category_list": [
            {
              "id": "109512302457693", 
              "name": "Shoe Store"
            }, 
            {
              "id": "133148010085253", 
              "name": "Dry Cleaner"
            }, 
            {
              "id": "177492522293723", 
              "name": "Luggage Service"
            }
          ], 
          "location": {
            "city": "Largo", 
            "zip": "33774-3216", 
            "country": "United States", 
            "longitude": -82.832238000000004, 
            "state": "FL", 
            "street": "12007 Indian Rocks Rd", 
            "latitude": 27.88231
          }
        }, 
        {
          "category": "Local business", 
          "name": "Tony's Shoe Repair & Tailoring", 
          "id": "127523217294189", 
          "category_list": [
            {
              "id": "109512302457693", 
              "name": "Shoe Store"
            }, 
            {
              "id": "140784189318631", 
              "name": "Sewing & Seamstress"
            }
          ], 
          "location": {
            "city": "Boynton Beach", 
            "zip": "33426-7940", 
            "country": "United States", 
            "longitude": -80.089949000000004, 
            "state": "FL", 
            "street": "4759 N Congress Ave", 
            "latitude": 26.570640000000001
          }
        }, 
        {
          "category": "Professional services", 
          "name": "Tony K's Barber Shop and Shoe Repair", 
          "id": "491956327540772", 
          "category_list": [
            {
              "id": "176831012360626", 
              "name": "Professional Services"
            }
          ], 
          "location": {
            "city": "Jacksonville", 
            "zip": "32244", 
            "country": "United States", 
            "longitude": -81.697394000000003, 
            "state": "FL", 
            "street": "5535 Roosevelt Blvd", 
            "latitude": 30.247171000000002
          }
        }, 
        {
          "category": "Local business", 
          "name": "Tony's Shoeshine & Repair", 
          "id": "158813657484326", 
          "category_list": [
            {
              "id": "109512302457693", 
              "name": "Shoe Store"
            }, 
            {
              "id": "180410821995109", 
              "name": "Automotive"
            }
          ], 
          "location": {
            "city": "Los Angeles", 
            "zip": "90079-1300", 
            "country": "United States", 
            "longitude": -118.255402, 
            "state": "CA", 
            "street": "110 E 9th St", 
            "latitude": 34.040591999999997
          }
        }
      ]
    }
  }, 
  {
    "business_name": "Signature Nail and Spa", 
    "business_id": "-IptYYZVDxgJgDB_eHJo1A", 
    "fb_pages": {
      "paging": {
        "next": "https://graph.facebook.com/search?type=place&access_token=229546593895315|yPLlHqq6YvDLIH4nL0kjJtIFSlU&limit=5000&offset=5000&__after_id=557227367637953"
      }, 
      "data": [
        {
          "category": "Local business", 
          "name": "Signature Nails & Spa", 
          "id": "199937806699045", 
          "category_list": [
            {
              "id": "198516863494646", 
              "name": "Nail Salon"
            }
          ], 
          "location": {
            "city": "Denver", 
            "zip": "80232", 
            "country": "United States", 
            "longitude": -105.05270458484, 
            "state": "CO", 
            "street": "1490 S Sheridan Blvd unit 104", 
            "latitude": 39.689954150909998
          }
        }, 
        {
          "category": "Local business", 
          "name": "Signature Nail and Spa", 
          "id": "158908194132234", 
          "category_list": [
            {
              "id": "200814353265561", 
              "name": "Spa"
            }, 
            {
              "id": "145118935550090", 
              "name": "Medical & Health"
            }, 
            {
              "id": "198516863494646", 
              "name": "Nail Salon"
            }
          ], 
          "location": {
            "city": "Chandler", 
            "zip": "85248-4587", 
            "country": "United States", 
            "longitude": -111.83925121975, 
            "state": "AZ", 
            "street": "4055 S Arizona Ave Ste 5", 
            "latitude": 33.246482487026
          }
        }, 
        {
          "category": "Local business", 
          "name": "Signature Nail Spa", 
          "id": "101632406562485", 
          "category_list": [
            {
              "id": "198516863494646", 
              "name": "Nail Salon"
            }, 
            {
              "id": "199236533423806", 
              "name": "Beauty Salon"
            }, 
            {
              "id": "200814353265561", 
              "name": "Spa"
            }
          ], 
          "location": {
            "city": "Houston", 
            "zip": "77066", 
            "country": "United States", 
            "longitude": -95.530245818891004, 
            "state": "TX", 
            "street": "", 
            "latitude": 29.969493025586001
          }
        }, 
        {
          "category": "Local business", 
          "name": "Signature Nail and Spa", 
          "id": "154743491229280", 
          "category_list": [
            {
              "id": "198516863494646", 
              "name": "Nail Salon"
            }
          ], 
          "location": {
            "city": "Lewisville", 
            "zip": "75077-3226", 
            "country": "United States", 
            "longitude": -97.083641614428004, 
            "state": "TX", 
            "street": "1601 Village Pkwy", 
            "latitude": 33.074081912933003
          }
        }, 
        {
          "category": "Spas/beauty/personal care", 
          "name": "Signature Nail & Spa", 
          "id": "200641630038739", 
          "category_list": [
            {
              "id": "139225689474222", 
              "name": "Spa, Beauty & Personal Care"
            }
          ], 
          "location": {
            "city": "Stockton", 
            "zip": "95207", 
            "country": "United States", 
            "longitude": -121.32294440299999, 
            "state": "CA", 
            "street": "6565 N Pacific Ave", 
            "latitude": 38.0097742576
          }
        }, 
        {
          "category": "Local business", 
          "name": "Signature Nail & Spa", 
          "id": "137299402984550", 
          "category_list": [
            {
              "id": "198516863494646", 
              "name": "Nail Salon"
            }, 
            {
              "id": "200814353265561", 
              "name": "Spa"
            }, 
            {
              "id": "144873802247220", 
              "name": "Cosmetics & Beauty Supply"
            }
          ], 
          "location": {
            "city": "Cerritos", 
            "zip": "90703-5426", 
            "country": "United States", 
            "longitude": -118.09325236946, 
            "state": "CA", 
            "street": "405 Los Cerritos Mall", 
            "latitude": 33.861425890408
          }
        }, 
        {
          "category": "Local business", 
          "name": "Signature Nail & Spa", 
          "id": "121213404603978", 
          "category_list": [
            {
              "id": "198516863494646", 
              "name": "Nail Salon"
            }
          ], 
          "location": {
            "city": "Henderson", 
            "zip": "89012-3613", 
            "country": "United States", 
            "longitude": -115.05630740126, 
            "state": "NV", 
            "street": "1651 W Horizon Ridge Pkwy", 
            "latitude": 36.015775833164
          }
        }, 
        {
          "category": "Local business", 
          "name": "Signature Nails & Spa", 
          "id": "141297892573628", 
          "category_list": [
            {
              "id": "198516863494646", 
              "name": "Nail Salon"
            }, 
            {
              "id": "169758603141095", 
              "name": "Barber Shop"
            }, 
            {
              "id": "144873802247220", 
              "name": "Cosmetics & Beauty Supply"
            }
          ], 
          "location": {
            "city": "Rowlett", 
            "zip": "75089", 
            "country": "United States", 
            "longitude": -96.557826617434998, 
            "state": "TX", 
            "street": "", 
            "latitude": 32.909858747679998
          }
        }, 
        {
          "category": "Local business", 
          "name": "Signature Nail Spa", 
          "id": "141833239189207", 
          "category_list": [
            {
              "id": "198516863494646", 
              "name": "Nail Salon"
            }, 
            {
              "id": "144873802247220", 
              "name": "Cosmetics & Beauty Supply"
            }
          ], 
          "location": {
            "city": "Shreveport", 
            "zip": "71105", 
            "country": "United States", 
            "longitude": -93.713415838138999, 
            "state": "LA", 
            "street": "", 
            "latitude": 32.430383001675999
          }
        }, 
        {
          "category": "Local business", 
          "name": "Signature Nail & Spa", 
          "id": "140715099360840", 
          "category_list": [
            {
              "id": "198516863494646", 
              "name": "Nail Salon"
            }, 
            {
              "id": "144873802247220", 
              "name": "Cosmetics & Beauty Supply"
            }, 
            {
              "id": "200814353265561", 
              "name": "Spa"
            }
          ], 
          "location": {
            "city": "Henderson", 
            "zip": "89014", 
            "country": "United States", 
            "longitude": -115.08388394399999, 
            "state": "NV", 
            "street": "", 
            "latitude": 36.072681366499999
          }
        }, 
        {
          "category": "Local business", 
          "name": "Signature Nail Spa", 
          "id": "210770742294398", 
          "category_list": [
            {
              "id": "199236533423806", 
              "name": "Beauty Salon"
            }, 
            {
              "id": "198516863494646", 
              "name": "Nail Salon"
            }
          ], 
          "location": {
            "city": "Tuscaloosa", 
            "zip": "35404", 
            "country": "United States", 
            "longitude": -87.522346224868997, 
            "state": "AL", 
            "street": "1701 Mcfarland Blvd E Ste 142", 
            "latitude": 33.195665690492
          }
        }, 
        {
          "category": "Spas/beauty/personal care", 
          "name": "Signature Nail & Spa", 
          "id": "231393236943249", 
          "category_list": [
            {
              "id": "139225689474222", 
              "name": "Spa, Beauty & Personal Care"
            }
          ], 
          "location": {
            "city": "Charlotte", 
            "zip": "28216", 
            "country": "United States", 
            "longitude": -80.858448316400001, 
            "state": "NC", 
            "street": "9711 Northlake Center Pkwy #B", 
            "latitude": 35.347481270700001
          }
        }, 
        {
          "category": "Local business", 
          "name": "Signature Day Spa", 
          "id": "115528721837587", 
          "category_list": [
            {
              "id": "198516863494646", 
              "name": "Nail Salon"
            }
          ], 
          "location": {
            "city": "Bay Shore", 
            "zip": "11706", 
            "country": "United States", 
            "longitude": -73.245622981093007, 
            "state": "NY", 
            "street": "", 
            "latitude": 40.738051534055998
          }
        }, 
        {
          "category": "Local business", 
          "name": "Signature Nail & Spa", 
          "id": "160513670635456", 
          "category_list": [
            {
              "id": "198516863494646", 
              "name": "Nail Salon"
            }, 
            {
              "id": "200814353265561", 
              "name": "Spa"
            }, 
            {
              "id": "144873802247220", 
              "name": "Cosmetics & Beauty Supply"
            }
          ], 
          "location": {
            "city": "Las Vegas", 
            "zip": "89119-4675", 
            "country": "United States", 
            "longitude": -115.11947810700001, 
            "state": "NV", 
            "street": "7161 S Eastern Ave", 
            "latitude": 36.059678302199998
          }
        }, 
        {
          "category": "Local business", 
          "name": "Signature Nails & Spa", 
          "id": "169122959779448", 
          "category_list": [
            {
              "id": "198516863494646", 
              "name": "Nail Salon"
            }
          ], 
          "location": {
            "city": "Vancouver", 
            "zip": "98662", 
            "country": "United States", 
            "longitude": -122.55490447242001, 
            "state": "WA", 
            "street": "11505 NE Fourth Plain Blvd, Suite F3", 
            "latitude": 45.664419647029
          }
        }, 
        {
          "category": "Spas/beauty/personal care", 
          "name": "Signature Nails & Spa", 
          "id": "247591015282882", 
          "category_list": [
            {
              "id": "139225689474222", 
              "name": "Spa, Beauty & Personal Care"
            }
          ], 
          "location": {
            "city": "Nashville", 
            "zip": "37215", 
            "country": "United States", 
            "longitude": -86.813721028000003, 
            "state": "TN", 
            "street": "3900 Hillsboro Pike # 4", 
            "latitude": 36.105910101100001
          }
        }, 
        {
          "category": "Local business", 
          "name": "Signature Nails And Spa", 
          "id": "136222436454227", 
          "category_list": [
            {
              "id": "198516863494646", 
              "name": "Nail Salon"
            }
          ], 
          "location": {
            "city": "Saint Petersburg", 
            "zip": "33716", 
            "country": "United States", 
            "longitude": -82.645628365172001, 
            "state": "FL", 
            "street": "10488 Roosevelt Blvd N", 
            "latitude": 27.867205913233001
          }
        }, 
        {
          "category": "Local business", 
          "name": "Signature Nails Spa", 
          "id": "157622854268980", 
          "category_list": [
            {
              "id": "198516863494646", 
              "name": "Nail Salon"
            }, 
            {
              "id": "144873802247220", 
              "name": "Cosmetics & Beauty Supply"
            }
          ], 
          "location": {
            "city": "Seaside", 
            "zip": "93955-3174", 
            "country": "United States", 
            "longitude": -121.84604991394001, 
            "state": "CA", 
            "street": "824 Playa Ave", 
            "latitude": 36.618167224598999
          }
        }, 
        {
          "category": "Local business", 
          "name": "Signature Nail Spa", 
          "id": "168815989839166", 
          "category_list": [
            {
              "id": "200814353265561", 
              "name": "Spa"
            }, 
            {
              "id": "198516863494646", 
              "name": "Nail Salon"
            }
          ], 
          "location": {
            "city": "Alpharetta", 
            "zip": "30005", 
            "country": "United States", 
            "longitude": -84.260418012700001, 
            "state": "GA", 
            "street": "", 
            "latitude": 34.0755174604
          }
        }, 
        {
          "category": "Local business", 
          "name": "Signature Nails & Spa", 
          "id": "172305729477427", 
          "category_list": [
            {
              "id": "198516863494646", 
              "name": "Nail Salon"
            }
          ], 
          "location": {
            "city": "Midland", 
            "zip": "79705", 
            "country": "United States", 
            "longitude": -102.13067794583, 
            "state": "TX", 
            "street": "", 
            "latitude": 32.030960392696002
          }
        }, 
        {
          "category": "Local business", 
          "name": "Signature Nails & Spa", 
          "id": "113830355347476", 
          "category_list": [
            {
              "id": "198516863494646", 
              "name": "Nail Salon"
            }
          ], 
          "location": {
            "city": "Langhorne", 
            "zip": "19047-1824", 
            "country": "United States", 
            "longitude": -74.879785568708002, 
            "state": "PA", 
            "street": "2300 E Lincoln Hwy", 
            "latitude": 40.184485066859999
          }
        }, 
        {
          "category": "Local business", 
          "name": "Signature Nail and Spa", 
          "id": "146734925399636", 
          "category_list": [
            {
              "id": "198516863494646", 
              "name": "Nail Salon"
            }, 
            {
              "id": "199236533423806", 
              "name": "Beauty Salon"
            }
          ], 
          "location": {
            "city": "Providence", 
            "zip": "02903", 
            "country": "United States", 
            "longitude": -71.416461736599999, 
            "state": "RI", 
            "street": "", 
            "latitude": 41.827065180399998
          }
        }, 
        {
          "category": "Local business", 
          "name": "Signature Nails & Spa", 
          "id": "412807212113364", 
          "category_list": [
            {
              "id": "198516863494646", 
              "name": "Nail Salon"
            }, 
            {
              "id": "200600219953504", 
              "name": "Shopping & Retail"
            }
          ], 
          "location": {
            "city": "Bellevue", 
            "zip": "98008", 
            "country": "United States", 
            "longitude": -122.130860063, 
            "state": "WA", 
            "street": "", 
            "latitude": 47.619656880699999
          }
        }, 
        {
          "category": "Local business", 
          "name": "Signature Nails & Spa", 
          "id": "155898794451001", 
          "category_list": [
            {
              "id": "198516863494646", 
              "name": "Nail Salon"
            }, 
            {
              "id": "200814353265561", 
              "name": "Spa"
            }, 
            {
              "id": "144873802247220", 
              "name": "Cosmetics & Beauty Supply"
            }
          ], 
          "location": {
            "city": "South Pasadena", 
            "zip": "91030-4511", 
            "country": "United States", 
            "longitude": -118.15294761473, 
            "state": "CA", 
            "street": "1321 Huntington Dr", 
            "latitude": 34.103669410930998
          }
        }, 
        {
          "category": "Local business", 
          "name": "Signature Nails & Spa", 
          "id": "200939583369138", 
          "category_list": [
            {
              "id": "198516863494646", 
              "name": "Nail Salon"
            }
          ], 
          "location": {
            "city": "Seattle", 
            "zip": "98125", 
            "country": "United States", 
            "longitude": -122.326222664, 
            "state": "WA", 
            "street": "", 
            "latitude": 47.704886017699998, 
            "located_in": 140825129276444
          }
        }, 
        {
          "category": "Local business", 
          "name": "Signature Nails & Spa", 
          "id": "157401637621508", 
          "category_list": [
            {
              "id": "198516863494646", 
              "name": "Nail Salon"
            }, 
            {
              "id": "200814353265561", 
              "name": "Spa"
            }
          ], 
          "location": {
            "city": "Las Vegas", 
            "zip": "89147", 
            "country": "United States", 
            "longitude": -115.31306176365, 
            "state": "NV", 
            "street": "", 
            "latitude": 36.116512145930002
          }
        }, 
        {
          "category": "Local business", 
          "name": "Signature Nail & Spa", 
          "id": "187206247974149", 
          "category_list": [
            {
              "id": "198516863494646", 
              "name": "Nail Salon"
            }, 
            {
              "id": "169758603141095", 
              "name": "Barber Shop"
            }
          ], 
          "location": {
            "city": "Saint Petersburg", 
            "zip": "33710", 
            "country": "United States", 
            "longitude": -82.698978113433995, 
            "state": "FL", 
            "street": "", 
            "latitude": 27.805011738339999
          }
        }, 
        {
          "category": "Local business", 
          "name": "Signature Nails and Day Spa", 
          "id": "166129546760902", 
          "category_list": [
            {
              "id": "198516863494646", 
              "name": "Nail Salon"
            }, 
            {
              "id": "199236533423806", 
              "name": "Beauty Salon"
            }, 
            {
              "id": "144873802247220", 
              "name": "Cosmetics & Beauty Supply"
            }
          ], 
          "location": {
            "city": "Melbourne", 
            "zip": "32904", 
            "country": "United States", 
            "longitude": -80.650745052676001, 
            "state": "FL", 
            "street": "", 
            "latitude": 28.081472779656998
          }
        }, 
        {
          "category": "Local business", 
          "name": "Signature Spa And Nails", 
          "id": "144848112225766", 
          "category_list": [
            {
              "id": "198516863494646", 
              "name": "Nail Salon"
            }, 
            {
              "id": "200814353265561", 
              "name": "Spa"
            }
          ], 
          "location": {
            "city": "Keller", 
            "zip": "76244", 
            "country": "United States", 
            "longitude": -97.271589750809994, 
            "state": "TX", 
            "street": "9500 Ray White Rd. Suite 165", 
            "latitude": 32.911939828363003
          }
        }, 
        {
          "category": "Spas/beauty/personal care", 
          "name": "Signature Nails Douglasville GA", 
          "id": "318515104864790", 
          "category_list": [
            {
              "id": "139225689474222", 
              "name": "Spa, Beauty & Personal Care"
            }
          ], 
          "location": {
            "city": "Douglasville", 
            "zip": "30135", 
            "country": "United States", 
            "longitude": -84.714756173558996, 
            "state": "GA", 
            "street": "4300 Chapel Hill Rd Ste 200", 
            "latitude": 33.688531445591998
          }
        }, 
        {
          "category": "Local business", 
          "name": "Signature Nails And Spa", 
          "id": "213479175340227", 
          "category_list": [
            {
              "id": "198516863494646", 
              "name": "Nail Salon"
            }, 
            {
              "id": "200814353265561", 
              "name": "Spa"
            }
          ], 
          "location": {
            "latitude": 42.300815757521001, 
            "street": "", 
            "zip": "01760", 
            "longitude": -71.382129456610002
          }
        }, 
        {
          "category": "Spas/beauty/personal care", 
          "name": "Signature ll Nails", 
          "id": "309852019113154", 
          "category_list": [
            {
              "id": "139225689474222", 
              "name": "Spa, Beauty & Personal Care"
            }
          ], 
          "location": {
            "city": "Miami Lakes", 
            "zip": "33014", 
            "country": "United States", 
            "longitude": -80.318752000000003, 
            "state": "FL", 
            "street": "7351 Miami Lakes Drive ", 
            "latitude": 25.910221
          }
        }, 
        {
          "category": "Spas/beauty/personal care", 
          "name": "Signature Nails and Spa", 
          "id": "617765824916655", 
          "category_list": [
            {
              "id": "198516863494646", 
              "name": "Nail Salon"
            }, 
            {
              "id": "199236533423806", 
              "name": "Beauty Salon"
            }, 
            {
              "id": "205950169432461", 
              "name": "Day Spa"
            }
          ], 
          "location": {
            "city": "Greensboro", 
            "zip": "27455", 
            "country": "United States", 
            "longitude": -79.828793000000005, 
            "state": "NC", 
            "street": "3712-B Lawndale Drive", 
            "latitude": 36.119016999999999
          }
        }, 
        {
          "category": "Local business", 
          "name": "Signature Nails & Spa", 
          "id": "125321040967730", 
          "category_list": [
            {
              "id": "198516863494646", 
              "name": "Nail Salon"
            }
          ], 
          "location": {
            "city": "Urbandale", 
            "zip": "50111", 
            "country": "United States", 
            "longitude": -93.793130806999997, 
            "state": "IA", 
            "street": "12721 Meredith dr", 
            "latitude": 41.644269644799998
          }
        }, 
        {
          "category": "Spas/beauty/personal care", 
          "name": "Signature Nails & Spa", 
          "id": "625409577479023", 
          "category_list": [
            {
              "id": "198516863494646", 
              "name": "Nail Salon"
            }, 
            {
              "id": "200814353265561", 
              "name": "Spa"
            }
          ], 
          "location": {
            "city": "Colorado Springs", 
            "zip": "80916", 
            "country": "United States", 
            "longitude": -104.756981, 
            "state": "CO", 
            "street": "1976 S. Murray Blvd. Suite 110", 
            "latitude": 38.803595999999999
          }
        }, 
        {
          "category": "Local business", 
          "name": "Signature Day Spa", 
          "id": "150291251681400", 
          "category_list": [
            {
              "id": "198516863494646", 
              "name": "Nail Salon"
            }
          ], 
          "location": {
            "city": "Atlanta", 
            "zip": "30301", 
            "country": "United States", 
            "longitude": -84.388699000000003, 
            "state": "GA", 
            "street": "950 W Peachtree St NE", 
            "latitude": 33.779981999999997
          }
        }, 
        {
          "category": "Spas/beauty/personal care", 
          "name": "Signature Nails", 
          "id": "432362793477137", 
          "category_list": [
            {
              "id": "139225689474222", 
              "name": "Spa, Beauty & Personal Care"
            }
          ], 
          "location": {
            "city": "Murrells Inlet", 
            "zip": "29576", 
            "country": "United States", 
            "longitude": -79.052964000000003, 
            "state": "SC", 
            "street": "11895 Hwy 707 Unit A6", 
            "latitude": 33.586241999999999
          }
        }, 
        {
          "category": "Local business", 
          "name": "Signature Nails & Spa", 
          "id": "228560897156610", 
          "category_list": [
            {
              "id": "198516863494646", 
              "name": "Nail Salon"
            }, 
            {
              "id": "199236533423806", 
              "name": "Beauty Salon"
            }
          ], 
          "location": {
            "city": "Greenville", 
            "zip": "29605", 
            "country": "United States", 
            "longitude": -82.394848515532004, 
            "state": "SC", 
            "street": "2015 Augusta St", 
            "latitude": 34.825216106249997
          }
        }, 
        {
          "category": "Local business", 
          "name": "Signature Nails And Spa", 
          "id": "321214721230229", 
          "category_list": [
            {
              "id": "198516863494646", 
              "name": "Nail Salon"
            }
          ], 
          "location": {
            "city": "Kerrville", 
            "zip": "78028", 
            "country": "United States", 
            "longitude": -99.142922394455994, 
            "state": "TX", 
            "street": "", 
            "latitude": 30.032660849854
          }
        }, 
        {
          "category": "Spas/beauty/personal care", 
          "name": "Signature Nail Salon", 
          "id": "236999936438089", 
          "category_list": [
            {
              "id": "139225689474222", 
              "name": "Spa, Beauty & Personal Care"
            }
          ], 
          "location": {
            "city": "Frisco", 
            "zip": "75034", 
            "country": "United States", 
            "longitude": -96.840322, 
            "state": "TX", 
            "street": "4275 Legacy Drive", 
            "latitude": 33.115006000000001
          }
        }, 
        {
          "category": "Local business", 
          "name": "Signature Nails & Day Spa @ The", 
          "id": "196948267121101", 
          "category_list": [
            {
              "id": "198516863494646", 
              "name": "Nail Salon"
            }, 
            {
              "id": "200600219953504", 
              "name": "Shopping & Retail"
            }
          ], 
          "location": {
            "city": "Orlando", 
            "zip": "32809", 
            "country": "United States", 
            "longitude": -81.397093490900005, 
            "state": "FL", 
            "street": "", 
            "latitude": 28.445765532599999
          }
        }, 
        {
          "category": "Local business", 
          "name": "Signature Nails And Skin Care Spa", 
          "id": "140476195964256", 
          "category_list": [
            {
              "id": "198516863494646", 
              "name": "Nail Salon"
            }
          ], 
          "location": {
            "city": "Miami Lakes", 
            "zip": "33016", 
            "country": "United States", 
            "longitude": -80.331404305172001, 
            "state": "FL", 
            "street": "8018 NW 154th St", 
            "latitude": 25.912987456404
          }
        }, 
        {
          "category": "Local business", 
          "name": "Nail Status at Signature Spa. Toni & Guy.", 
          "id": "114051898633061", 
          "category_list": [
            {
              "id": "198516863494646", 
              "name": "Nail Salon"
            }
          ], 
          "location": {
            "city": "York", 
            "zip": "YO1 8QG", 
            "country": "United Kingdom", 
            "longitude": -1.0817096239499999, 
            "state": "", 
            "street": "Toni & Guy, 12 Blake Street", 
            "latitude": 53.952461702000001
          }
        }, 
        {
          "category": "Local business", 
          "name": "Signature Nails And Spa", 
          "id": "134499246597135", 
          "category_list": [
            {
              "id": "198516863494646", 
              "name": "Nail Salon"
            }, 
            {
              "id": "199236533423806", 
              "name": "Beauty Salon"
            }, 
            {
              "id": "144873802247220", 
              "name": "Cosmetics & Beauty Supply"
            }
          ], 
          "location": {
            "city": "Hialeah", 
            "zip": "33014", 
            "country": "United States", 
            "longitude": -80.318546463895004, 
            "state": "FL", 
            "street": "", 
            "latitude": 25.911979934651001
          }
        }, 
        {
          "category": "Spas/beauty/personal care", 
          "name": "Signature Styles By Sabrina", 
          "id": "349659918464087", 
          "category_list": [
            {
              "id": "198516863494646", 
              "name": "Nail Salon"
            }, 
            {
              "id": "174177802634376", 
              "name": "Hair Salon"
            }
          ], 
          "location": {
            "city": "Newport", 
            "zip": "13416", 
            "country": "United States", 
            "longitude": -75.019159000000002, 
            "state": "NY", 
            "street": "7580 Main Street", 
            "latitude": 43.191979000000003
          }
        }, 
        {
          "category": "Spas/beauty/personal care", 
          "name": "Signature Nails & spa and body waxing", 
          "id": "607332189297774", 
          "category_list": [
            {
              "id": "198516863494646", 
              "name": "Nail Salon"
            }
          ], 
          "location": {
            "city": "Providence", 
            "zip": "02903", 
            "country": "United States", 
            "longitude": -71.417305999999996, 
            "state": "RI", 
            "street": "196 providence Place Mall", 
            "latitude": 41.827463000000002
          }
        }, 
        {
          "category": "Local business", 
          "name": "Signature Nails & Spa", 
          "id": "195191157193387", 
          "category_list": [
            {
              "id": "144873802247220", 
              "name": "Cosmetics & Beauty Supply"
            }, 
            {
              "id": "198516863494646", 
              "name": "Nail Salon"
            }
          ], 
          "location": {
            "city": "McKinney", 
            "zip": "75071", 
            "country": "United States", 
            "longitude": -96.637406412199994, 
            "state": "TX", 
            "street": "", 
            "latitude": 33.219460480199999
          }
        }, 
        {
          "category": "Spas/beauty/personal care", 
          "name": "Signature Beauty & Nail Design", 
          "id": "355134681296966", 
          "category_list": [
            {
              "id": "139225689474222", 
              "name": "Spa, Beauty & Personal Care"
            }
          ], 
          "location": {
            "city": "Dublin", 
            "zip": "0000", 
            "country": "Ireland", 
            "longitude": -6.2596999999999996, 
            "state": "", 
            "street": "Mullingar", 
            "latitude": 53.347799999999999
          }
        }, 
        {
          "category": "Spas/beauty/personal care", 
          "name": "PK Signature Nails & Spa", 
          "id": "496383523761461", 
          "category_list": [
            {
              "id": "139225689474222", 
              "name": "Spa, Beauty & Personal Care"
            }
          ], 
          "location": {
            "city": "Florence", 
            "zip": "29505", 
            "country": "United States", 
            "longitude": -79.752150999999998, 
            "state": "SC", 
            "street": "960 pamplico Hwy Suite C", 
            "latitude": 34.157021999999998
          }
        }, 
        {
          "category": "Spas/beauty/personal care", 
          "name": "Signature Nails", 
          "id": "364995303623519", 
          "category_list": [
            {
              "id": "139225689474222", 
              "name": "Spa, Beauty & Personal Care"
            }
          ], 
          "location": {
            "city": "Grand Junction", 
            "zip": "81505", 
            "country": "United States", 
            "longitude": -108.587101, 
            "state": "CO", 
            "street": "2502 hwy 6&50 ste#500 ", 
            "latitude": 39.082068999999997
          }
        }, 
        {
          "category": "Local business", 
          "name": "Signature Nails & Spa in Villa Rica", 
          "id": "300560390090061", 
          "category_list": [
            {
              "id": "2500", 
              "name": "Local Business"
            }
          ], 
          "location": {
            "city": "Villa Rica", 
            "zip": "30168", 
            "country": "United States", 
            "longitude": -84.900282000000004, 
            "state": "GA", 
            "street": "2000 Mirror Lake Blvd, Suite F", 
            "latitude": 33.732301
          }
        }, 
        {
          "category": "Spas/beauty/personal care", 
          "name": "Signature Nails", 
          "id": "509663382462668", 
          "category_list": [
            {
              "id": "139225689474222", 
              "name": "Spa, Beauty & Personal Care"
            }
          ], 
          "location": {
            "city": "Kuala Lumpur", 
            "zip": "47620", 
            "country": "Malaysia", 
            "longitude": 101.58687999999999, 
            "state": "", 
            "street": "10, Jalan USJ9 / 5P UEP, Subang Jaya", 
            "latitude": 3.046065
          }
        }, 
        {
          "category": "Spas/beauty/personal care", 
          "name": "Totally Toes", 
          "id": "1414406145466947", 
          "category_list": [
            {
              "id": "198516863494646", 
              "name": "Nail Salon"
            }
          ], 
          "location": {
            "city": "Pialba", 
            "zip": "4655", 
            "country": "Australia", 
            "longitude": 152.84187033569, 
            "state": "QLD", 
            "street": "Level 2 The Signature Building 19-21 Torquay Road ", 
            "latitude": -25.282321639967002
          }
        }, 
        {
          "category": "Local business", 
          "name": "Signature Nails and Day Spa", 
          "id": "200343383311871", 
          "category_list": [
            {
              "id": "199236533423806", 
              "name": "Beauty Salon"
            }, 
            {
              "id": "198516863494646", 
              "name": "Nail Salon"
            }, 
            {
              "id": "144873802247220", 
              "name": "Cosmetics & Beauty Supply"
            }
          ], 
          "location": {
            "city": "Atlanta", 
            "zip": "30326", 
            "country": "United States", 
            "longitude": -84.360293054082007, 
            "state": "GA", 
            "street": "", 
            "latitude": 33.850969773224001
          }
        }, 
        {
          "category": "Local business", 
          "name": "Signature Nails Spa", 
          "id": "181231305363214", 
          "category_list": [
            {
              "id": "139225689474222", 
              "name": "Spa, Beauty & Personal Care"
            }
          ], 
          "location": {
            "city": "Doylestown", 
            "zip": "18901", 
            "country": "United States", 
            "longitude": -75.129341574999998, 
            "state": "PA", 
            "street": "", 
            "latitude": 40.304086337599998
          }
        }, 
        {
          "category": "Local business", 
          "name": "Signature Hair & Nails", 
          "id": "372665499507461", 
          "category_list": [
            {
              "id": "139225689474222", 
              "name": "Spa, Beauty & Personal Care"
            }
          ], 
          "location": {
            "city": "Conway", 
            "zip": "29527", 
            "country": "United States", 
            "longitude": -79.047450999999995, 
            "state": "SC", 
            "street": "1112 3rd. Ave.", 
            "latitude": 33.834735999999999
          }
        }, 
        {
          "category": "Local business", 
          "name": "Signature Nails & Spa", 
          "id": "118976311519340", 
          "category_list": [
            {
              "id": "200814353265561", 
              "name": "Spa"
            }, 
            {
              "id": "198516863494646", 
              "name": "Nail Salon"
            }
          ], 
          "location": {
            "city": "Newport", 
            "zip": "02840", 
            "country": "United States", 
            "longitude": -71.316748306210997, 
            "state": "RI", 
            "street": "", 
            "latitude": 41.508198794842997
          }
        }, 
        {
          "category": "Spas/beauty/personal care", 
          "name": "Signature Nails", 
          "id": "441305565899960", 
          "category_list": [
            {
              "id": "139225689474222", 
              "name": "Spa, Beauty & Personal Care"
            }
          ], 
          "location": {
            "city": "Virginia Beach", 
            "zip": "23462", 
            "country": "United States", 
            "longitude": -76.162142000000003, 
            "state": "VA", 
            "street": "921-102 N.Newtown Rd.", 
            "latitude": 36.865853999999999
          }
        }, 
        {
          "category": "Spas/beauty/personal care", 
          "name": "Signature Nails & Lashes", 
          "id": "192509820772297", 
          "category_list": [
            {
              "id": "139225689474222", 
              "name": "Spa, Beauty & Personal Care"
            }
          ], 
          "location": {
            "city": "High Wycombe", 
            "zip": "HP10 8EA", 
            "country": "United Kingdom", 
            "longitude": -0.69989232060399997, 
            "state": "", 
            "street": "15 Hillcroft Road", 
            "latitude": 51.6382540834
          }
        }, 
        {
          "category": "Spas/beauty/personal care", 
          "name": "TMM Signature Nails/Lash", 
          "id": "619662791401226", 
          "category_list": [
            {
              "id": "200814353265561", 
              "name": "Spa"
            }
          ], 
          "location": {
            "city": "Houston", 
            "zip": "77069", 
            "country": "United States", 
            "longitude": -95.512674000000004, 
            "state": "TX", 
            "street": "5507 Cypress Creek Pkwy #542", 
            "latitude": 29.979828000000001
          }
        }, 
        {
          "category": "Local business", 
          "name": "Signature Nails And Spa", 
          "id": "241664412603077", 
          "category_list": [
            {
              "id": "2500", 
              "name": "Local Business"
            }
          ], 
          "location": {
            "city": "Kingston", 
            "zip": "", 
            "country": "United States", 
            "longitude": -73.985518940000006, 
            "state": "NY", 
            "street": "", 
            "latitude": 41.9674343585
          }
        }, 
        {
          "category": "Spas/beauty/personal care", 
          "name": "Signature Nails and Beauty", 
          "id": "192243600788629", 
          "category_list": [
            {
              "id": "139225689474222", 
              "name": "Spa, Beauty & Personal Care"
            }
          ], 
          "location": {
            "city": "Chesterfield", 
            "zip": "S40 2BL", 
            "country": "United Kingdom", 
            "longitude": -1.44787939266, 
            "state": "", 
            "street": "255c Chatsworth Road", 
            "latitude": 53.233978212899999
          }
        }, 
        {
          "category": "Spas/beauty/personal care", 
          "name": "Signature Nails & Beauty", 
          "id": "148891905262060", 
          "category_list": [
            {
              "id": "139225689474222", 
              "name": "Spa, Beauty & Personal Care"
            }
          ], 
          "location": {
            "city": "Delray Beach", 
            "zip": "33484", 
            "country": "United States", 
            "longitude": -80.127045425622995, 
            "state": "FL", 
            "street": "", 
            "latitude": 26.458901086110998
          }
        }, 
        {
          "category": "Local business", 
          "name": "Signature Nails and Beauty Training Buckinghamshire/Oxfordshire/Berkshire", 
          "id": "197707443610029", 
          "category_list": [
            {
              "id": "139225689474222", 
              "name": "Spa, Beauty & Personal Care"
            }
          ], 
          "location": {
            "city": "High Wycombe", 
            "zip": "HP10 8EA", 
            "country": "United Kingdom", 
            "longitude": -0.69994457367243001, 
            "state": "", 
            "street": "15 hillcroft Road Tylers Green", 
            "latitude": 51.638174064391997
          }
        }, 
        {
          "category": "Spas/beauty/personal care", 
          "name": "Nails by Stephanie Logar", 
          "id": "557227367637953", 
          "category_list": [
            {
              "id": "139225689474222", 
              "name": "Spa, Beauty & Personal Care"
            }
          ], 
          "location": {
            "city": "Eugene", 
            "zip": "97401", 
            "country": "United States", 
            "longitude": -123.08949200000001, 
            "state": "OR", 
            "street": "1665 pearl st", 
            "latitude": 44.04157
          }
        }
      ]
    }
  }
]