[
  {
    "business_name": "Londen West Records", 
    "business_id": "QC-HGWbkTLct6a92Rx09NQ", 
    "fb_pages": {
      "data": []
    }
  }, 
  {
    "business_name": "Shea Cafe Espresso & More", 
    "business_id": "cdr4GB7ygDahg009p2nn5w", 
    "fb_pages": {
      "data": []
    }
  }, 
  {
    "business_name": "Warner Village Cosmetic & Family Dentistry", 
    "business_id": "etyBPADObYMpgcQ_WdBYLQ", 
    "fb_pages": {
      "paging": {
        "next": "https://graph.facebook.com/search?type=place&access_token=229546593895315|yPLlHqq6YvDLIH4nL0kjJtIFSlU&limit=5000&offset=5000&__after_id=166184463399921"
      }, 
      "data": [
        {
          "category": "Local business", 
          "name": "Warner Village Cosmetic and Family Dentistry", 
          "id": "166184463399921", 
          "category_list": [
            {
              "id": "174187662626299", 
              "name": "Dentist"
            }
          ], 
          "location": {
            "city": "Tempe", 
            "zip": "85284", 
            "country": "United States", 
            "longitude": -111.96295000000001, 
            "state": "AZ", 
            "street": "8675 S. Priest Drive Suite 101", 
            "latitude": 33.336298999999997
          }
        }
      ]
    }
  }, 
  {
    "business_name": "Stamp Works", 
    "business_id": "ebleACL9xyHB0qVKA3bqpw", 
    "fb_pages": {
      "paging": {
        "next": "https://graph.facebook.com/search?type=place&access_token=229546593895315|yPLlHqq6YvDLIH4nL0kjJtIFSlU&limit=5000&offset=5000&__after_id=156663534373953"
      }, 
      "data": [
        {
          "category": "Local business", 
          "name": "Stamp Works", 
          "id": "118537691552003", 
          "category_list": [
            {
              "id": "2500", 
              "name": "Local Business"
            }
          ], 
          "location": {
            "city": "Chandler", 
            "zip": "85225", 
            "country": "United States", 
            "longitude": -111.842468, 
            "state": "AZ", 
            "street": "238 S. Wall St.", 
            "latitude": 33.300002999999997
          }
        }, 
        {
          "category": "Local business", 
          "name": "Stamp Works", 
          "id": "163737356978560", 
          "category_list": [
            {
              "id": "110249975723427", 
              "name": "Office Supplies"
            }
          ], 
          "location": {
            "city": "Richmond", 
            "zip": "47374-4222", 
            "country": "United States", 
            "longitude": -84.895172000000002, 
            "state": "IN", 
            "street": "121 S 5th St", 
            "latitude": 39.826694000000003
          }
        }, 
        {
          "category": "Local business", 
          "name": "GE Stamp Works, Inc.", 
          "id": "328349537291256", 
          "category_list": [
            {
              "id": "2500", 
              "name": "Local Business"
            }
          ], 
          "location": {
            "city": "Battle Creek", 
            "zip": "49015", 
            "country": "United States", 
            "longitude": -85.219469000000004, 
            "state": "MI", 
            "street": "1020 Territorial Road West", 
            "latitude": 42.304954000000002
          }
        }, 
        {
          "category": "Local business", 
          "name": "Stamp Works Printing", 
          "id": "103761973022664", 
          "category_list": [
            {
              "id": "197888373555475", 
              "name": "Printing Service"
            }, 
            {
              "id": "110249975723427", 
              "name": "Office Supplies"
            }
          ], 
          "location": {
            "city": "Waco", 
            "zip": "76705-5452", 
            "country": "United States", 
            "longitude": -97.148917999999995, 
            "state": "TX", 
            "street": "544 Shady Ln", 
            "latitude": 31.653507000000001
          }
        }, 
        {
          "category": "Local business", 
          "name": "Helena Stamp Works and Engraving LLC", 
          "id": "117728264981035", 
          "category_list": [
            {
              "id": "200600219953504", 
              "name": "Shopping & Retail"
            }, 
            {
              "id": "187133811318958", 
              "name": "Business Services"
            }
          ], 
          "location": {
            "city": "Helena", 
            "zip": "59601", 
            "country": "United States", 
            "longitude": -112.03488900000001, 
            "state": "MT", 
            "street": "637 Helena Ave", 
            "latitude": 46.593113000000002
          }
        }, 
        {
          "category": "Small business", 
          "name": "House Stamp Works/A&E printers", 
          "id": "187342121307637", 
          "category_list": [
            {
              "id": "2237", 
              "name": "Small Business"
            }
          ], 
          "location": {
            "city": "Chicago", 
            "zip": "60605", 
            "country": "United States", 
            "longitude": -87.631050000000002, 
            "state": "IL", 
            "street": "107 West Van Buren, Suite 208", 
            "latitude": 41.876407999999998
          }
        }, 
        {
          "category": "Business services", 
          "name": "B.C. Stamp Works", 
          "id": "28939031377", 
          "category_list": [
            {
              "id": "110249975723427", 
              "name": "Office Supplies"
            }
          ], 
          "location": {
            "city": "Vancouver", 
            "zip": "V6B 2Z5", 
            "country": "Canada", 
            "longitude": -123.11422, 
            "state": "BC", 
            "street": "583 Richards Street", 
            "latitude": 49.282519999999998
          }
        }, 
        {
          "category": "Local business", 
          "name": "Richmond Stamp Works", 
          "id": "156174357756819", 
          "category_list": [
            {
              "id": "110249975723427", 
              "name": "Office Supplies"
            }, 
            {
              "id": "188953757794108", 
              "name": "Signs & Banner Service"
            }
          ], 
          "location": {
            "city": "Grand Rapids", 
            "zip": "49503-4114", 
            "country": "United States", 
            "longitude": -85.669983999999999, 
            "state": "MI", 
            "street": "26 Ionia Ave SW", 
            "latitude": 42.962499000000001
          }
        }, 
        {
          "category": "Local business", 
          "name": "Rubber Stamp Works", 
          "id": "123247264400193", 
          "category_list": [
            {
              "id": "110249975723427", 
              "name": "Office Supplies"
            }
          ], 
          "location": {
            "city": "Elkhart Lake", 
            "zip": "53020-1665", 
            "country": "United States", 
            "longitude": -87.975350000000006, 
            "state": "WI", 
            "street": "N8609 Ridge Creek Rd", 
            "latitude": 43.851756999999999
          }
        }, 
        {
          "category": "Local business", 
          "name": "Logan Stamp Works", 
          "id": "158208500877962", 
          "category_list": [
            {
              "id": "110249975723427", 
              "name": "Office Supplies"
            }, 
            {
              "id": "128232937246338", 
              "name": "Travel & Transportation"
            }
          ], 
          "location": {
            "city": "Boston", 
            "zip": "02128-1930", 
            "country": "United States", 
            "longitude": -71.039253000000002, 
            "state": "MA", 
            "street": "104 Meridian St", 
            "latitude": 42.372833
          }
        }, 
        {
          "category": "Company", 
          "name": "Beaver Stamp Works", 
          "id": "470918036317127", 
          "category_list": [
            {
              "id": "110249975723427", 
              "name": "Office Supplies"
            }
          ], 
          "location": {
            "city": "Gibsons", 
            "zip": "V0N 1V0", 
            "country": "Canada", 
            "longitude": -123.50476192393999, 
            "state": "BC", 
            "street": "441 Marine Dr", 
            "latitude": 49.402575197917002
          }
        }, 
        {
          "category": "Business services", 
          "name": "Jagdish STAMP WORKS", 
          "id": "503543186392086", 
          "category_list": [
            {
              "id": "187133811318958", 
              "name": "Business Services"
            }
          ], 
          "location": {
            "city": "Malout", 
            "zip": "152107", 
            "country": "India", 
            "longitude": 74.505300000000005, 
            "state": "", 
            "street": "OPP. UCO BANK", 
            "latitude": 30.1892
          }
        }, 
        {
          "category": "Local business", 
          "name": "Inland Stamp Works", 
          "id": "103748293023961", 
          "category_list": [
            {
              "id": "110249975723427", 
              "name": "Office Supplies"
            }
          ], 
          "location": {
            "city": "Spokane", 
            "zip": "99201-3605", 
            "country": "United States", 
            "longitude": -117.415817, 
            "state": "WA", 
            "street": "215 W 2nd Ave", 
            "latitude": 47.654246999999998
          }
        }, 
        {
          "category": "Local business", 
          "name": "American Stamp Works", 
          "id": "117072121685924", 
          "category_list": [
            {
              "id": "110249975723427", 
              "name": "Office Supplies"
            }, 
            {
              "id": "139975202732005", 
              "name": "Trophies & Engraving"
            }
          ], 
          "location": {
            "city": "Miami", 
            "zip": "33147-7626", 
            "country": "United States", 
            "longitude": -80.249167999999997, 
            "state": "FL", 
            "street": "6431 NW 32nd Ave", 
            "latitude": 25.833012
          }
        }, 
        {
          "category": "Local business", 
          "name": "The Stamp Works", 
          "id": "125432917510929", 
          "category_list": [
            {
              "id": "110249975723427", 
              "name": "Office Supplies"
            }
          ], 
          "location": {
            "city": "Nashville", 
            "zip": "37203-5001", 
            "country": "United States", 
            "longitude": -86.771935999999997, 
            "state": "TN", 
            "street": "601 Hagan St", 
            "latitude": 36.138742000000001
          }
        }, 
        {
          "category": "Local business", 
          "name": "Paragon Stamp Works", 
          "id": "125454334175285", 
          "category_list": [
            {
              "id": "110249975723427", 
              "name": "Office Supplies"
            }, 
            {
              "id": "188953757794108", 
              "name": "Signs & Banner Service"
            }, 
            {
              "id": "197888373555475", 
              "name": "Printing Service"
            }
          ], 
          "location": {
            "city": "New Bedford", 
            "zip": "02744-1339", 
            "country": "United States", 
            "longitude": -70.909698000000006, 
            "state": "MA", 
            "street": "293 Brock Ave", 
            "latitude": 41.602283
          }
        }, 
        {
          "category": "Local business", 
          "name": "Everett Stamp Works", 
          "id": "125509414170931", 
          "category_list": [
            {
              "id": "110249975723427", 
              "name": "Office Supplies"
            }, 
            {
              "id": "139975202732005", 
              "name": "Trophies & Engraving"
            }, 
            {
              "id": "188953757794108", 
              "name": "Signs & Banner Service"
            }
          ], 
          "location": {
            "city": "Everett", 
            "zip": "98201-4016", 
            "country": "United States", 
            "longitude": -122.206802, 
            "state": "WA", 
            "street": "2933 Wetmore Ave", 
            "latitude": 47.978248999999998
          }
        }, 
        {
          "category": "Local business", 
          "name": "Steel Stamp Works", 
          "id": "154405584596411", 
          "category_list": [
            {
              "id": "110249975723427", 
              "name": "Office Supplies"
            }
          ], 
          "location": {
            "city": "Cleveland", 
            "zip": "44113-2332", 
            "country": "United States", 
            "longitude": -81.706940000000003, 
            "state": "OH", 
            "street": "1325 Washington Ave", 
            "latitude": 41.493094999999997
          }
        }, 
        {
          "category": "Local business", 
          "name": "Reynolds Stamp Works LLC", 
          "id": "156060187766839", 
          "category_list": [
            {
              "id": "110249975723427", 
              "name": "Office Supplies"
            }
          ], 
          "location": {
            "city": "Warwick", 
            "zip": "02886", 
            "country": "United States", 
            "longitude": -71.454849999999993, 
            "state": "RI", 
            "street": "14 Clyde Ave", 
            "latitude": 41.691814999999998
          }
        }, 
        {
          "category": "Local business", 
          "name": "The Stamp Works", 
          "id": "158759347491211", 
          "category_list": [
            {
              "id": "110249975723427", 
              "name": "Office Supplies"
            }
          ], 
          "location": {
            "city": "Preston", 
            "zip": "06365-8422", 
            "country": "United States", 
            "longitude": -72.039486999999994, 
            "state": "CT", 
            "street": "22 School House Rd", 
            "latitude": 41.489373000000001
          }
        }, 
        {
          "category": "Local business", 
          "name": "Sunnyside Stamp Works", 
          "id": "162487713775779", 
          "category_list": [
            {
              "id": "110249975723427", 
              "name": "Office Supplies"
            }, 
            {
              "id": "139975202732005", 
              "name": "Trophies & Engraving"
            }
          ], 
          "location": {
            "city": "Sunnyside", 
            "zip": "98944", 
            "country": "United States", 
            "longitude": -119.998756, 
            "state": "WA", 
            "street": "1612 E Edison Ave", 
            "latitude": 46.324874999999999
          }
        }, 
        {
          "category": "Local business", 
          "name": "Cheyenne Stamp Works", 
          "id": "167446366605453", 
          "category_list": [
            {
              "id": "110249975723427", 
              "name": "Office Supplies"
            }, 
            {
              "id": "187679647929203", 
              "name": "Collectibles Store"
            }
          ], 
          "location": {
            "city": "Cheyenne", 
            "zip": "82001-4403", 
            "country": "United States", 
            "longitude": -104.817746, 
            "state": "WY", 
            "street": "315 W 18th St", 
            "latitude": 41.133873000000001
          }
        }, 
        {
          "category": "Local business", 
          "name": "Ricahardson's Stamp Works", 
          "id": "169523016398523", 
          "category_list": [
            {
              "id": "139975202732005", 
              "name": "Trophies & Engraving"
            }, 
            {
              "id": "110249975723427", 
              "name": "Office Supplies"
            }
          ], 
          "location": {
            "city": "Houston", 
            "zip": "77024-1842", 
            "country": "United States", 
            "longitude": -95.497127000000006, 
            "state": "TX", 
            "street": "8566 Katy Fwy", 
            "latitude": 29.784911000000001
          }
        }, 
        {
          "category": "Small business", 
          "name": "Grays Harbor Stamp Works", 
          "id": "550387811646226", 
          "category_list": [
            {
              "id": "110249975723427", 
              "name": "Office Supplies"
            }
          ], 
          "location": {
            "city": "Aberdeen", 
            "zip": "98520", 
            "country": "United States", 
            "longitude": -123.815302, 
            "state": "WA", 
            "street": "110 North G Street", 
            "latitude": 46.977139000000001
          }
        }, 
        {
          "category": "Local business", 
          "name": "ACME Rubber Stamp Works", 
          "id": "140796619305079", 
          "category_list": [
            {
              "id": "110249975723427", 
              "name": "Office Supplies"
            }
          ], 
          "location": {
            "city": "Maplewood", 
            "zip": "07040", 
            "country": "United States", 
            "longitude": -74.258060999999998, 
            "state": "NJ", 
            "street": "6 Burnett Avenue", 
            "latitude": 40.721784
          }
        }, 
        {
          "category": "Local business", 
          "name": "St Paul Stamp Works", 
          "id": "135864249796206", 
          "category_list": [
            {
              "id": "110249975723427", 
              "name": "Office Supplies"
            }, 
            {
              "id": "188953757794108", 
              "name": "Signs & Banner Service"
            }, 
            {
              "id": "139975202732005", 
              "name": "Trophies & Engraving"
            }
          ], 
          "location": {
            "city": "Saint Paul", 
            "zip": "55103-1856", 
            "country": "United States", 
            "longitude": -93.103256000000002, 
            "state": "MN", 
            "street": "87 Empire Dr", 
            "latitude": 44.962550999999998
          }
        }, 
        {
          "category": "Company", 
          "name": "Fargo Rubber Stamp Works", 
          "id": "352904731443202", 
          "category_list": [
            {
              "id": "110249975723427", 
              "name": "Office Supplies"
            }
          ], 
          "location": {
            "city": "Moorhead", 
            "zip": "56560", 
            "country": "United States", 
            "longitude": -96.763214000000005, 
            "state": "MN", 
            "street": "1021 Center Ave", 
            "latitude": 46.874724999999998
          }
        }, 
        {
          "category": "Local business", 
          "name": "Corpus Christi Stamp Works, Inc.", 
          "id": "152307321491007", 
          "category_list": [
            {
              "id": "110249975723427", 
              "name": "Office Supplies"
            }
          ], 
          "location": {
            "city": "Corpus Christi", 
            "zip": "78401", 
            "country": "United States", 
            "longitude": -97.401978, 
            "state": "TX", 
            "street": "502 S. Staples", 
            "latitude": 27.787089999999999
          }
        }, 
        {
          "category": "Local business", 
          "name": "STAMP CREEK STONE WORKS, LLC", 
          "id": "112425968775156", 
          "category_list": [
            {
              "id": "2500", 
              "name": "Local Business"
            }
          ], 
          "location": {
            "city": "Sunset", 
            "zip": "29685", 
            "country": "United States", 
            "longitude": -82.854712000000006, 
            "state": "SC", 
            "street": "234 Pine Grove Church Road", 
            "latitude": 34.915475999999998
          }
        }, 
        {
          "category": "Local business", 
          "name": "Newark Stamp & Die Works", 
          "id": "104654516268717", 
          "category_list": [
            {
              "id": "187133811318958", 
              "name": "Business Services"
            }
          ], 
          "location": {
            "city": "Newark", 
            "zip": "07104-4409", 
            "country": "United States", 
            "longitude": -74.153808999999995, 
            "state": "NJ", 
            "street": "35 Verona Ave", 
            "latitude": 40.778530000000003
          }
        }, 
        {
          "category": "Local business", 
          "name": "Young Bros Stamp Works", 
          "id": "162853487076986", 
          "category_list": [
            {
              "id": "110249975723427", 
              "name": "Office Supplies"
            }
          ], 
          "location": {
            "city": "Muscatine", 
            "zip": "52761-5224", 
            "country": "United States", 
            "longitude": -91.036918999999997, 
            "state": "IA", 
            "street": "1415 Howard Ave", 
            "latitude": 41.440666
          }
        }, 
        {
          "category": "Local business", 
          "name": "Wand Rubber Stamp Works", 
          "id": "147546685290206", 
          "category_list": [
            {
              "id": "110249975723427", 
              "name": "Office Supplies"
            }
          ], 
          "location": {
            "city": "Kenner", 
            "zip": "70062-5738", 
            "country": "United States", 
            "longitude": -90.242259000000004, 
            "state": "LA", 
            "street": "2228 Florida Ave", 
            "latitude": 29.996459000000002
          }
        }, 
        {
          "category": "Local business", 
          "name": "Sharm Rubber Stamp Works", 
          "id": "225637054275632", 
          "category_list": [
            {
              "id": "197888373555475", 
              "name": "Printing Service"
            }
          ], 
          "location": {
            "city": "Sambalpur", 
            "zip": "768001", 
            "country": "India", 
            "longitude": 83.966700000000003, 
            "state": "", 
            "street": "Marwari Para", 
            "latitude": 21.449999999999999
          }
        }, 
        {
          "category": "Local business", 
          "name": "Flint Rubber Stamp Works", 
          "id": "110866788976610", 
          "category_list": [
            {
              "id": "110249975723427", 
              "name": "Office Supplies"
            }, 
            {
              "id": "190690290956124", 
              "name": "Inventory Control Service"
            }
          ], 
          "location": {
            "city": "Flint", 
            "zip": "48507-1567", 
            "country": "United States", 
            "longitude": -83.693375000000003, 
            "state": "MI", 
            "street": "3518 Fenton Rd", 
            "latitude": 42.990060999999997
          }
        }, 
        {
          "category": "Local business", 
          "name": "Duraney Rubber Stamp Works", 
          "id": "116365615089329", 
          "category_list": [
            {
              "id": "110249975723427", 
              "name": "Office Supplies"
            }
          ], 
          "location": {
            "city": "Johnstown", 
            "zip": "15904-1609", 
            "country": "United States", 
            "longitude": -78.870142999999999, 
            "state": "PA", 
            "street": "621 Demuth St", 
            "latitude": 40.291277000000001
          }
        }, 
        {
          "category": "Local business", 
          "name": "Advance Rubber Stamp Works", 
          "id": "161784760507435", 
          "category_list": [
            {
              "id": "175838732461622", 
              "name": "Post Office"
            }, 
            {
              "id": "161516070564222", 
              "name": "Financial Services"
            }, 
            {
              "id": "110249975723427", 
              "name": "Office Supplies"
            }
          ], 
          "location": {
            "city": "Memphis", 
            "zip": "38103-2727", 
            "country": "United States", 
            "longitude": -90.045387000000005, 
            "state": "TN", 
            "street": "339 Madison Ave", 
            "latitude": 35.142901999999999
          }
        }, 
        {
          "category": "Local business", 
          "name": "Hartford Stamp & Office Works", 
          "id": "157107247657503", 
          "category_list": [
            {
              "id": "187679647929203", 
              "name": "Collectibles Store"
            }, 
            {
              "id": "187133811318958", 
              "name": "Business Services"
            }
          ], 
          "location": {
            "city": "Hartford", 
            "zip": "06103-1319", 
            "country": "United States", 
            "longitude": -72.670732000000001, 
            "state": "CT", 
            "street": "180 Market St", 
            "latitude": 41.768979000000002
          }
        }, 
        {
          "category": "Local business", 
          "name": "Sioux Falls Rubber Stamp Works", 
          "id": "116811008380873", 
          "category_list": [
            {
              "id": "110249975723427", 
              "name": "Office Supplies"
            }, 
            {
              "id": "133354270064406", 
              "name": "Security"
            }, 
            {
              "id": "188953757794108", 
              "name": "Signs & Banner Service"
            }
          ], 
          "location": {
            "city": "Sioux Falls", 
            "zip": "57104-6310", 
            "country": "United States", 
            "longitude": -96.727857, 
            "state": "SD", 
            "street": "212 S Main Ave", 
            "latitude": 43.545459999999999
          }
        }, 
        {
          "category": "Engineering/construction", 
          "name": "Corpus Christi Stamp Works, Inc. / CCSW Sign Systems", 
          "id": "669098013140366", 
          "category_list": [
            {
              "id": "2251", 
              "name": "Engineering/Construction"
            }
          ], 
          "location": {
            "city": "Corpus Christi", 
            "zip": "78403", 
            "country": "United States", 
            "longitude": -97.401978, 
            "state": "TX", 
            "street": "502 S. Staples", 
            "latitude": 27.787089999999999
          }
        }, 
        {
          "category": "Local business", 
          "name": "Dan Tam Stamped Concrete Works", 
          "id": "298925852929", 
          "category_list": [
            {
              "id": "179618232079666", 
              "name": "Concrete Contractor"
            }
          ], 
          "location": {
            "city": "Dillsburg", 
            "zip": "17019", 
            "country": "United States", 
            "longitude": -77.131682999999995, 
            "state": "PA", 
            "street": "321 Whiskey Springs Road", 
            "latitude": 40.081532000000003
          }
        }, 
        {
          "category": "Home improvement", 
          "name": "Stamped Concrete Works", 
          "id": "566256300065465", 
          "category_list": [
            {
              "id": "108427109235243", 
              "name": "Home Improvement"
            }
          ], 
          "location": {
            "city": "Akron", 
            "zip": "17501", 
            "country": "United States", 
            "longitude": -76.208793, 
            "state": "PA", 
            "street": "407 S 7th Street", 
            "latitude": 40.14893
          }
        }, 
        {
          "category": "Local business", 
          "name": "MUSEUM STAMPS...Rubber Stamps of Famous Works of Art", 
          "id": "102422126460971", 
          "category_list": [
            {
              "id": "2500", 
              "name": "Local Business"
            }
          ], 
          "location": {
            "city": "Annapolis", 
            "zip": "", 
            "country": "United States", 
            "longitude": -73.522809948499997, 
            "state": "MD", 
            "street": "", 
            "latitude": 41.163406901400002
          }
        }, 
        {
          "category": "Local business", 
          "name": "Allred Metal Stamping Works", 
          "id": "107212266003762", 
          "category_list": [
            {
              "id": "132452193487149", 
              "name": "Mattress Wholesale"
            }, 
            {
              "id": "187133811318958", 
              "name": "Business Services"
            }
          ], 
          "location": {
            "city": "High Point", 
            "zip": "27260-8459", 
            "country": "United States", 
            "longitude": -80.038452000000007, 
            "state": "NC", 
            "street": "1305 Old Thomasville Rd", 
            "latitude": 35.915866999999999
          }
        }, 
        {
          "category": "Local business", 
          "name": "Dan Tam Stamped Concrete Works", 
          "id": "104106316323637", 
          "category_list": [
            {
              "id": "179618232079666", 
              "name": "Concrete Contractor"
            }
          ], 
          "location": {
            "city": "York Springs", 
            "zip": "17372-9741", 
            "country": "United States", 
            "longitude": -77.107910000000004, 
            "state": "PA", 
            "street": "1916 County Line Rd", 
            "latitude": 40.059631000000003
          }
        }, 
        {
          "category": "Local business", 
          "name": "New Eit-Stamping & Fabricating Works", 
          "id": "160815393942722", 
          "category_list": [
            {
              "id": "182387268467261", 
              "name": "Metals"
            }
          ], 
          "location": {
            "city": "North Easton", 
            "zip": "02356-2601", 
            "country": "United States", 
            "longitude": -71.127944999999997, 
            "state": "MA", 
            "street": "227 Bay Rd", 
            "latitude": 42.046894000000002
          }
        }, 
        {
          "category": "Event planning/event services", 
          "name": "Illinois Ink (Art Rubber Stamping Home Workshop Style)", 
          "id": "399781113421579", 
          "category_list": [
            {
              "id": "193705277324704", 
              "name": "Event Planning"
            }
          ], 
          "location": {
            "city": "Sidney", 
            "zip": "61877", 
            "country": "United States", 
            "longitude": -88.072953999999996, 
            "state": "IL", 
            "street": "214 S. David St, PO Box 516", 
            "latitude": 40.024341999999997
          }
        }, 
        {
          "category": "Non-profit organization", 
          "name": "Divas At Work Incorporated", 
          "id": "250234205102708", 
          "category_list": [
            {
              "id": "2603", 
              "name": "Non-Profit Organization"
            }
          ], 
          "location": {
            "city": "Temple Hills", 
            "zip": "20748", 
            "country": "United States", 
            "longitude": -76.943705482499993, 
            "state": "MD", 
            "street": "4400 Stamp Road STE 306", 
            "latitude": 38.827919885599997
          }
        }, 
        {
          "category": "Business services", 
          "name": "Pen Card, Stamps, Driving Licence, E-Mitra Work", 
          "id": "564684096890117", 
          "category_list": [
            {
              "id": "187133811318958", 
              "name": "Business Services"
            }
          ], 
          "location": {
            "city": "Alwar", 
            "zip": "301001", 
            "country": "India", 
            "longitude": 76.599999999999994, 
            "state": "", 
            "street": "Shani Computer, Near Shani Dharmshala, Kala  kua", 
            "latitude": 27.566700000000001
          }
        }, 
        {
          "category": "Local business", 
          "name": "Ben's Rubber Stamps & Laser Work", 
          "id": "156663534373953", 
          "category_list": [
            {
              "id": "110249975723427", 
              "name": "Office Supplies"
            }, 
            {
              "id": "188953757794108", 
              "name": "Signs & Banner Service"
            }, 
            {
              "id": "163272113725616", 
              "name": "Advertising Service"
            }
          ], 
          "location": {
            "city": "Holland", 
            "zip": "49424-2032", 
            "country": "United States", 
            "longitude": -86.092862999999994, 
            "state": "MI", 
            "street": "370 Roost Ave", 
            "latitude": 42.801445000000001
          }
        }
      ]
    }
  }, 
  {
    "business_name": "Hoookah Mania", 
    "business_id": "0MepUkozmPI0YQp8Bp7p8g", 
    "fb_pages": {
      "data": []
    }
  }, 
  {
    "business_name": "Posh Improvisational Cuisine", 
    "business_id": "_AvHni-xdRHmZ3XfYHwGkg", 
    "fb_pages": {
      "paging": {
        "next": "https://graph.facebook.com/search?type=place&access_token=229546593895315|yPLlHqq6YvDLIH4nL0kjJtIFSlU&limit=5000&offset=5000&__after_id=216934904996244"
      }, 
      "data": [
        {
          "category": "Local business", 
          "name": "Posh  \" Improvisational Cuisine \"", 
          "id": "216934904996244", 
          "category_list": [
            {
              "id": "273819889375819", 
              "name": "Restaurant"
            }
          ], 
          "location": {
            "city": "Phoenix", 
            "zip": "85018", 
            "country": "United States", 
            "longitude": -111.926436989, 
            "state": "AZ", 
            "street": "", 
            "latitude": 33.507063489099998
          }
        }
      ]
    }
  }, 
  {
    "business_name": "Deer Valley Regency", 
    "business_id": "1XiUlZuB1LhIAXXXOQFTFA", 
    "fb_pages": {
      "paging": {
        "next": "https://graph.facebook.com/search?type=place&access_token=229546593895315|yPLlHqq6YvDLIH4nL0kjJtIFSlU&limit=5000&offset=5000&__after_id=115368905290835"
      }, 
      "data": [
        {
          "category": "Real estate", 
          "name": "Deer Valley Regency Apartments", 
          "id": "115368905290835", 
          "category_list": [
            {
              "id": "198327773511962", 
              "name": "Real Estate"
            }
          ], 
          "location": {
            "city": "Phoenix", 
            "zip": "85027", 
            "country": "United States", 
            "longitude": -112.109444, 
            "state": "AZ", 
            "street": "21220 N 23 Avenue", 
            "latitude": 33.678787
          }
        }
      ]
    }
  }, 
  {
    "business_name": "Country Thunder", 
    "business_id": "LVgkwBHhJDWO8-BZC2l1FQ", 
    "fb_pages": {
      "paging": {
        "next": "https://graph.facebook.com/search?type=place&access_token=229546593895315|yPLlHqq6YvDLIH4nL0kjJtIFSlU&limit=5000&offset=5000&__after_id=122019604501847"
      }, 
      "data": [
        {
          "category": "Local business", 
          "name": "Country Thunder", 
          "id": "207494492711281", 
          "category_list": [
            {
              "id": "179943432047564", 
              "name": "Concert Venue"
            }, 
            {
              "id": "204359242921685", 
              "name": "RV Park"
            }, 
            {
              "id": "205483332814878", 
              "name": "Camp"
            }
          ], 
          "location": {
            "city": "Twin Lakes", 
            "zip": "53181", 
            "country": "United States", 
            "longitude": -88.298305494310995, 
            "state": "WI", 
            "street": "2305 Lance Dr  Twin Lakes", 
            "latitude": 42.514147553569998
          }
        }, 
        {
          "category": "Local business", 
          "name": "Country Thunder USA", 
          "id": "261074307240550", 
          "category_list": [
            {
              "id": "192119584190796", 
              "name": "Event"
            }, 
            {
              "id": "179943432047564", 
              "name": "Concert Venue"
            }
          ], 
          "location": {
            "city": "Twin Lakes", 
            "zip": "53181", 
            "country": "United States", 
            "longitude": -88.260632787999995, 
            "state": "WI", 
            "street": "2305 Lance Dr  Twin Lakes, WI ", 
            "latitude": 42.526414268899998
          }
        }, 
        {
          "category": "Concert venue", 
          "name": "Country Thunder Music Festivals", 
          "id": "56391103443", 
          "category_list": [
            {
              "id": "179943432047564", 
              "name": "Concert Venue"
            }
          ], 
          "location": {
            "city": "Nashville", 
            "zip": "37211", 
            "country": "United States", 
            "longitude": -86.709418999999997, 
            "state": "TN", 
            "street": "234 Space Park S.", 
            "latitude": 36.101084999999998
          }
        }, 
        {
          "category": "Local business", 
          "name": "Country Thunder 2013, Twin Lakes WI", 
          "id": "400279586695974", 
          "category_list": [
            {
              "id": "192119584190796", 
              "name": "Event"
            }, 
            {
              "id": "179943432047564", 
              "name": "Concert Venue"
            }
          ], 
          "location": {
            "city": "Genoa City", 
            "zip": "53128", 
            "country": "United States", 
            "longitude": -88.300617370200001, 
            "state": "WI", 
            "street": "", 
            "latitude": 42.513454112399998
          }
        }, 
        {
          "category": "Local business", 
          "name": "Country Thunder!!!!!", 
          "id": "365043373537814", 
          "category_list": [
            {
              "id": "192119584190796", 
              "name": "Event"
            }, 
            {
              "id": "133436743388217", 
              "name": "Arts & Entertainment"
            }
          ], 
          "location": {
            "city": "Stockton", 
            "zip": "95206", 
            "country": "United States", 
            "longitude": -111.34220886999999, 
            "state": "CA", 
            "street": "KATM-FM 3136 BOEING WAY", 
            "latitude": 33.076278681200002
          }
        }, 
        {
          "category": "Local business", 
          "name": "Thunderbird Country Club", 
          "id": "129234790489034", 
          "category_list": [
            {
              "id": "176059775772759", 
              "name": "Golf Course"
            }
          ], 
          "location": {
            "city": "Heber Springs", 
            "zip": "72543", 
            "country": "United States", 
            "longitude": -92.039526391699994, 
            "state": "AR", 
            "street": "2909 Case Ford Rd", 
            "latitude": 35.525087649100001
          }
        }, 
        {
          "category": "Non-profit organization", 
          "name": "Thunder Bay Country Market", 
          "id": "219513366265", 
          "category_list": [
            {
              "id": "176527262444235", 
              "name": "Farmers Market"
            }
          ], 
          "location": {
            "city": "Thunder Bay", 
            "zip": "P7C 2V7", 
            "country": "Canada", 
            "longitude": -89.245413930650997, 
            "state": "ON", 
            "street": "425 Northern Avenue", 
            "latitude": 48.396582195972996
          }
        }, 
        {
          "category": "Radio station", 
          "name": "Thunder 94.5 WTNR", 
          "id": "325706541542", 
          "category_list": [
            {
              "id": "357899304273793", 
              "name": "Country"
            }
          ], 
          "location": {
            "city": "Grand Rapids", 
            "zip": "49503", 
            "country": "United States", 
            "longitude": -85.668830999999997, 
            "state": "MI", 
            "street": "60 Monroe Center, Ste 300", 
            "latitude": 42.964599999999997
          }
        }, 
        {
          "category": "Radio station", 
          "name": "Thunder Country 104.7", 
          "id": "232137026921994", 
          "category_list": [
            {
              "id": "177246315652372", 
              "name": "Entertainer"
            }, 
            {
              "id": "163272113725616", 
              "name": "Advertising Service"
            }, 
            {
              "id": "169925186386431", 
              "name": "Entertainment Service"
            }
          ], 
          "location": {
            "city": "Newport", 
            "zip": "37821", 
            "country": "United States", 
            "longitude": -83.204207999999994, 
            "state": "TN", 
            "street": "377 Graham Street", 
            "latitude": 35.967112999999998
          }
        }, 
        {
          "category": "Media/news/publishing", 
          "name": "Thunder Country 96.3", 
          "id": "109623935517", 
          "category_list": [
            {
              "id": "2233", 
              "name": "Media/News/Publishing"
            }
          ], 
          "location": {
            "city": "Blytheville", 
            "zip": "72315", 
            "country": "United States", 
            "longitude": -89.904358999999999, 
            "state": "AR", 
            "street": "125 South 2nd Street", 
            "latitude": 35.927123000000002
          }
        }, 
        {
          "category": "Local business", 
          "name": "Country  Thunder! !!!!!!!!!!!", 
          "id": "166438446744777", 
          "category_list": [
            {
              "id": "2500", 
              "name": "Local Business"
            }
          ], 
          "location": {
            "city": "Mesa", 
            "zip": "85119", 
            "country": "United States", 
            "longitude": -111.50068159200001, 
            "state": "AZ", 
            "street": "", 
            "latitude": 33.386104535299999
          }
        }, 
        {
          "category": "Local business", 
          "name": "Country Thunder", 
          "id": "157412497625926", 
          "category_list": [
            {
              "id": "2500", 
              "name": "Local Business"
            }
          ], 
          "location": {
            "city": "Nashville", 
            "zip": "37211-3116", 
            "country": "United States", 
            "longitude": -86.709585000000004, 
            "state": "TN", 
            "street": "208 Space Park S", 
            "latitude": 36.101187000000003
          }
        }, 
        {
          "category": "Concert venue", 
          "name": "Thunder Country Concert", 
          "id": "465317010207598", 
          "category_list": [
            {
              "id": "179943432047564", 
              "name": "Concert Venue"
            }
          ], 
          "location": {
            "city": "Vernal", 
            "zip": "84078", 
            "country": "United States", 
            "longitude": -109.98918356999999, 
            "state": "UT", 
            "street": "PO BOX 307", 
            "latitude": 40.302088740000002
          }
        }, 
        {
          "category": "Local business", 
          "name": "Thunderbolt Country Kitchen", 
          "id": "202541796469392", 
          "category_list": [
            {
              "id": "273819889375819", 
              "name": "Restaurant"
            }
          ], 
          "location": {
            "city": "Uralla", 
            "zip": "", 
            "country": "Australia", 
            "longitude": 151.501662544, 
            "state": "NSW", 
            "street": "", 
            "latitude": -30.640963279600001
          }
        }, 
        {
          "category": "Local business", 
          "name": "Thunder Hills Country Club Inc", 
          "id": "115815075108704", 
          "category_list": [
            {
              "id": "191173027579272", 
              "name": "Wedding Planning"
            }, 
            {
              "id": "176059775772759", 
              "name": "Golf Course"
            }
          ], 
          "location": {
            "city": "Peosta", 
            "zip": "52068-9777", 
            "country": "United States", 
            "longitude": -90.815046277299999, 
            "state": "IA", 
            "street": "16682 Thunder Hills Dr", 
            "latitude": 42.451115636099999
          }
        }, 
        {
          "category": "Local business", 
          "name": "Thunderbird Country Buffet", 
          "id": "244115452277063", 
          "category_list": [
            {
              "id": "176007949109829", 
              "name": "Buffet Restaurant"
            }
          ], 
          "location": {
            "city": "Florence", 
            "zip": "29501", 
            "country": "United States", 
            "longitude": -79.800913839878007, 
            "state": "SC", 
            "street": "", 
            "latitude": 34.229932152025
          }
        }, 
        {
          "category": "Local business", 
          "name": "Country Thunder Records LLC", 
          "id": "161720700513654", 
          "category_list": [
            {
              "id": "189483194405517", 
              "name": "Music Production"
            }
          ], 
          "location": {
            "city": "Nashville", 
            "zip": "37212-2202", 
            "country": "United States", 
            "longitude": -86.793769999999995, 
            "state": "TN", 
            "street": "1016 17th Ave S", 
            "latitude": 36.145629999999997
          }
        }, 
        {
          "category": "Local business", 
          "name": "Country Thunder West", 
          "id": "184903531710461", 
          "category_list": [
            {
              "id": "2500", 
              "name": "Local Business"
            }
          ], 
          "location": {
            "city": "Florence", 
            "zip": "85232", 
            "country": "United States", 
            "longitude": -111.3532, 
            "state": "AZ", 
            "street": "20585 E. Price Rd.", 
            "latitude": 33.077489999999997
          }
        }, 
        {
          "category": "Radio station", 
          "name": "Thunder 104.5 WGRX", 
          "id": "87406335785", 
          "category_list": [
            {
              "id": "357899304273793", 
              "name": "Country"
            }, 
            {
              "id": "164886566892249", 
              "name": "Advertising Agency"
            }, 
            {
              "id": "169056916473899", 
              "name": "Broadcasting & Media Production"
            }
          ], 
          "location": {
            "city": "Fredericksburg", 
            "zip": "22408", 
            "country": "United States", 
            "longitude": -77.495125999999999, 
            "state": "VA", 
            "street": "4414 Lafayette Blvd, Ste. 100", 
            "latitude": 38.258889000000003
          }
        }, 
        {
          "category": "Local business", 
          "name": "Thunderbird Country Club Golf", 
          "id": "123820477673412", 
          "category_list": [
            {
              "id": "176059775772759", 
              "name": "Golf Course"
            }, 
            {
              "id": "108427109235243", 
              "name": "Home Improvement"
            }
          ], 
          "location": {
            "city": "Rancho Mirage", 
            "zip": "92270", 
            "country": "United States", 
            "longitude": -116.42542400000001, 
            "state": "CA", 
            "street": "71001 Country Club Dr", 
            "latitude": 33.757714
          }
        }, 
        {
          "category": "Local business", 
          "name": "Thunder Bay Country Club Limited", 
          "id": "129857083713761", 
          "category_list": [
            {
              "id": "176059775772759", 
              "name": "Golf Course"
            }
          ], 
          "location": {
            "city": "Thunder Bay", 
            "zip": "P7B7A4", 
            "country": "Canada", 
            "longitude": -89.272360709699996, 
            "state": "ON", 
            "street": "1055 Oliver Rd", 
            "latitude": 48.418299619800003
          }
        }, 
        {
          "category": "Local business", 
          "name": "Wthd Thunder Country", 
          "id": "134018029982756", 
          "category_list": [
            {
              "id": "187133811318958", 
              "name": "Business Services"
            }, 
            {
              "id": "169056916473899", 
              "name": "Broadcasting & Media Production"
            }
          ], 
          "location": {
            "city": "LaGrange", 
            "zip": "46761-1836", 
            "country": "United States", 
            "longitude": -85.419044999999997, 
            "state": "IN", 
            "street": "206 S High St", 
            "latitude": 41.642792
          }
        }, 
        {
          "category": "Local business", 
          "name": "Wtrs Thunder Country", 
          "id": "156904487676125", 
          "category_list": [
            {
              "id": "2500", 
              "name": "Local Business"
            }
          ], 
          "location": {
            "city": "Ocala", 
            "zip": "34474-1956", 
            "country": "United States", 
            "longitude": -82.178962999999996, 
            "state": "FL", 
            "street": "3357 SW 7th St", 
            "latitude": 29.180389000000002
          }
        }, 
        {
          "category": "Local business", 
          "name": "Thunder Country Travel", 
          "id": "171107857184", 
          "category_list": [
            {
              "id": "2500", 
              "name": "Local Business"
            }
          ], 
          "location": {
            "city": "Thunder Bay", 
            "zip": "P7B 1R9", 
            "country": "Canada", 
            "longitude": -89.228889385599999, 
            "state": "ON", 
            "street": "301 Bay St ", 
            "latitude": 48.4280349374
          }
        }, 
        {
          "category": "Local business", 
          "name": "Wcth Thunder Country", 
          "id": "112627898802014", 
          "category_list": [
            {
              "id": "2500", 
              "name": "Local Business"
            }
          ], 
          "location": {
            "city": "Tavernier", 
            "zip": "33070-2800", 
            "country": "United States", 
            "longitude": -80.507350000000002, 
            "state": "FL", 
            "street": "93351 Overseas Hwy", 
            "latitude": 25.027805000000001
          }
        }, 
        {
          "category": "Local business", 
          "name": "Keka Thunder Country", 
          "id": "150993348276219", 
          "category_list": [
            {
              "id": "2500", 
              "name": "Local Business"
            }
          ], 
          "location": {
            "city": "Eureka", 
            "zip": "95501-1574", 
            "country": "United States", 
            "longitude": -124.129929, 
            "state": "CA", 
            "street": "1101 Marsh Rd", 
            "latitude": 40.797665000000002
          }
        }, 
        {
          "category": "School", 
          "name": "Indian Springs Thunderbird Cross Country", 
          "id": "120974654721150", 
          "category_list": [
            {
              "id": "365182493518892", 
              "name": "School"
            }
          ], 
          "location": {
            "city": "Indian Springs", 
            "zip": "89018", 
            "country": "United States", 
            "longitude": -115.677818, 
            "state": "NV", 
            "street": "400 Sky Road    PO Box 1088", 
            "latitude": 36.575187999999997
          }
        }, 
        {
          "category": "Home improvement", 
          "name": "Thunder Country Custom", 
          "id": "433915770007878", 
          "category_list": [
            {
              "id": "108427109235243", 
              "name": "Home Improvement"
            }
          ], 
          "location": {
            "city": "Thunder Bay", 
            "zip": "", 
            "country": "Canada", 
            "longitude": -89.291798946224006, 
            "state": "ON", 
            "street": "510 Ferndale Cres", 
            "latitude": 48.384377988661001
          }
        }, 
        {
          "category": "Local business", 
          "name": "Wrhd-Wrht Thunder Country", 
          "id": "168223956522935", 
          "category_list": [
            {
              "id": "169056916473899", 
              "name": "Broadcasting & Media Production"
            }, 
            {
              "id": "163272113725616", 
              "name": "Advertising Service"
            }
          ], 
          "location": {
            "city": "Greenville", 
            "zip": "27834-5737", 
            "country": "United States", 
            "longitude": -77.381208000000001, 
            "state": "NC", 
            "street": "408 W Arlington Blvd", 
            "latitude": 35.593218
          }
        }, 
        {
          "category": "Local business", 
          "name": "Wrht-Wrhd Thunder Country", 
          "id": "164587293567088", 
          "category_list": [
            {
              "id": "169056916473899", 
              "name": "Broadcasting & Media Production"
            }, 
            {
              "id": "163272113725616", 
              "name": "Advertising Service"
            }
          ], 
          "location": {
            "city": "New Bern", 
            "zip": "28562-2605", 
            "country": "United States", 
            "longitude": -77.088564000000005, 
            "state": "NC", 
            "street": "1307 S Glenburnie Rd", 
            "latitude": 35.120821999999997
          }
        }, 
        {
          "category": "Sports/recreation/activities", 
          "name": "Thunder Country Trampoline", 
          "id": "422621071147548", 
          "category_list": [
            {
              "id": "186982054657561", 
              "name": "Sports & Recreation"
            }
          ], 
          "location": {
            "city": "Red Deer", 
            "zip": "T4P 1M7", 
            "country": "Canada", 
            "longitude": -113.812638041, 
            "state": "AB", 
            "street": "5 7711 50th avenue", 
            "latitude": 52.3066543049
          }
        }, 
        {
          "category": "Sports/recreation/activities", 
          "name": "Fort William Country Club Ltd", 
          "id": "199277736748964", 
          "category_list": [
            {
              "id": "176059775772759", 
              "name": "Golf Course"
            }
          ], 
          "location": {
            "city": "Thunder Bay", 
            "zip": "P7J 1C2", 
            "country": "Canada", 
            "longitude": -89.323246711156997, 
            "state": "ON", 
            "street": "1350 Mountain Road", 
            "latitude": 48.325138687463003
          }
        }, 
        {
          "category": "Arts/entertainment/nightlife", 
          "name": "Bridal Showcase 2013 - Thunder Country 95.7 FM", 
          "id": "251034715025012", 
          "category_list": [
            {
              "id": "133436743388217", 
              "name": "Arts & Entertainment"
            }
          ], 
          "location": {
            "city": "New Richmond", 
            "zip": "54017", 
            "country": "United States", 
            "longitude": -92.536925999999994, 
            "state": "WI", 
            "street": "125 East Third Street", 
            "latitude": 45.120663
          }
        }, 
        {
          "category": "Local business", 
          "name": "Lava's Thunder Canyon Golf & Country Club", 
          "id": "147947008558350", 
          "category_list": [
            {
              "id": "176059775772759", 
              "name": "Golf Course"
            }
          ], 
          "location": {
            "city": "Lava Hot Springs", 
            "zip": "83246", 
            "country": "United States", 
            "longitude": -112.025295, 
            "state": "ID", 
            "street": "9898 E Merrick Rd", 
            "latitude": 42.599387999999998
          }
        }, 
        {
          "category": "Sports/recreation/activities", 
          "name": "High Altitude Thunder Volleyball", 
          "id": "259040424253746", 
          "category_list": [
            {
              "id": "193302624020981", 
              "name": "Sports Instruction"
            }
          ], 
          "location": {
            "city": "Flagstaff", 
            "zip": "86004", 
            "country": "United States", 
            "longitude": -111.577519, 
            "state": "AZ", 
            "street": "1500 N. Country Club Drive", 
            "latitude": 35.205444999999997
          }
        }, 
        {
          "category": "Local business", 
          "name": "The Beads go on.", 
          "id": "273668962769842", 
          "category_list": [
            {
              "id": "155851681143483", 
              "name": "Jewelry Supplier"
            }
          ], 
          "location": {
            "city": "Thunder Bay", 
            "zip": "", 
            "country": "Canada", 
            "longitude": -89.2333, 
            "state": "ON", 
            "street": "Thunder Bay Country Market", 
            "latitude": 48.399999999999999
          }
        }, 
        {
          "category": "Health/beauty", 
          "name": "ORYSI  Aromatherapy & Body Care", 
          "id": "291100034324250", 
          "category_list": [
            {
              "id": "259030350843802", 
              "name": "Aromatherapy"
            }
          ], 
          "location": {
            "city": "Thunder Bay", 
            "zip": "P7C 2V7", 
            "country": "Canada", 
            "longitude": -89.232295601920995, 
            "state": "ON", 
            "street": "425 Northern Ave (TB Country Market (CLE) every Saturday or by appointment.)", 
            "latitude": 48.428819985517002
          }
        }, 
        {
          "category": "Local business", 
          "name": "Unique Alternatives", 
          "id": "137103766481961", 
          "category_list": [
            {
              "id": "187827497907070", 
              "name": "Bakery"
            }
          ], 
          "location": {
            "city": "Thunder Bay", 
            "zip": "P7B 6B3", 
            "country": "Canada", 
            "longitude": -89.244243412781003, 
            "state": "ON", 
            "street": "1st Floor Thunder Bay Country Market", 
            "latitude": 48.396666253997999
          }
        }, 
        {
          "category": "Local business", 
          "name": "Berni's Pies", 
          "id": "338102046316608", 
          "category_list": [
            {
              "id": "187827497907070", 
              "name": "Bakery"
            }
          ], 
          "location": {
            "city": "Thunder Bay", 
            "zip": "P7J 1J6", 
            "country": "Canada", 
            "longitude": -89.2333, 
            "state": "ON", 
            "street": "Thunder Bay Country Market", 
            "latitude": 48.399999999999999
          }
        }, 
        {
          "category": "Local business", 
          "name": "Z103.5", 
          "id": "122019604501847", 
          "category_list": [
            {
              "id": "2500", 
              "name": "Local Business"
            }
          ], 
          "location": {
            "city": "Marion", 
            "zip": "24354", 
            "country": "United States", 
            "longitude": -81.519935000000004, 
            "state": "VA", 
            "street": "114 W. Main Street", 
            "latitude": 36.832931000000002
          }
        }
      ]
    }
  }, 
  {
    "business_name": "El Ranchero Restaurant", 
    "business_id": "x55m0oB4eVv6pCnxR_9K4g", 
    "fb_pages": {
      "paging": {
        "next": "https://graph.facebook.com/search?type=place&access_token=229546593895315|yPLlHqq6YvDLIH4nL0kjJtIFSlU&limit=5000&offset=5000&__after_id=216168968528004"
      }, 
      "data": [
        {
          "category": "Local business", 
          "name": "El Ranchero Restaurant", 
          "id": "111332975568014", 
          "category_list": [
            {
              "id": "199377230079198", 
              "name": "Mexican Restaurant"
            }
          ], 
          "location": {
            "city": "Nacogdoches", 
            "zip": "75961-4469", 
            "country": "United States", 
            "longitude": -94.652504319195003, 
            "state": "TX", 
            "street": "123 King St", 
            "latitude": 31.610970478704001
          }
        }, 
        {
          "category": "Restaurant/cafe", 
          "name": "El Ranchero Restaurant", 
          "id": "118412424887359", 
          "category_list": [
            {
              "id": "181289228581329", 
              "name": "Fine Dining Restaurant"
            }
          ], 
          "location": {
            "city": "Vista", 
            "zip": "92084", 
            "country": "United States", 
            "longitude": -117.24580522514, 
            "state": "CA", 
            "street": "1565 N. Santa Fe Ave", 
            "latitude": 33.223237808402999
          }
        }, 
        {
          "category": "Local business", 
          "name": "El Ranchero", 
          "id": "112452828809910", 
          "category_list": [
            {
              "id": "199377230079198", 
              "name": "Mexican Restaurant"
            }
          ], 
          "location": {
            "city": "Vidalia", 
            "zip": "71373", 
            "country": "United States", 
            "longitude": -91.444520018540999, 
            "state": "LA", 
            "street": "1619 Carter St.", 
            "latitude": 31.572365188862999
          }
        }, 
        {
          "category": "Local business", 
          "name": "El Ranchero", 
          "id": "169593233093907", 
          "category_list": [
            {
              "id": "199377230079198", 
              "name": "Mexican Restaurant"
            }
          ], 
          "location": {
            "city": "Vitacura", 
            "zip": "", 
            "country": "Chile", 
            "longitude": -70.568485891218003, 
            "state": "", 
            "street": "Avenida Vitacura 6489", 
            "latitude": -33.389169831224997
          }
        }, 
        {
          "category": "Local business", 
          "name": "El Ranchero", 
          "id": "129112293804184", 
          "category_list": [
            {
              "id": "199377230079198", 
              "name": "Mexican Restaurant"
            }
          ], 
          "location": {
            "city": "Loganville", 
            "zip": "30052", 
            "country": "United States", 
            "longitude": -83.907295880725997, 
            "state": "GA", 
            "street": "", 
            "latitude": 33.839302161989004
          }
        }, 
        {
          "category": "Local business", 
          "name": "El Ranchero", 
          "id": "147866288567096", 
          "category_list": [
            {
              "id": "199377230079198", 
              "name": "Mexican Restaurant"
            }
          ], 
          "location": {
            "city": "Kingwood", 
            "zip": "77339", 
            "country": "United States", 
            "longitude": -95.241808099528001, 
            "state": "TX", 
            "street": "24551 Loop 494", 
            "latitude": 30.069602963306998
          }
        }, 
        {
          "category": "Local business", 
          "name": "El Ranchero", 
          "id": "136230203118113", 
          "category_list": [
            {
              "id": "199377230079198", 
              "name": "Mexican Restaurant"
            }
          ], 
          "location": {
            "city": "Selma", 
            "zip": "36701", 
            "country": "United States", 
            "longitude": -87.020268300058007, 
            "state": "AL", 
            "street": "113 Broad St", 
            "latitude": 32.408365815205997
          }
        }, 
        {
          "category": "Local business", 
          "name": "El Ranchero Restaurant", 
          "id": "115910581763512", 
          "category_list": [
            {
              "id": "199377230079198", 
              "name": "Mexican Restaurant"
            }
          ], 
          "location": {
            "city": "Wickenburg", 
            "zip": "85390-2269", 
            "country": "United States", 
            "longitude": -112.74270574268, 
            "state": "AZ", 
            "street": "683 W Wickenburg Way", 
            "latitude": 33.966000728824
          }
        }, 
        {
          "category": "Local business", 
          "name": "El Ranchero Restaurant", 
          "id": "113879678643656", 
          "category_list": [
            {
              "id": "199377230079198", 
              "name": "Mexican Restaurant"
            }
          ], 
          "location": {
            "city": "Oxnard", 
            "zip": "93030-5646", 
            "country": "United States", 
            "longitude": -119.17798784510001, 
            "state": "CA", 
            "street": "131 W 2nd St", 
            "latitude": 34.201730077948
          }
        }, 
        {
          "category": "Local business", 
          "name": "El Ranchero Mexican Restaurant", 
          "id": "120135914664988", 
          "category_list": [
            {
              "id": "171466272901863", 
              "name": "Late Night Restaurant"
            }, 
            {
              "id": "199377230079198", 
              "name": "Mexican Restaurant"
            }
          ], 
          "location": {
            "city": "College Park", 
            "zip": "30349-3215", 
            "country": "United States", 
            "longitude": -84.473925561488997, 
            "state": "GA", 
            "street": "", 
            "latitude": 33.618457889999
          }
        }, 
        {
          "category": "Restaurant/cafe", 
          "name": "El Ranchero Restaurant", 
          "id": "265293416829326", 
          "category_list": [
            {
              "id": "199377230079198", 
              "name": "Mexican Restaurant"
            }
          ], 
          "location": {
            "city": "Alhambra", 
            "zip": "91801", 
            "country": "United States", 
            "longitude": -118.12340201649999, 
            "state": "CA", 
            "street": "551 S. Garfield Ave,", 
            "latitude": 34.089723191258997
          }
        }, 
        {
          "category": "Local business", 
          "name": "El Ranchero", 
          "id": "165856046810231", 
          "category_list": [
            {
              "id": "199377230079198", 
              "name": "Mexican Restaurant"
            }
          ], 
          "location": {
            "city": "Bloomington", 
            "zip": "47403", 
            "country": "United States", 
            "longitude": -86.578624487308005, 
            "state": "IN", 
            "street": "2100 Liberty Dr Ste C", 
            "latitude": 39.145884470855002
          }
        }, 
        {
          "category": "Restaurant/cafe", 
          "name": "El Perico Ranchero Restaurant", 
          "id": "129580793774815", 
          "category_list": [
            {
              "id": "273819889375819", 
              "name": "Restaurant"
            }
          ], 
          "location": {
            "city": "Upland", 
            "zip": "91786", 
            "country": "United States", 
            "longitude": -117.63061143231, 
            "state": "CA", 
            "street": "1401 East Foothill Blvd", 
            "latitude": 34.107316061704999
          }
        }, 
        {
          "category": "Local business", 
          "name": "El Ranchero", 
          "id": "141739152529216", 
          "category_list": [
            {
              "id": "199377230079198", 
              "name": "Mexican Restaurant"
            }
          ], 
          "location": {
            "city": "Stockbridge", 
            "zip": "30281", 
            "country": "United States", 
            "longitude": -84.283666004224997, 
            "state": "GA", 
            "street": "", 
            "latitude": 33.541655643307003
          }
        }, 
        {
          "category": "Local business", 
          "name": "El Ranchero", 
          "id": "148949668482714", 
          "category_list": [
            {
              "id": "199377230079198", 
              "name": "Mexican Restaurant"
            }
          ], 
          "location": {
            "city": "Houston", 
            "zip": "77096", 
            "country": "United States", 
            "longitude": -95.478649619737993, 
            "state": "TX", 
            "street": "", 
            "latitude": 29.677857922744
          }
        }, 
        {
          "category": "Local business", 
          "name": "El Ranchero", 
          "id": "166840546684694", 
          "category_list": [
            {
              "id": "199377230079198", 
              "name": "Mexican Restaurant"
            }
          ], 
          "location": {
            "city": "Petoskey", 
            "zip": "49770", 
            "country": "United States", 
            "longitude": -84.972932420191995, 
            "state": "MI", 
            "street": "", 
            "latitude": 45.345093190089997
          }
        }, 
        {
          "category": "Local business", 
          "name": "El Ranchero", 
          "id": "158184650878614", 
          "category_list": [
            {
              "id": "199377230079198", 
              "name": "Mexican Restaurant"
            }
          ], 
          "location": {
            "city": "Garland", 
            "zip": "75042", 
            "country": "United States", 
            "longitude": -96.666358003165001, 
            "state": "TX", 
            "street": "  shiloh and forest ln", 
            "latitude": 32.909477130780999
          }
        }, 
        {
          "category": "Restaurant/cafe", 
          "name": "El Ranchero Mexican Restaurant", 
          "id": "115748485121954", 
          "category_list": [
            {
              "id": "212369748779358", 
              "name": "Tex-Mex Restaurant"
            }, 
            {
              "id": "199377230079198", 
              "name": "Mexican Restaurant"
            }
          ], 
          "location": {
            "city": "La Porte", 
            "zip": "77571", 
            "country": "United States", 
            "longitude": -95.021842129223998, 
            "state": "TX", 
            "street": "308 W Main St", 
            "latitude": 29.665555536481001
          }
        }, 
        {
          "category": "Local business", 
          "name": "El Ranchero", 
          "id": "120150254663022", 
          "category_list": [
            {
              "id": "199377230079198", 
              "name": "Mexican Restaurant"
            }
          ], 
          "location": {
            "city": "Spencer", 
            "zip": "47460-1823", 
            "country": "United States", 
            "longitude": -86.757302437405997, 
            "state": "IN", 
            "street": "405 E Franklin St", 
            "latitude": 39.286544439700997
          }
        }, 
        {
          "category": "Local business", 
          "name": "El Ranchero Mexican Restaurant", 
          "id": "111563315548938", 
          "category_list": [
            {
              "id": "199377230079198", 
              "name": "Mexican Restaurant"
            }
          ], 
          "location": {
            "city": "Woodstock", 
            "zip": "30189-6792", 
            "country": "United States", 
            "longitude": -84.573244696746002, 
            "state": "GA", 
            "street": "1025 Rose Creek Dr Ste 180", 
            "latitude": 34.126345357529999
          }
        }, 
        {
          "category": "Local business", 
          "name": "El Ranchero", 
          "id": "170445909670949", 
          "category_list": [
            {
              "id": "199377230079198", 
              "name": "Mexican Restaurant"
            }
          ], 
          "location": {
            "city": "Newnan", 
            "zip": "30265", 
            "country": "United States", 
            "longitude": -84.773524583799997, 
            "state": "GA", 
            "street": "", 
            "latitude": 33.388867339100003
          }
        }, 
        {
          "category": "Local business", 
          "name": "El Ranchero Mexican Restaurant", 
          "id": "117455688273490", 
          "category_list": [
            {
              "id": "199377230079198", 
              "name": "Mexican Restaurant"
            }
          ], 
          "location": {
            "city": "Hagerstown", 
            "zip": "21740-2503", 
            "country": "United States", 
            "longitude": -77.758117339693001, 
            "state": "MD", 
            "street": "1580 Wesel Blvd Ste K", 
            "latitude": 39.632806603648
          }
        }, 
        {
          "category": "Local business", 
          "name": "El Ranchero Restaurant & Bakery", 
          "id": "104546579583303", 
          "category_list": [
            {
              "id": "199377230079198", 
              "name": "Mexican Restaurant"
            }
          ], 
          "location": {
            "city": "New Chicago", 
            "zip": "46342", 
            "country": "United States", 
            "longitude": -87.274394961320994, 
            "state": "IN", 
            "street": "3559 Michigan St.", 
            "latitude": 41.552946090509003
          }
        }, 
        {
          "category": "Local business", 
          "name": "El Ranchero", 
          "id": "117742084919374", 
          "category_list": [
            {
              "id": "199377230079198", 
              "name": "Mexican Restaurant"
            }
          ], 
          "location": {
            "city": "Vista", 
            "zip": "92084-6008", 
            "country": "United States", 
            "longitude": -117.24195049620999, 
            "state": "CA", 
            "street": "226 Main St", 
            "latitude": 33.202577798439997
          }
        }, 
        {
          "category": "Restaurant/cafe", 
          "name": "El ranchero", 
          "id": "222580967856606", 
          "category_list": [
            {
              "id": "273819889375819", 
              "name": "Restaurant"
            }
          ], 
          "location": {
            "city": "Winchester", 
            "zip": "22602", 
            "country": "United States", 
            "longitude": -78.169978029600003, 
            "state": "VA", 
            "street": "2197 s pleasant valley rd ", 
            "latitude": 39.160728222700001
          }
        }, 
        {
          "category": "Local business", 
          "name": "El Ranchero Mexican Restaurant", 
          "id": "109607349077277", 
          "category_list": [
            {
              "id": "199377230079198", 
              "name": "Mexican Restaurant"
            }
          ], 
          "location": {
            "city": "Peachtree City", 
            "zip": "30269-3516", 
            "country": "United States", 
            "longitude": -84.590255402552003, 
            "state": "GA", 
            "street": "380 Commerce Dr", 
            "latitude": 33.398227110543999
          }
        }, 
        {
          "category": "Local business", 
          "name": "El Ranchero", 
          "id": "148554615182996", 
          "category_list": [
            {
              "id": "199377230079198", 
              "name": "Mexican Restaurant"
            }
          ], 
          "location": {
            "city": "Hampton", 
            "zip": "30228", 
            "country": "United States", 
            "longitude": -84.326606682100007, 
            "state": "GA", 
            "street": "11175 Tara Blvd", 
            "latitude": 33.449083600203998
          }
        }, 
        {
          "category": "Local business", 
          "name": "El Ranchero Mexican", 
          "id": "104977749545034", 
          "category_list": [
            {
              "id": "199377230079198", 
              "name": "Mexican Restaurant"
            }
          ], 
          "location": {
            "city": "Claremont", 
            "zip": "91711-3303", 
            "country": "United States", 
            "longitude": -117.73399538367001, 
            "state": "CA", 
            "street": "984 West Foothill Boulevard", 
            "latitude": 34.106795435344999
          }
        }, 
        {
          "category": "Local business", 
          "name": "El Ranchero", 
          "id": "111754668862089", 
          "category_list": [
            {
              "id": "199377230079198", 
              "name": "Mexican Restaurant"
            }
          ], 
          "location": {
            "city": "Nashville", 
            "zip": "37211-2585", 
            "country": "United States", 
            "longitude": -86.726884127616998, 
            "state": "TN", 
            "street": "63 Thompson Ln Ste 100", 
            "latitude": 36.109871366763997
          }
        }, 
        {
          "category": "Local business", 
          "name": "El Ranchero", 
          "id": "212269065497819", 
          "category_list": [
            {
              "id": "199377230079198", 
              "name": "Mexican Restaurant"
            }
          ], 
          "location": {
            "city": "Franklin", 
            "zip": "23851", 
            "country": "United States", 
            "longitude": -76.956149363589006, 
            "state": "VA", 
            "street": "164 Council Dr Franklin va", 
            "latitude": 36.668652583178002
          }
        }, 
        {
          "category": "Local business", 
          "name": "El Ranchero", 
          "id": "113955835301821", 
          "category_list": [
            {
              "id": "199377230079198", 
              "name": "Mexican Restaurant"
            }
          ], 
          "location": {
            "city": "Frederick", 
            "zip": "21704-5118", 
            "country": "United States", 
            "longitude": -77.409999751008996, 
            "state": "MD", 
            "street": "5732 Buckeystown Pike", 
            "latitude": 39.392873956385998
          }
        }, 
        {
          "category": "Local business", 
          "name": "El Ranchero", 
          "id": "127312430663902", 
          "category_list": [
            {
              "id": "199377230079198", 
              "name": "Mexican Restaurant"
            }
          ], 
          "location": {
            "city": "Loganville", 
            "zip": "30052", 
            "country": "United States", 
            "longitude": -83.934006930699994, 
            "state": "GA", 
            "street": "", 
            "latitude": 33.854474752500003
          }
        }, 
        {
          "category": "Local business", 
          "name": "El Ranchero", 
          "id": "158934104139546", 
          "category_list": [
            {
              "id": "199377230079198", 
              "name": "Mexican Restaurant"
            }
          ], 
          "location": {
            "city": "Longview", 
            "zip": "98632-1536", 
            "country": "United States", 
            "longitude": -122.94383951, 
            "state": "WA", 
            "street": "516 Oregon Way", 
            "latitude": 46.123214039600001
          }
        }, 
        {
          "category": "Restaurant/cafe", 
          "name": "El Ranchero", 
          "id": "104393492934157", 
          "category_list": [
            {
              "id": "273819889375819", 
              "name": "Restaurant"
            }
          ], 
          "location": {
            "city": "Brevard", 
            "zip": "28712", 
            "country": "United States", 
            "longitude": -82.734590999999995, 
            "state": "NC", 
            "street": "76 N. Caldwell St.", 
            "latitude": 35.235098000000001
          }
        }, 
        {
          "category": "Local business", 
          "name": "El Ranchero", 
          "id": "111377872229359", 
          "category_list": [
            {
              "id": "199377230079198", 
              "name": "Mexican Restaurant"
            }
          ], 
          "location": {
            "city": "Phoenix", 
            "zip": "85006-3053", 
            "country": "United States", 
            "longitude": -112.04104713586, 
            "state": "AZ", 
            "street": "1900 E Mcdowell Rd", 
            "latitude": 33.465983240781
          }
        }, 
        {
          "category": "Local business", 
          "name": "El Ranchero", 
          "id": "625155594171326", 
          "category_list": [
            {
              "id": "199377230079198", 
              "name": "Mexican Restaurant"
            }
          ], 
          "location": {
            "city": "Atlanta", 
            "zip": "30349", 
            "country": "United States", 
            "longitude": -84.470766987900006, 
            "state": "GA", 
            "street": "Old NAtional", 
            "latitude": 33.609770601800001
          }
        }, 
        {
          "category": "Local business", 
          "name": "El Ranchero Restaurant", 
          "id": "226454500728128", 
          "category_list": [
            {
              "id": "199377230079198", 
              "name": "Mexican Restaurant"
            }
          ], 
          "location": {
            "latitude": 37.071594089000001, 
            "street": "", 
            "zip": "", 
            "longitude": -80.704812550699998
          }
        }, 
        {
          "category": "Restaurant/cafe", 
          "name": "El Ranchero Mexican Restaurant", 
          "id": "121184751228648", 
          "category_list": [
            {
              "id": "199377230079198", 
              "name": "Mexican Restaurant"
            }
          ], 
          "location": {
            "city": "Danbury", 
            "zip": "06810-6639", 
            "country": "United States", 
            "longitude": -73.453585681231004, 
            "state": "CT", 
            "street": "20 White St", 
            "latitude": 41.396444036873
          }
        }, 
        {
          "category": "Local business", 
          "name": "El Ranchero", 
          "id": "306167966079522", 
          "category_list": [
            {
              "id": "199377230079198", 
              "name": "Mexican Restaurant"
            }
          ], 
          "location": {
            "city": "Scottsdale", 
            "zip": "85251", 
            "country": "United States", 
            "longitude": -111.93496132999999, 
            "state": "AZ", 
            "street": "", 
            "latitude": 33.482694008099998
          }
        }, 
        {
          "category": "Local business", 
          "name": "El Ranchero Bar", 
          "id": "126702307381507", 
          "category_list": [
            {
              "id": "199377230079198", 
              "name": "Mexican Restaurant"
            }
          ], 
          "location": {
            "city": "Tijuana", 
            "zip": "", 
            "country": "Mexico", 
            "longitude": -117.03802051866001, 
            "state": "", 
            "street": "plaza Santa Cecilia", 
            "latitude": 32.535817835419998
          }
        }, 
        {
          "category": "Restaurant/cafe", 
          "name": "El Ranchero Mexican Restaurant", 
          "id": "102522523208045", 
          "category_list": [
            {
              "id": "199377230079198", 
              "name": "Mexican Restaurant"
            }
          ], 
          "location": {
            "city": "Kennett Square", 
            "zip": "19348", 
            "country": "United States", 
            "longitude": -75.714899171319004, 
            "state": "PA", 
            "street": "305 W State St", 
            "latitude": 39.846437749336999
          }
        }, 
        {
          "category": "Local business", 
          "name": "El Ranchero Mexican Restaurant", 
          "id": "166793553341866", 
          "category_list": [
            {
              "id": "199377230079198", 
              "name": "Mexican Restaurant"
            }
          ], 
          "location": {
            "city": "Bloomington", 
            "zip": "47404", 
            "country": "United States", 
            "longitude": -86.583933015558003, 
            "state": "IN", 
            "street": "3943 W Carmola Dr", 
            "latitude": 39.209767932885001
          }
        }, 
        {
          "category": "Local business", 
          "name": "El Ranchero", 
          "id": "160959900599127", 
          "category_list": [
            {
              "id": "199377230079198", 
              "name": "Mexican Restaurant"
            }
          ], 
          "location": {
            "city": "Loganville", 
            "zip": "30052", 
            "country": "United States", 
            "longitude": -83.934065035900005, 
            "state": "GA", 
            "street": "", 
            "latitude": 33.854324912300001
          }
        }, 
        {
          "category": "Local business", 
          "name": "El Lago Ranchero", 
          "id": "173153016063341", 
          "category_list": [
            {
              "id": "199377230079198", 
              "name": "Mexican Restaurant"
            }
          ], 
          "location": {
            "city": "Bradenton", 
            "zip": "34202", 
            "country": "United States", 
            "longitude": -82.435427805263004, 
            "state": "FL", 
            "street": "8126 Lakewood Main St", 
            "latitude": 27.39473819022
          }
        }, 
        {
          "category": "Local business", 
          "name": "El Ranchero", 
          "id": "194008743950858", 
          "category_list": [
            {
              "id": "199377230079198", 
              "name": "Mexican Restaurant"
            }
          ], 
          "location": {
            "city": "Marietta", 
            "zip": "30060", 
            "country": "United States", 
            "longitude": -84.514390759053001, 
            "state": "GA", 
            "street": "", 
            "latitude": 33.938471258150997
          }
        }, 
        {
          "category": "Local business", 
          "name": "El Ranchero Mexican Restaurant", 
          "id": "121060421240409", 
          "category_list": [
            {
              "id": "199377230079198", 
              "name": "Mexican Restaurant"
            }
          ], 
          "location": {
            "city": "Iowa City", 
            "zip": "52246", 
            "country": "United States", 
            "longitude": -91.538403923687994, 
            "state": "IA", 
            "street": "21 Sturgis Corner Dr", 
            "latitude": 41.647535801053003
          }
        }, 
        {
          "category": "Local business", 
          "name": "El Ranchero", 
          "id": "111699588865578", 
          "category_list": [
            {
              "id": "199377230079198", 
              "name": "Mexican Restaurant"
            }
          ], 
          "location": {
            "city": "Diboll", 
            "zip": "75941-1310", 
            "country": "United States", 
            "longitude": -94.775016734700003, 
            "state": "TX", 
            "street": "1443 N Temple Dr", 
            "latitude": 31.2130420672
          }
        }, 
        {
          "category": "Restaurant/cafe", 
          "name": "El Ranchero Mexican Restaurant", 
          "id": "552247258147926", 
          "category_list": [
            {
              "id": "199377230079198", 
              "name": "Mexican Restaurant"
            }, 
            {
              "id": "233804719972590", 
              "name": "Bar & Grill"
            }
          ], 
          "location": {
            "city": "Milford", 
            "zip": "45150", 
            "country": "United States", 
            "longitude": -84.238824844700005, 
            "state": "OH", 
            "street": "1067 Ohio State Route 28", 
            "latitude": 39.1937677751
          }
        }, 
        {
          "category": "Restaurant/cafe", 
          "name": "El Ranchero Bar & Grill", 
          "id": "490052244352288", 
          "category_list": [
            {
              "id": "199377230079198", 
              "name": "Mexican Restaurant"
            }
          ], 
          "location": {
            "city": "Arlington", 
            "zip": "22203", 
            "country": "United States", 
            "longitude": -77.117477270490994, 
            "state": "VA", 
            "street": "4617 WILSON BOULEVARD", 
            "latitude": 38.879012309478
          }
        }, 
        {
          "category": "Local business", 
          "name": "El Ranchero", 
          "id": "191324274212385", 
          "category_list": [
            {
              "id": "199377230079198", 
              "name": "Mexican Restaurant"
            }
          ], 
          "location": {
            "city": "Yakima", 
            "zip": "98902", 
            "country": "United States", 
            "longitude": -120.503855691, 
            "state": "WA", 
            "street": "", 
            "latitude": 46.584966417499999
          }
        }, 
        {
          "category": "Local business", 
          "name": "El Ranchero", 
          "id": "107691195964178", 
          "category_list": [
            {
              "id": "199377230079198", 
              "name": "Mexican Restaurant"
            }
          ], 
          "location": {
            "city": "Willis", 
            "zip": "77378", 
            "country": "United States", 
            "longitude": -95.475018008800006, 
            "state": "TX", 
            "street": "", 
            "latitude": 30.421522598700001
          }
        }, 
        {
          "category": "Local business", 
          "name": "Restaurant El Ranchero Y Sus M", 
          "id": "116306148391925", 
          "category_list": [
            {
              "id": "199377230079198", 
              "name": "Mexican Restaurant"
            }
          ], 
          "location": {
            "city": "Beltsville", 
            "zip": "20705-2149", 
            "country": "United States", 
            "longitude": -76.906826869699998, 
            "state": "MD", 
            "street": "11111 Baltimore Ave", 
            "latitude": 39.035216636199998
          }
        }, 
        {
          "category": "Local business", 
          "name": "El Ranchero", 
          "id": "142774065788540", 
          "category_list": [
            {
              "id": "199377230079198", 
              "name": "Mexican Restaurant"
            }
          ], 
          "location": {
            "city": "Fort Worth", 
            "zip": "76135", 
            "country": "United States", 
            "longitude": -97.413919415349994, 
            "state": "TX", 
            "street": "6038 Lake Worth Blvd.", 
            "latitude": 32.805954772139998
          }
        }, 
        {
          "category": "Local business", 
          "name": "El Ranchero Mexican", 
          "id": "117045764980912", 
          "category_list": [
            {
              "id": "199377230079198", 
              "name": "Mexican Restaurant"
            }
          ], 
          "location": {
            "city": "Jonesboro", 
            "zip": "30236-2205", 
            "country": "United States", 
            "longitude": -84.366600687616994, 
            "state": "GA", 
            "street": "7919 Tara Blvd", 
            "latitude": 33.538378856869002
          }
        }, 
        {
          "category": "Local business", 
          "name": "El Ranchero", 
          "id": "207608795918188", 
          "category_list": [
            {
              "id": "199377230079198", 
              "name": "Mexican Restaurant"
            }
          ], 
          "location": {
            "city": "Parkersburg", 
            "zip": "26104", 
            "country": "United States", 
            "longitude": -81.549567999999994, 
            "state": "WV", 
            "street": "300 Park Center Drive", 
            "latitude": 39.286253000000002
          }
        }, 
        {
          "category": "Local business", 
          "name": "Verdes El Ranchero", 
          "id": "121069191240670", 
          "category_list": [
            {
              "id": "199377230079198", 
              "name": "Mexican Restaurant"
            }
          ], 
          "location": {
            "city": "San Diego", 
            "zip": "92037-5029", 
            "country": "United States", 
            "longitude": -117.27831262289, 
            "state": "CA", 
            "street": "7404 La Jolla Blvd", 
            "latitude": 32.837668532694998
          }
        }, 
        {
          "category": "Local business", 
          "name": "El Ranchero", 
          "id": "169721609734961", 
          "category_list": [
            {
              "id": "199377230079198", 
              "name": "Mexican Restaurant"
            }
          ], 
          "location": {
            "city": "Rancho Cucamonga", 
            "zip": "91730", 
            "country": "United States", 
            "longitude": -117.57619495900001, 
            "state": "CA", 
            "street": "", 
            "latitude": 34.085506522700001
          }
        }, 
        {
          "category": "Food/grocery", 
          "name": "El Ranchero Tepic", 
          "id": "418625404933171", 
          "category_list": [
            {
              "id": "199377230079198", 
              "name": "Mexican Restaurant"
            }
          ], 
          "location": {
            "city": "Tepic", 
            "zip": "63190", 
            "country": "Mexico", 
            "longitude": -104.88666257976, 
            "state": "", 
            "street": "Blvd. Tepic Xalisco 423-B", 
            "latitude": 21.469512167525998
          }
        }, 
        {
          "category": "Local business", 
          "name": "El Ranchero Mexican Restaurant Grille & Cantina Inc", 
          "id": "104912329552786", 
          "category_list": [
            {
              "id": "199377230079198", 
              "name": "Mexican Restaurant"
            }
          ], 
          "location": {
            "city": "Vicksburg", 
            "zip": "39180-7606", 
            "country": "United States", 
            "longitude": -90.918218865895, 
            "state": "MS", 
            "street": "4004 Highway 61 S", 
            "latitude": 32.265035131624998
          }
        }, 
        {
          "category": "Restaurant/cafe", 
          "name": "El Ranchero Authentic Mexican Restaurant", 
          "id": "352883661473520", 
          "category_list": [
            {
              "id": "273819889375819", 
              "name": "Restaurant"
            }
          ], 
          "location": {
            "city": "Spencer", 
            "zip": "47460", 
            "country": "United States", 
            "longitude": -86.757308005200002, 
            "state": "IN", 
            "street": "405 East Franklin st", 
            "latitude": 39.286518985999997
          }
        }, 
        {
          "category": "Local business", 
          "name": "El Ranchero Restaurant", 
          "id": "105005106209691", 
          "category_list": [
            {
              "id": "199377230079198", 
              "name": "Mexican Restaurant"
            }
          ], 
          "location": {
            "city": "Carthage", 
            "zip": "75633-2404", 
            "country": "United States", 
            "longitude": -94.350780999999998, 
            "state": "TX", 
            "street": "212 N Adams St", 
            "latitude": 32.155822999999998
          }
        }, 
        {
          "category": "Local business", 
          "name": "El Ranchero", 
          "id": "283863724968375", 
          "category_list": [
            {
              "id": "199377230079198", 
              "name": "Mexican Restaurant"
            }
          ], 
          "location": {
            "city": "Louisville", 
            "zip": "", 
            "country": "United States", 
            "longitude": -85.641759051400001, 
            "state": "KY", 
            "street": "", 
            "latitude": 38.210269085599997
          }
        }, 
        {
          "category": "Local business", 
          "name": "El Pollo Ranchero", 
          "id": "101894993220670", 
          "category_list": [
            {
              "id": "199377230079198", 
              "name": "Mexican Restaurant"
            }
          ], 
          "location": {
            "city": "Santa Ana", 
            "zip": "92703", 
            "country": "United States", 
            "longitude": -117.8834372077, 
            "state": "CA", 
            "street": "", 
            "latitude": 33.745647973407998
          }
        }, 
        {
          "category": "Local business", 
          "name": "El Ranchero Restaurant", 
          "id": "114047018626025", 
          "category_list": [
            {
              "id": "162813670434541", 
              "name": "Market"
            }, 
            {
              "id": "199377230079198", 
              "name": "Mexican Restaurant"
            }
          ], 
          "location": {
            "city": "Pico Rivera", 
            "zip": "90660-2044", 
            "country": "United States", 
            "longitude": -118.082037, 
            "state": "CA", 
            "street": "4611 Rosemead Blvd", 
            "latitude": 34.007814000000003
          }
        }, 
        {
          "category": "Local business", 
          "name": "El Ranchero Restaurant", 
          "id": "117780641581796", 
          "category_list": [
            {
              "id": "199377230079198", 
              "name": "Mexican Restaurant"
            }
          ], 
          "location": {
            "city": "Sacramento", 
            "zip": "95824-3446", 
            "country": "United States", 
            "longitude": -121.467827, 
            "state": "CA", 
            "street": "6227 Franklin Blvd", 
            "latitude": 38.512932999999997
          }
        }, 
        {
          "category": "Local business", 
          "name": "El Ranchero Taco Shop", 
          "id": "114418875249579", 
          "category_list": [
            {
              "id": "199377230079198", 
              "name": "Mexican Restaurant"
            }
          ], 
          "location": {
            "city": "Chula Vista", 
            "zip": "91911-5827", 
            "country": "United States", 
            "longitude": -117.06124930081999, 
            "state": "CA", 
            "street": "3344 Main St", 
            "latitude": 32.594974677623
          }
        }, 
        {
          "category": "Local business", 
          "name": "El Pollo Ranchero Inc", 
          "id": "113950315302333", 
          "category_list": [
            {
              "id": "199377230079198", 
              "name": "Mexican Restaurant"
            }, 
            {
              "id": "137420212991446", 
              "name": "Peruvian Restaurant"
            }
          ], 
          "location": {
            "city": "Alexandria", 
            "zip": "22306-6408", 
            "country": "United States", 
            "longitude": -77.079809162930005, 
            "state": "VA", 
            "street": "6324 Richmond Hwy", 
            "latitude": 38.779748420818002
          }
        }, 
        {
          "category": "Local business", 
          "name": "El Ranchero King Buffet", 
          "id": "123838581024781", 
          "category_list": [
            {
              "id": "176007949109829", 
              "name": "Buffet Restaurant"
            }, 
            {
              "id": "137420212991446", 
              "name": "Peruvian Restaurant"
            }, 
            {
              "id": "199377230079198", 
              "name": "Mexican Restaurant"
            }
          ], 
          "location": {
            "city": "Houston", 
            "zip": "77076", 
            "country": "United States", 
            "longitude": -95.3956293257, 
            "state": "TX", 
            "street": "", 
            "latitude": 29.851549404
          }
        }, 
        {
          "category": "Restaurant/cafe", 
          "name": "El Ranchero ITESO", 
          "id": "537966636252208", 
          "category_list": [
            {
              "id": "192803624072087", 
              "name": "Fast Food Restaurant"
            }
          ], 
          "location": {
            "city": "Tlaquepaque", 
            "zip": "44600", 
            "country": "Mexico", 
            "longitude": -103.38467, 
            "state": "", 
            "street": "Periferico Sur # 8180, (Dentro de Codigo 81), frente al ITESO", 
            "latitude": 20.589749999999999
          }
        }, 
        {
          "category": "Restaurant/cafe", 
          "name": "El Ranchero Authentic Mexican Dublin, Va", 
          "id": "171646442877834", 
          "category_list": [
            {
              "id": "199377230079198", 
              "name": "Mexican Restaurant"
            }
          ], 
          "location": {
            "city": "Dublin", 
            "zip": "24084", 
            "country": "United States", 
            "longitude": -80.693761162689, 
            "state": "VA", 
            "street": "329 Alexander RD", 
            "latitude": 37.082464221403001
          }
        }, 
        {
          "category": "Local business", 
          "name": "El Ranchero Mexican Restaurant", 
          "id": "116074225083129", 
          "category_list": [
            {
              "id": "199377230079198", 
              "name": "Mexican Restaurant"
            }
          ], 
          "location": {
            "city": "West Point", 
            "zip": "23181-9572", 
            "country": "United States", 
            "longitude": -76.812412112499999, 
            "state": "VA", 
            "street": "3182 King William Ave", 
            "latitude": 37.5540325817
          }
        }, 
        {
          "category": "Local business", 
          "name": "Tacos El Ranchero", 
          "id": "181780088527431", 
          "category_list": [
            {
              "id": "192803624072087", 
              "name": "Fast Food Restaurant"
            }, 
            {
              "id": "199377230079198", 
              "name": "Mexican Restaurant"
            }
          ], 
          "location": {
            "city": "Zapopan", 
            "zip": "", 
            "country": "Mexico", 
            "longitude": -103.43564585595, 
            "state": "", 
            "street": "Calle Independencia Col. Santa Mar\u00eda del Pueblito", 
            "latitude": 20.681087217464999
          }
        }, 
        {
          "category": "Restaurant/cafe", 
          "name": "El Ranchero Authentic Mexican Grill", 
          "id": "111680382201744", 
          "category_list": [
            {
              "id": "199377230079198", 
              "name": "Mexican Restaurant"
            }
          ], 
          "location": {
            "city": "Fontana", 
            "zip": "92336-0232", 
            "country": "United States", 
            "longitude": -117.47586901141, 
            "state": "CA", 
            "street": "16155 Sierra Lakes Pkwy #100", 
            "latitude": 34.150828576447999
          }
        }, 
        {
          "category": "Local business", 
          "name": "El Ranchero", 
          "id": "112131295554223", 
          "category_list": [
            {
              "id": "199377230079198", 
              "name": "Mexican Restaurant"
            }
          ], 
          "location": {
            "city": "Piedras Negras", 
            "zip": "", 
            "country": "Mexico", 
            "longitude": -100.528495334, 
            "state": "", 
            "street": "", 
            "latitude": 28.697352076200001
          }
        }, 
        {
          "category": "Local business", 
          "name": "El Ranchero Cafe", 
          "id": "145332585501040", 
          "category_list": [
            {
              "id": "199377230079198", 
              "name": "Mexican Restaurant"
            }
          ], 
          "location": {
            "city": "Grants", 
            "zip": "", 
            "country": "United States", 
            "longitude": -107.889743197, 
            "state": "NM", 
            "street": "", 
            "latitude": 35.168066027800002
          }
        }, 
        {
          "category": "Local business", 
          "name": "El Ranchero Dulceria", 
          "id": "484803921530034", 
          "category_list": [
            {
              "id": "199377230079198", 
              "name": "Mexican Restaurant"
            }
          ], 
          "location": {
            "city": "San Diego", 
            "zip": "92154", 
            "country": "United States", 
            "longitude": -117.03954060881, 
            "state": "CA", 
            "street": "", 
            "latitude": 32.584733745446997
          }
        }, 
        {
          "category": "Local business", 
          "name": "Tacos El Ranchero", 
          "id": "115176978505690", 
          "category_list": [
            {
              "id": "199377230079198", 
              "name": "Mexican Restaurant"
            }
          ], 
          "location": {
            "city": "Wyoming", 
            "zip": "49509-1470", 
            "country": "United States", 
            "longitude": -85.697879183300003, 
            "state": "MI", 
            "street": "1240 Burton St SW", 
            "latitude": 42.927964794499999
          }
        }, 
        {
          "category": "Restaurant/cafe", 
          "name": "El Ranchero", 
          "id": "167406169978768", 
          "category_list": [
            {
              "id": "199377230079198", 
              "name": "Mexican Restaurant"
            }
          ], 
          "location": {
            "city": "Zapotlanejo", 
            "zip": "45430", 
            "country": "Mexico", 
            "longitude": -103.25873166667, 
            "state": "", 
            "street": "CARRETERA  ZAPOTLANEJO - TOTOTLAN KM. 13 NUMERO. 300", 
            "latitude": 20.467110000000002
          }
        }, 
        {
          "category": "Local business", 
          "name": "El Ranchero", 
          "id": "110097985721827", 
          "category_list": [
            {
              "id": "199377230079198", 
              "name": "Mexican Restaurant"
            }
          ], 
          "location": {
            "city": "Wichita", 
            "zip": "67214-1032", 
            "country": "United States", 
            "longitude": -97.337901000000002, 
            "state": "KS", 
            "street": "124 E 21st St N", 
            "latitude": 37.722732000000001
          }
        }, 
        {
          "category": "Local business", 
          "name": "El Ranchero", 
          "id": "142132862489234", 
          "category_list": [
            {
              "id": "199377230079198", 
              "name": "Mexican Restaurant"
            }
          ], 
          "location": {
            "city": "Humble", 
            "zip": "77346", 
            "country": "United States", 
            "longitude": -95.203192212399998, 
            "state": "TX", 
            "street": "", 
            "latitude": 29.998789949500001
          }
        }, 
        {
          "category": "Local business", 
          "name": "El  Ranchero Grande", 
          "id": "220695737960554", 
          "category_list": [
            {
              "id": "199377230079198", 
              "name": "Mexican Restaurant"
            }
          ], 
          "location": {
            "city": "Marietta", 
            "zip": "", 
            "country": "United States", 
            "longitude": -84.559144027499997, 
            "state": "GA", 
            "street": "", 
            "latitude": 33.9804875552
          }
        }, 
        {
          "category": "Local business", 
          "name": "El Ranchero Mexican Restaurant", 
          "id": "120760931272600", 
          "category_list": [
            {
              "id": "199377230079198", 
              "name": "Mexican Restaurant"
            }
          ], 
          "location": {
            "city": "Fayetteville", 
            "zip": "30214-7309", 
            "country": "United States", 
            "longitude": -84.447936779200006, 
            "state": "GA", 
            "street": "214 Banks Xing", 
            "latitude": 33.470173002999999
          }
        }, 
        {
          "category": "Restaurant/cafe", 
          "name": "El Ranchero Authentic Mexican", 
          "id": "137929082916902", 
          "category_list": [
            {
              "id": "199377230079198", 
              "name": "Mexican Restaurant"
            }
          ], 
          "location": {
            "city": "Pearisburg", 
            "zip": "24134", 
            "country": "United States", 
            "longitude": -80.708195332599999, 
            "state": "VA", 
            "street": "165 Kinter Way", 
            "latitude": 37.327222779800003
          }
        }, 
        {
          "category": "Food/grocery", 
          "name": "El Pollo Ranchero Nuevo Vallarta", 
          "id": "1426917034200416", 
          "category_list": [
            {
              "id": "132069576863996", 
              "name": "Take Out Restaurant"
            }
          ], 
          "location": {
            "city": "Nayarit", 
            "zip": "63738", 
            "country": "Mexico", 
            "longitude": -105.26956112800001, 
            "state": "", 
            "street": "VALLE TLAXCALA  153-B", 
            "latitude": 20.723873830799999
          }
        }, 
        {
          "category": "Local business", 
          "name": "El Ranchero", 
          "id": "191468554209221", 
          "category_list": [
            {
              "id": "199377230079198", 
              "name": "Mexican Restaurant"
            }
          ], 
          "location": {
            "city": "Bend", 
            "zip": "97701", 
            "country": "United States", 
            "longitude": -121.303670049, 
            "state": "OR", 
            "street": "", 
            "latitude": 44.084101376299998
          }
        }, 
        {
          "category": "Local business", 
          "name": "El Ranchero Restaurant & Canti", 
          "id": "113331178700288", 
          "category_list": [
            {
              "id": "199377230079198", 
              "name": "Mexican Restaurant"
            }
          ], 
          "location": {
            "city": "Independence", 
            "zip": "54747", 
            "country": "United States", 
            "longitude": -91.422055999999998, 
            "state": "WI", 
            "street": "23798 Washington St", 
            "latitude": 44.356737000000003
          }
        }, 
        {
          "category": "Local business", 
          "name": "El Ranchero Restaurant (Authentic Mexican Food)", 
          "id": "516169305066341", 
          "category_list": [
            {
              "id": "199377230079198", 
              "name": "Mexican Restaurant"
            }
          ], 
          "location": {
            "city": "Ballenger Creek", 
            "zip": "", 
            "country": "United States", 
            "longitude": -77.409979716699993, 
            "state": "MD", 
            "street": "", 
            "latitude": 39.392978749999997
          }
        }, 
        {
          "category": "Local business", 
          "name": "El Ranchero #2", 
          "id": "319312831538999", 
          "category_list": [
            {
              "id": "2500", 
              "name": "Local Business"
            }
          ], 
          "location": {
            "city": "Lumberton", 
            "zip": "28360", 
            "country": "United States", 
            "longitude": -79.018485999999996, 
            "state": "NC", 
            "street": "3123 N. ROBERTS AVE. LUMBERTON , NC 28360", 
            "latitude": 34.650162000000002
          }
        }, 
        {
          "category": "Local business", 
          "name": "El Ranchero Mexican Restaurant", 
          "id": "106330569436224", 
          "category_list": [
            {
              "id": "199377230079198", 
              "name": "Mexican Restaurant"
            }
          ], 
          "location": {
            "city": "Bloomington", 
            "zip": "47403", 
            "country": "United States", 
            "longitude": -86.578666266599996, 
            "state": "IN", 
            "street": "", 
            "latitude": 39.145915522099997
          }
        }, 
        {
          "category": "Restaurant/cafe", 
          "name": "El Ranchero Mexican Restaurant", 
          "id": "191359174402481", 
          "category_list": [
            {
              "id": "199377230079198", 
              "name": "Mexican Restaurant"
            }
          ], 
          "location": {
            "city": "Blue Springs", 
            "zip": "64014", 
            "country": "United States", 
            "longitude": -94.244347000000005, 
            "state": "MO", 
            "street": "1605 S State Route &", 
            "latitude": 39.008614000000001
          }
        }, 
        {
          "category": "Restaurant/cafe", 
          "name": "El Ranchero", 
          "id": "498546400160792", 
          "category_list": [
            {
              "id": "199377230079198", 
              "name": "Mexican Restaurant"
            }
          ], 
          "location": {
            "city": "Warden", 
            "zip": "98857", 
            "country": "United States", 
            "longitude": -119.04174, 
            "state": "WA", 
            "street": "113 W 1St ", 
            "latitude": 46.969456000000001
          }
        }, 
        {
          "category": "Local business", 
          "name": "El Ranchero Tacos Y Mariscos", 
          "id": "237785136243656", 
          "category_list": [
            {
              "id": "199377230079198", 
              "name": "Mexican Restaurant"
            }
          ], 
          "location": {
            "city": "Tulsa", 
            "zip": "74146", 
            "country": "United States", 
            "longitude": -95.8562403886, 
            "state": "OK", 
            "street": "", 
            "latitude": 36.104227354199999
          }
        }, 
        {
          "category": "Local business", 
          "name": "El Ranchero (Spruce Pine, North Carolina)", 
          "id": "183501808346946", 
          "category_list": [
            {
              "id": "199377230079198", 
              "name": "Mexican Restaurant"
            }, 
            {
              "id": "188662441155211", 
              "name": "Community & Government"
            }
          ], 
          "location": {
            "city": "Spruce Pine", 
            "zip": "28777", 
            "country": "United States", 
            "longitude": -82.069405093938002, 
            "state": "NC", 
            "street": "203 Locust Ave", 
            "latitude": 35.915728667854999
          }
        }, 
        {
          "category": "Local business", 
          "name": "El Ranchero", 
          "id": "143515149028573", 
          "category_list": [
            {
              "id": "199377230079198", 
              "name": "Mexican Restaurant"
            }
          ], 
          "location": {
            "city": "Nashville", 
            "zip": "37211-2610", 
            "country": "United States", 
            "longitude": -86.718636000000004, 
            "state": "TN", 
            "street": "421 E Thompson Ln", 
            "latitude": 36.120525000000001
          }
        }, 
        {
          "category": "Local business", 
          "name": "El Ranchero", 
          "id": "434133506690723", 
          "category_list": [
            {
              "id": "165679780146824", 
              "name": "Food & Restaurant"
            }
          ], 
          "location": {
            "city": "Brookings", 
            "zip": "", 
            "country": "United States", 
            "longitude": -96.798421433300007, 
            "state": "SD", 
            "street": "", 
            "latitude": 44.310176200299999
          }
        }, 
        {
          "category": "Local business", 
          "name": "El Ranchero", 
          "id": "106593056072607", 
          "category_list": [
            {
              "id": "199377230079198", 
              "name": "Mexican Restaurant"
            }
          ], 
          "location": {
            "city": "Rural Retreat", 
            "zip": "24368-2584", 
            "country": "United States", 
            "longitude": -81.274669000000003, 
            "state": "VA", 
            "street": "6891 W Lee Hwy", 
            "latitude": 36.909638999999999
          }
        }, 
        {
          "category": "Local business", 
          "name": "El Ranchero", 
          "id": "115888121773218", 
          "category_list": [
            {
              "id": "199377230079198", 
              "name": "Mexican Restaurant"
            }
          ], 
          "location": {
            "city": "Tallahassee", 
            "zip": "32303-4028", 
            "country": "United States", 
            "longitude": -84.299521999999996, 
            "state": "FL", 
            "street": "2698 N Monroe St", 
            "latitude": 30.477267999999999
          }
        }, 
        {
          "category": "Local business", 
          "name": "Restaurant El Ranchero", 
          "id": "116575061700386", 
          "category_list": [
            {
              "id": "199377230079198", 
              "name": "Mexican Restaurant"
            }
          ], 
          "location": {
            "city": "Craig", 
            "zip": "81625-2715", 
            "country": "United States", 
            "longitude": -107.551649, 
            "state": "CO", 
            "street": "337 W Victory Way", 
            "latitude": 40.514373999999997
          }
        }, 
        {
          "category": "Local business", 
          "name": "El Ranchero", 
          "id": "117267004958764", 
          "category_list": [
            {
              "id": "199377230079198", 
              "name": "Mexican Restaurant"
            }
          ], 
          "location": {
            "city": "Willcox", 
            "zip": "85643-2723", 
            "country": "United States", 
            "longitude": -109.837903, 
            "state": "AZ", 
            "street": "706 S Haskell Ave", 
            "latitude": 32.244532
          }
        }, 
        {
          "category": "Local business", 
          "name": "El Ranchero", 
          "id": "117782691581688", 
          "category_list": [
            {
              "id": "199377230079198", 
              "name": "Mexican Restaurant"
            }
          ], 
          "location": {
            "city": "Hidalgo", 
            "zip": "78557-2511", 
            "country": "United States", 
            "longitude": -98.260655999999997, 
            "state": "TX", 
            "street": "129 E Coma Ave", 
            "latitude": 26.107882
          }
        }, 
        {
          "category": "Local business", 
          "name": "El Ranchero", 
          "id": "159131767454567", 
          "category_list": [
            {
              "id": "199377230079198", 
              "name": "Mexican Restaurant"
            }
          ], 
          "location": {
            "city": "Annapolis", 
            "zip": "21403-1423", 
            "country": "United States", 
            "longitude": -76.506902999999994, 
            "state": "MD", 
            "street": "1313 Forest Dr", 
            "latitude": 38.956175999999999
          }
        }, 
        {
          "category": "Local business", 
          "name": "El Ranchero", 
          "id": "250780031724681", 
          "category_list": [
            {
              "id": "199377230079198", 
              "name": "Mexican Restaurant"
            }
          ], 
          "location": {
            "city": "Jacksonville", 
            "zip": "", 
            "country": "United States", 
            "longitude": -95.268232850000004, 
            "state": "TX", 
            "street": "Jackson St", 
            "latitude": 31.95767991
          }
        }, 
        {
          "category": "Local business", 
          "name": "El Ranchero Mexican Grill", 
          "id": "117934828232641", 
          "category_list": [
            {
              "id": "199377230079198", 
              "name": "Mexican Restaurant"
            }
          ], 
          "location": {
            "city": "Chandler", 
            "zip": "85226-3205", 
            "country": "United States", 
            "longitude": -111.96648142389, 
            "state": "AZ", 
            "street": "7200 W Chandler Blvd", 
            "latitude": 33.306023929011999
          }
        }, 
        {
          "category": "Local business", 
          "name": "El Ranchero Mexican Food", 
          "id": "354285741291032", 
          "category_list": [
            {
              "id": "199377230079198", 
              "name": "Mexican Restaurant"
            }
          ], 
          "location": {
            "city": "South Gate", 
            "zip": "90280", 
            "country": "United States", 
            "longitude": -118.200422343, 
            "state": "CA", 
            "street": "", 
            "latitude": 33.9434803774
          }
        }, 
        {
          "category": "Local business", 
          "name": "Taquerias El Ranchero", 
          "id": "114118618620435", 
          "category_list": [
            {
              "id": "199377230079198", 
              "name": "Mexican Restaurant"
            }
          ], 
          "location": {
            "city": "Irving", 
            "zip": "75038-5701", 
            "country": "United States", 
            "longitude": -96.991799364485999, 
            "state": "TX", 
            "street": "3716 N Belt Line Rd", 
            "latitude": 32.857661330661998
          }
        }, 
        {
          "category": "Food/grocery", 
          "name": "El Pollo Ranchero", 
          "id": "177703835739802", 
          "category_list": [
            {
              "id": "273819889375819", 
              "name": "Restaurant"
            }
          ], 
          "location": {
            "city": "Los Mochis", 
            "zip": "81260", 
            "country": "Mexico", 
            "longitude": -109, 
            "state": "", 
            "street": "Boulevard Pedro Anaya #1936 Pte.  Fraccionamiento Alamos Country.", 
            "latitude": 25.789999999999999
          }
        }, 
        {
          "category": "Local business", 
          "name": "Taqueria El Ranchero!", 
          "id": "209261115750920", 
          "category_list": [
            {
              "id": "199377230079198", 
              "name": "Mexican Restaurant"
            }
          ], 
          "location": {
            "city": "Tyler", 
            "zip": "75701", 
            "country": "United States", 
            "longitude": -95.309240541999998, 
            "state": "TX", 
            "street": "", 
            "latitude": 32.338057285300003
          }
        }, 
        {
          "category": "Local business", 
          "name": "El Ranchero 8", 
          "id": "120769221267496", 
          "category_list": [
            {
              "id": "199377230079198", 
              "name": "Mexican Restaurant"
            }
          ], 
          "location": {
            "city": "Fairlawn", 
            "zip": "24141-8505", 
            "country": "United States", 
            "longitude": -80.577133000000003, 
            "state": "VA", 
            "street": "7523 Lee Hwy", 
            "latitude": 37.141468000000003
          }
        }, 
        {
          "category": "Local business", 
          "name": "El Ranchero \"Carnes Asadas\"", 
          "id": "164062663654122", 
          "category_list": [
            {
              "id": "199377230079198", 
              "name": "Mexican Restaurant"
            }
          ], 
          "location": {
            "latitude": 20.562064742, 
            "street": "", 
            "zip": "", 
            "longitude": -103.448029444
          }
        }, 
        {
          "category": "Local business", 
          "name": "El Taco Ranchero", 
          "id": "226089400737440", 
          "category_list": [
            {
              "id": "199377230079198", 
              "name": "Mexican Restaurant"
            }
          ], 
          "location": {
            "city": "Mexico City", 
            "zip": "", 
            "country": "Mexico", 
            "longitude": -99.113818033599998, 
            "state": "", 
            "street": "", 
            "latitude": 19.461236063899999
          }
        }, 
        {
          "category": "Restaurant/cafe", 
          "name": "El Ranchero parrillada", 
          "id": "534663889913283", 
          "category_list": [
            {
              "id": "150534008338515", 
              "name": "Barbecue Restaurant"
            }
          ], 
          "location": {
            "city": "Palmira", 
            "zip": "", 
            "country": "Colombia", 
            "longitude": -75.595113920000003, 
            "state": "", 
            "street": "calle 31 No 40 a 27 b/ rivera escobar", 
            "latitude": 5.0077370600000002
          }
        }, 
        {
          "category": "Restaurant/cafe", 
          "name": "El Ranchero Mexican Restaurant", 
          "id": "181202031892898", 
          "category_list": [
            {
              "id": "199377230079198", 
              "name": "Mexican Restaurant"
            }
          ], 
          "location": {
            "city": "Chattanooga", 
            "zip": "37412", 
            "country": "United States", 
            "longitude": -85.200400999999999, 
            "state": "TN", 
            "street": "6700 RINGGOLD ROAD", 
            "latitude": 34.988289000000002
          }
        }, 
        {
          "category": "Local business", 
          "name": "El Ranchero Loco Restaurant", 
          "id": "170202826323457", 
          "category_list": [
            {
              "id": "199377230079198", 
              "name": "Mexican Restaurant"
            }
          ], 
          "location": {
            "city": "Demopolis", 
            "zip": "36732-4126", 
            "country": "United States", 
            "longitude": -87.844436999999999, 
            "state": "AL", 
            "street": "547 Us Highway 80 W Ste 3", 
            "latitude": 32.499437
          }
        }, 
        {
          "category": "Local business", 
          "name": "El Ranchero Bar", 
          "id": "111640245543294", 
          "category_list": [
            {
              "id": "199377230079198", 
              "name": "Mexican Restaurant"
            }
          ], 
          "location": {
            "city": "Houston", 
            "zip": "77029-3886", 
            "country": "United States", 
            "longitude": -95.283210999999994, 
            "state": "TX", 
            "street": "2327 Mccarty St", 
            "latitude": 29.751587000000001
          }
        }, 
        {
          "category": "Local business", 
          "name": "El Ranchero Mexican Restaurant", 
          "id": "268770473186448", 
          "category_list": [
            {
              "id": "199377230079198", 
              "name": "Mexican Restaurant"
            }
          ], 
          "location": {
            "city": "Joaquin", 
            "zip": "75954", 
            "country": "United States", 
            "longitude": -94.039061285900004, 
            "state": "TX", 
            "street": "", 
            "latitude": 31.962367050099999
          }
        }, 
        {
          "category": "Local business", 
          "name": "Restaurante El Ranchero Paisa", 
          "id": "427345444014904", 
          "category_list": [
            {
              "id": "165679780146824", 
              "name": "Food & Restaurant"
            }
          ], 
          "location": {
            "latitude": 4.9954440193899998, 
            "street": "", 
            "zip": "", 
            "longitude": -75.602159358700007
          }
        }, 
        {
          "category": "Restaurant/cafe", 
          "name": "El Ranchero Mexican Restaurant", 
          "id": "274194259399512", 
          "category_list": [
            {
              "id": "273819889375819", 
              "name": "Restaurant"
            }
          ], 
          "location": {
            "city": "Jackson Heights", 
            "zip": "11372", 
            "country": "United States", 
            "longitude": -73.873069000000001, 
            "state": "NY", 
            "street": "93-10 roosevelt ave", 
            "latitude": 40.748641999999997
          }
        }, 
        {
          "category": "Local business", 
          "name": "El Ranchero Mexican Restaurant", 
          "id": "299494336777748", 
          "category_list": [
            {
              "id": "199377230079198", 
              "name": "Mexican Restaurant"
            }
          ], 
          "location": {
            "city": "Houston", 
            "zip": "77084", 
            "country": "United States", 
            "longitude": -95.686290119199995, 
            "state": "TX", 
            "street": "", 
            "latitude": 29.785796851800001
          }
        }, 
        {
          "category": "Local business", 
          "name": "El Ranchero Mexican Restaurant", 
          "id": "156244514411545", 
          "category_list": [
            {
              "id": "199377230079198", 
              "name": "Mexican Restaurant"
            }
          ], 
          "location": {
            "city": "Marietta", 
            "zip": "30066-5300", 
            "country": "United States", 
            "longitude": -84.527438000000004, 
            "state": "GA", 
            "street": "2719 Canton Rd", 
            "latitude": 34.016548
          }
        }, 
        {
          "category": "Local business", 
          "name": "El Ranchero Mexican Restaurant", 
          "id": "175707509123339", 
          "category_list": [
            {
              "id": "199377230079198", 
              "name": "Mexican Restaurant"
            }
          ], 
          "location": {
            "city": "Midlothian", 
            "zip": "", 
            "country": "United States", 
            "longitude": -77.610413054700004, 
            "state": "VA", 
            "street": "", 
            "latitude": 37.504395739000003
          }
        }, 
        {
          "category": "Restaurant/cafe", 
          "name": "El Ranchero Mexican Restaurant", 
          "id": "239199946200077", 
          "category_list": [
            {
              "id": "273819889375819", 
              "name": "Restaurant"
            }
          ], 
          "location": {
            "city": "Blair", 
            "zip": "68008", 
            "country": "United States", 
            "longitude": -96.142600000000002, 
            "state": "NE", 
            "street": "2100 South 20th Suite 8-10", 
            "latitude": 41.540399999999998
          }
        }, 
        {
          "category": "Local business", 
          "name": "El Ranchero Cafe", 
          "id": "169495729727310", 
          "category_list": [
            {
              "id": "199377230079198", 
              "name": "Mexican Restaurant"
            }
          ], 
          "location": {
            "city": "Grants", 
            "zip": "", 
            "country": "United States", 
            "longitude": -107.789238, 
            "state": "NM", 
            "street": "705 W U S Hwy 66", 
            "latitude": 35.117029000000002
          }
        }, 
        {
          "category": "Local business", 
          "name": "El Ranchero Cantina", 
          "id": "427011914008586", 
          "category_list": [
            {
              "id": "199377230079198", 
              "name": "Mexican Restaurant"
            }
          ], 
          "location": {
            "city": "Aguascalientes", 
            "zip": "", 
            "country": "Mexico", 
            "longitude": -102.294876039, 
            "state": "", 
            "street": "", 
            "latitude": 21.889920250300001
          }
        }, 
        {
          "category": "Local business", 
          "name": "El Pollo Ranchero", 
          "id": "102232149820675", 
          "category_list": [
            {
              "id": "199377230079198", 
              "name": "Mexican Restaurant"
            }
          ], 
          "location": {
            "city": "Stanton", 
            "zip": "90680-3220", 
            "country": "United States", 
            "longitude": -117.993607, 
            "state": "CA", 
            "street": "11241 Beach Blvd", 
            "latitude": 33.799151999999999
          }
        }, 
        {
          "category": "Local business", 
          "name": "El Pollo Ranchero", 
          "id": "113351262031877", 
          "category_list": [
            {
              "id": "199377230079198", 
              "name": "Mexican Restaurant"
            }
          ], 
          "location": {
            "city": "Chicago", 
            "zip": "60623-4314", 
            "country": "United States", 
            "longitude": -87.728787999999994, 
            "state": "IL", 
            "street": "4147 W 26th St", 
            "latitude": 41.843905999999997
          }
        }, 
        {
          "category": "Local business", 
          "name": "El Pollo Ranchero", 
          "id": "120382547977497", 
          "category_list": [
            {
              "id": "199377230079198", 
              "name": "Mexican Restaurant"
            }
          ], 
          "location": {
            "city": "Stickney", 
            "zip": "60402-4083", 
            "country": "United States", 
            "longitude": -87.787873000000005, 
            "state": "IL", 
            "street": "6603 Pershing Rd", 
            "latitude": 41.821117999999998
          }
        }, 
        {
          "category": "Local business", 
          "name": "El Ranchero Tacos", 
          "id": "198117576899382", 
          "category_list": [
            {
              "id": "199377230079198", 
              "name": "Mexican Restaurant"
            }
          ], 
          "location": {
            "city": "New York", 
            "zip": "10029", 
            "country": "United States", 
            "longitude": -73.942574596499995, 
            "state": "NY", 
            "street": "", 
            "latitude": 40.793985395699998
          }
        }, 
        {
          "category": "Local business", 
          "name": "Tacos de Barbacoa \"El Ranchero\"", 
          "id": "1707805772693461", 
          "category_list": [
            {
              "id": "273819889375819", 
              "name": "Restaurant"
            }
          ], 
          "location": {
            "city": "Culiac\u00e1n", 
            "zip": "", 
            "country": "Mexico", 
            "longitude": -107.384129921, 
            "state": "", 
            "street": "", 
            "latitude": 24.8174979345
          }
        }, 
        {
          "category": "Local business", 
          "name": "El Ranchero Mx Rest.", 
          "id": "166294326750005", 
          "category_list": [
            {
              "id": "199377230079198", 
              "name": "Mexican Restaurant"
            }
          ], 
          "location": {
            "city": "Humble", 
            "zip": "77346", 
            "country": "United States", 
            "longitude": -95.203145669999998, 
            "state": "TX", 
            "street": "", 
            "latitude": 29.998715099999998
          }
        }, 
        {
          "category": "Local business", 
          "name": "El Ranchero Meat Market", 
          "id": "388219674564221", 
          "category_list": [
            {
              "id": "199377230079198", 
              "name": "Mexican Restaurant"
            }, 
            {
              "id": "150108431712141", 
              "name": "Food & Grocery"
            }
          ], 
          "location": {
            "city": "Irving", 
            "zip": "75061", 
            "country": "United States", 
            "longitude": -96.976042932300004, 
            "state": "TX", 
            "street": "", 
            "latitude": 32.834604432299997
          }
        }, 
        {
          "category": "Local business", 
          "name": "El Ranchero Mexican Restaurant & Cantina", 
          "id": "100876483289917", 
          "category_list": [
            {
              "id": "199377230079198", 
              "name": "Mexican Restaurant"
            }
          ], 
          "location": {
            "city": "Sheboygan", 
            "zip": "53081-2586", 
            "country": "United States", 
            "longitude": -87.723046999999994, 
            "state": "WI", 
            "street": "1721 Calumet Dr", 
            "latitude": 43.763576999999998
          }
        }, 
        {
          "category": "Local business", 
          "name": "El Ranchero Chido", 
          "id": "115139971837300", 
          "category_list": [
            {
              "id": "199377230079198", 
              "name": "Mexican Restaurant"
            }
          ], 
          "location": {
            "city": "North Hills", 
            "zip": "91343-5106", 
            "country": "United States", 
            "longitude": -118.465687299, 
            "state": "CA", 
            "street": "15304 Parthenia St", 
            "latitude": 34.228165507500002
          }
        }, 
        {
          "category": "Local business", 
          "name": "El Ranchero Catering", 
          "id": "513897835360999", 
          "category_list": [
            {
              "id": "199377230079198", 
              "name": "Mexican Restaurant"
            }, 
            {
              "id": "139433292785470", 
              "name": "Caterer"
            }
          ], 
          "location": {
            "city": "Concord", 
            "zip": "94520", 
            "country": "United States", 
            "longitude": -122.03100000000001, 
            "state": "CA", 
            "street": "", 
            "latitude": 37.978099999999998
          }
        }, 
        {
          "category": "Local business", 
          "name": "El Ranchero Market & Gas", 
          "id": "143879918976288", 
          "category_list": [
            {
              "id": "199377230079198", 
              "name": "Mexican Restaurant"
            }
          ], 
          "location": {
            "city": "Santa Barbara", 
            "zip": "93101-4104", 
            "country": "United States", 
            "longitude": -119.716156, 
            "state": "CA", 
            "street": "1502 San Andres St", 
            "latitude": 34.419041
          }
        }, 
        {
          "category": "Local business", 
          "name": "El Ranchero Taco Truck.", 
          "id": "202028593160087", 
          "category_list": [
            {
              "id": "199377230079198", 
              "name": "Mexican Restaurant"
            }
          ], 
          "location": {
            "city": "Concord", 
            "zip": "94518", 
            "country": "United States", 
            "longitude": -122.04410805400001, 
            "state": "CA", 
            "street": "", 
            "latitude": 37.952078093099999
          }
        }, 
        {
          "category": "Local business", 
          "name": "El Ranchero Mexican Grill", 
          "id": "104965066213122", 
          "category_list": [
            {
              "id": "199377230079198", 
              "name": "Mexican Restaurant"
            }
          ], 
          "location": {
            "city": "Rowlett", 
            "zip": "75088-4090", 
            "country": "United States", 
            "longitude": -96.567026999999996, 
            "state": "TX", 
            "street": "3532 Lakeview Pkwy", 
            "latitude": 32.907370999999998
          }
        }, 
        {
          "category": "Local business", 
          "name": "Carniceria El Ranchero", 
          "id": "158023757553196", 
          "category_list": [
            {
              "id": "199377230079198", 
              "name": "Mexican Restaurant"
            }, 
            {
              "id": "150108431712141", 
              "name": "Food & Grocery"
            }
          ], 
          "location": {
            "city": "Commerce City", 
            "zip": "80022-1703", 
            "country": "United States", 
            "longitude": -104.912811, 
            "state": "CO", 
            "street": "6440 E 72nd Pl", 
            "latitude": 39.828102000000001
          }
        }, 
        {
          "category": "Local business", 
          "name": "El Mirador Ranchero", 
          "id": "225613030905195", 
          "category_list": [
            {
              "id": "165679780146824", 
              "name": "Food & Restaurant"
            }
          ], 
          "location": {
            "city": "Canton", 
            "zip": "30114", 
            "country": "United States", 
            "longitude": -84.491541999999995, 
            "state": "GA", 
            "street": "370b marietta rd", 
            "latitude": 34.229458000000001
          }
        }, 
        {
          "category": "Local business", 
          "name": "El Ranchero SuperMarket", 
          "id": "134148166653413", 
          "category_list": [
            {
              "id": "199377230079198", 
              "name": "Mexican Restaurant"
            }, 
            {
              "id": "169207329791658", 
              "name": "Grocery Store"
            }
          ], 
          "location": {
            "city": "Monroe", 
            "zip": "28110", 
            "country": "United States", 
            "longitude": -80.523585001499995, 
            "state": "NC", 
            "street": "", 
            "latitude": 34.986561776899997
          }
        }, 
        {
          "category": "Local business", 
          "name": "El Ranchero of Martinsburg Inc", 
          "id": "114091838622915", 
          "category_list": [
            {
              "id": "199377230079198", 
              "name": "Mexican Restaurant"
            }
          ], 
          "location": {
            "city": "Martinsburg", 
            "zip": "25401-1838", 
            "country": "United States", 
            "longitude": -77.987482, 
            "state": "WV", 
            "street": "702 Foxcroft Ave", 
            "latitude": 39.457137000000003
          }
        }, 
        {
          "category": "Local business", 
          "name": "El Ranchero Mexican Resta", 
          "id": "301805573280335", 
          "category_list": [
            {
              "id": "199377230079198", 
              "name": "Mexican Restaurant"
            }
          ], 
          "location": {
            "city": "Loganville", 
            "zip": "", 
            "country": "United States", 
            "longitude": -84.254663553599997, 
            "state": "GA", 
            "street": "Atlanta Hwy", 
            "latitude": 33.850752933499997
          }
        }, 
        {
          "category": "Local business", 
          "name": "El Ranchero Food Products", 
          "id": "141956415850051", 
          "category_list": [
            {
              "id": "199377230079198", 
              "name": "Mexican Restaurant"
            }, 
            {
              "id": "150108431712141", 
              "name": "Food & Grocery"
            }
          ], 
          "location": {
            "city": "Chicago", 
            "zip": "60632-4416", 
            "country": "United States", 
            "longitude": -87.729650000000007, 
            "state": "IL", 
            "street": "4545 S Tripp Ave", 
            "latitude": 41.810546000000002
          }
        }, 
        {
          "category": "Local business", 
          "name": "El Ranchero Taco Truck", 
          "id": "104941742916471", 
          "category_list": [
            {
              "id": "273819889375819", 
              "name": "Restaurant"
            }
          ], 
          "location": {
            "city": "Martinez", 
            "zip": "94553", 
            "country": "United States", 
            "longitude": -122.10107876799999, 
            "state": "CA", 
            "street": "", 
            "latitude": 38.025615041099996
          }
        }, 
        {
          "category": "Local business", 
          "name": "Tacos De Barbacoa El Ranchero", 
          "id": "226281390753413", 
          "category_list": [
            {
              "id": "199377230079198", 
              "name": "Mexican Restaurant"
            }
          ], 
          "location": {
            "latitude": 20.629546886699998, 
            "street": "", 
            "zip": "", 
            "longitude": -103.443319918
          }
        }, 
        {
          "category": "Local business", 
          "name": "El Ranchero Tortilla Factory", 
          "id": "102238206486265", 
          "category_list": [
            {
              "id": "199377230079198", 
              "name": "Mexican Restaurant"
            }, 
            {
              "id": "169207329791658", 
              "name": "Grocery Store"
            }
          ], 
          "location": {
            "city": "Corpus Christi", 
            "zip": "78405-3214", 
            "country": "United States", 
            "longitude": -97.434737999999996, 
            "state": "TX", 
            "street": "3901 Carmen St", 
            "latitude": 27.780138000000001
          }
        }, 
        {
          "category": "Local business", 
          "name": "El Rancheros", 
          "id": "215300495171627", 
          "category_list": [
            {
              "id": "199377230079198", 
              "name": "Mexican Restaurant"
            }
          ], 
          "location": {
            "city": "Daphne", 
            "zip": "36526", 
            "country": "United States", 
            "longitude": -87.912522050217007, 
            "state": "AL", 
            "street": "", 
            "latitude": 30.647255532309
          }
        }, 
        {
          "category": "Local business", 
          "name": "El Ranchero Authentic Mexican Food", 
          "id": "146451108742562", 
          "category_list": [
            {
              "id": "199377230079198", 
              "name": "Mexican Restaurant"
            }
          ], 
          "location": {
            "city": "Garland", 
            "zip": "75042", 
            "country": "United States", 
            "longitude": -96.666360580000003, 
            "state": "TX", 
            "street": "", 
            "latitude": 32.909459640000001
          }
        }, 
        {
          "category": "Local business", 
          "name": "El Ranchero Taco Truck", 
          "id": "172869576081709", 
          "category_list": [
            {
              "id": "199377230079198", 
              "name": "Mexican Restaurant"
            }
          ], 
          "location": {
            "city": "Benicia", 
            "zip": "94510", 
            "country": "United States", 
            "longitude": -122.128789848, 
            "state": "CA", 
            "street": "", 
            "latitude": 38.068038877600003
          }
        }, 
        {
          "category": "Local business", 
          "name": "El Rancheros Restaurant", 
          "id": "185622578177637", 
          "category_list": [
            {
              "id": "2500", 
              "name": "Local Business"
            }
          ], 
          "location": {
            "city": "Dulce", 
            "zip": "87528", 
            "country": "United States", 
            "longitude": -106.98799928699999, 
            "state": "NM", 
            "street": "", 
            "latitude": 36.9354390353
          }
        }, 
        {
          "category": "Food/beverages", 
          "name": "La Rumba Los Rancheros El Paso Mexican Restaurants", 
          "id": "216168968528004", 
          "category_list": [
            {
              "id": "199377230079198", 
              "name": "Mexican Restaurant"
            }
          ], 
          "location": {
            "city": "Fort Walton Beach", 
            "zip": "32547", 
            "country": "United States", 
            "longitude": -86.603769, 
            "state": "FL", 
            "street": "300 Eglin Parkway", 
            "latitude": 30.434128000000001
          }
        }
      ]
    }
  }, 
  {
    "business_name": "Scottsdale Serrento", 
    "business_id": "MKKihkKRtemuyCzAjEZyvg", 
    "fb_pages": {
      "paging": {
        "next": "https://graph.facebook.com/search?type=place&access_token=229546593895315|yPLlHqq6YvDLIH4nL0kjJtIFSlU&limit=5000&offset=5000&__after_id=297526240257"
      }, 
      "data": [
        {
          "category": "Local business", 
          "name": "Scottsdale Serrento Apartments", 
          "id": "297526240257", 
          "category_list": [
            {
              "id": "192625037432720", 
              "name": "Real Estate Service"
            }
          ], 
          "location": {
            "city": "Scottsdale", 
            "zip": "85251", 
            "country": "United States", 
            "longitude": -111.90505784699999, 
            "state": "AZ", 
            "street": "8145 E Camelback RD", 
            "latitude": 33.501458916899999
          }
        }
      ]
    }
  }
]