[
  {
    "business_name": "Papa Murphy's Take 'n' Bake Pizza", 
    "business_id": "zTUI1y05mo5H5hBtDCRpJQ", 
    "fb_pages": {
      "paging": {
        "next": "https://graph.facebook.com/search?type=place&access_token=229546593895315|yPLlHqq6YvDLIH4nL0kjJtIFSlU&limit=5000&offset=5000&__after_id=349726595722"
      }, 
      "data": [
        {
          "category": "Local business", 
          "name": "Papa Murphy S Take N Bake Pizza", 
          "id": "104945036215599", 
          "category_list": [
            {
              "id": "180256082015845", 
              "name": "Pizza Place"
            }
          ], 
          "location": {
            "city": "Layton", 
            "zip": "84041-5120", 
            "country": "United States", 
            "longitude": -111.945358, 
            "state": "UT", 
            "street": "78 S Fairfield Rd", 
            "latitude": 41.059981999999998
          }
        }, 
        {
          "category": "Local business", 
          "name": "Papa Murphy's Take 'N' Bake Pizza", 
          "id": "160669827293981", 
          "category_list": [
            {
              "id": "180256082015845", 
              "name": "Pizza Place"
            }
          ], 
          "location": {
            "city": "Placentia", 
            "zip": "92870-3328", 
            "country": "United States", 
            "longitude": -117.865085208, 
            "state": "CA", 
            "street": "119 E Yorba Linda Blvd", 
            "latitude": 33.888307301200001
          }
        }, 
        {
          "category": "Local business", 
          "name": "Papa Murphy's Take 'N' Bake", 
          "id": "102070186524228", 
          "category_list": [
            {
              "id": "180256082015845", 
              "name": "Pizza Place"
            }
          ], 
          "location": {
            "city": "Tucson", 
            "zip": "85712", 
            "country": "United States", 
            "longitude": -110.89267599999999, 
            "state": "AZ", 
            "street": "Grant & Swan", 
            "latitude": 32.250658000000001
          }
        }, 
        {
          "category": "Local business", 
          "name": "Papa Murphy's Take 'N' Bake Pizza", 
          "id": "113549795386645", 
          "category_list": [
            {
              "id": "180256082015845", 
              "name": "Pizza Place"
            }, 
            {
              "id": "176831012360626", 
              "name": "Professional Services"
            }
          ], 
          "location": {
            "city": "Amarillo", 
            "zip": "79109", 
            "country": "United States", 
            "longitude": -101.902369222, 
            "state": "TX", 
            "street": "", 
            "latitude": 35.145366007500002
          }
        }, 
        {
          "category": "Local business", 
          "name": "Papa Murphy's Take N Bake Pizza", 
          "id": "152131211471397", 
          "category_list": [
            {
              "id": "180256082015845", 
              "name": "Pizza Place"
            }
          ], 
          "location": {
            "city": "Birmingham", 
            "zip": "35209", 
            "country": "United States", 
            "longitude": -86.819727493299993, 
            "state": "AL", 
            "street": "", 
            "latitude": 33.4640604772
          }
        }, 
        {
          "category": "Local business", 
          "name": "Papa Murphy's Take 'N' Bake Pizza", 
          "id": "153982594641658", 
          "category_list": [
            {
              "id": "180256082015845", 
              "name": "Pizza Place"
            }
          ], 
          "location": {
            "city": "Kansas City", 
            "zip": "64111-2552", 
            "country": "United States", 
            "longitude": -94.590746999999993, 
            "state": "MO", 
            "street": "3600 Broadway St", 
            "latitude": 39.061914000000002
          }
        }, 
        {
          "category": "Local business", 
          "name": "Papa Murphy's Take 'N' Bake Pizza", 
          "id": "208338782523185", 
          "category_list": [
            {
              "id": "180256082015845", 
              "name": "Pizza Place"
            }
          ], 
          "location": {
            "city": "Reno", 
            "zip": "89506", 
            "country": "United States", 
            "longitude": -119.851803393, 
            "state": "NV", 
            "street": "", 
            "latitude": 39.613146131000001
          }
        }, 
        {
          "category": "Local business", 
          "name": "Papa Murphy's Take'n'bake Pizza", 
          "id": "111477718892597", 
          "category_list": [
            {
              "id": "180256082015845", 
              "name": "Pizza Place"
            }
          ], 
          "location": {
            "city": "Saukville", 
            "zip": "53080-2038", 
            "country": "United States", 
            "longitude": -87.932945000000004, 
            "state": "WI", 
            "street": "620 E Green Bay Ave", 
            "latitude": 43.384540999999999
          }
        }, 
        {
          "category": "Food/grocery", 
          "name": "Papa Murphy's TAKE 'N' BAKE Pizza", 
          "id": "359924510794686", 
          "category_list": [
            {
              "id": "150108431712141", 
              "name": "Food & Grocery"
            }
          ], 
          "location": {
            "city": "Maineville", 
            "zip": "45039", 
            "country": "United States", 
            "longitude": -84.219593000000003, 
            "state": "OH", 
            "street": "6647 S. State Route 48", 
            "latitude": 39.338377999999999
          }
        }, 
        {
          "category": "Local business", 
          "name": "Papa Murphy's Take N Bake Pizza", 
          "id": "204355882996341", 
          "category_list": [
            {
              "id": "180256082015845", 
              "name": "Pizza Place"
            }
          ], 
          "location": {
            "city": "Summerville", 
            "zip": "29485", 
            "country": "United States", 
            "longitude": -80.170019365200005, 
            "state": "SC", 
            "street": "", 
            "latitude": 32.972904416600002
          }
        }, 
        {
          "category": "Local business", 
          "name": "Papa Murphy's Take 'N' Bake Pizza", 
          "id": "152600291443514", 
          "category_list": [
            {
              "id": "180256082015845", 
              "name": "Pizza Place"
            }
          ], 
          "location": {
            "city": "Blue Springs", 
            "zip": "64014", 
            "country": "United States", 
            "longitude": -94.272989394999996, 
            "state": "MO", 
            "street": "", 
            "latitude": 38.994724397200002
          }
        }, 
        {
          "category": "Local business", 
          "name": "Papa Murphy's Take 'N' Bake Pizza", 
          "id": "159805510710766", 
          "category_list": [
            {
              "id": "180256082015845", 
              "name": "Pizza Place"
            }
          ], 
          "location": {
            "city": "Wilmington", 
            "zip": "28412", 
            "country": "United States", 
            "longitude": -77.901672000000005, 
            "state": "NC", 
            "street": "5954 Carolina Beach Rd", 
            "latitude": 34.124008000000003
          }
        }, 
        {
          "category": "Food/grocery", 
          "name": "Papa Murphy's:Take 'N' Bake Pizza", 
          "id": "264333443581521", 
          "category_list": [
            {
              "id": "150108431712141", 
              "name": "Food & Grocery"
            }
          ], 
          "location": {
            "city": "West Monroe", 
            "zip": "71291", 
            "country": "United States", 
            "longitude": -92.158501000000001, 
            "state": "LA", 
            "street": "203 Blanchard Drive, Suite D", 
            "latitude": 32.509548000000002
          }
        }, 
        {
          "category": "Local business", 
          "name": "Papa Murphy's Take 'N' Bake Pizza", 
          "id": "108991769164208", 
          "category_list": [
            {
              "id": "180256082015845", 
              "name": "Pizza Place"
            }
          ], 
          "location": {
            "city": "Salem", 
            "zip": "97301-4784", 
            "country": "United States", 
            "longitude": -122.982929, 
            "state": "OR", 
            "street": "478 Lancaster Dr NE", 
            "latitude": 44.935442999999999
          }
        }, 
        {
          "category": "Restaurant/cafe", 
          "name": "The Village Papa Murphy's Take 'n Bake Pizza", 
          "id": "668846919801168", 
          "category_list": [
            {
              "id": "180256082015845", 
              "name": "Pizza Place"
            }
          ], 
          "location": {
            "city": "Oklahoma City", 
            "zip": "73120", 
            "country": "United States", 
            "longitude": -97.567993000000001, 
            "state": "OK", 
            "street": "9501 N. May Avenue", 
            "latitude": 35.566586000000001
          }
        }, 
        {
          "category": "Local business", 
          "name": "Papa Murphy's Take 'N' Bake Pizza", 
          "id": "163664056995795", 
          "category_list": [
            {
              "id": "180256082015845", 
              "name": "Pizza Place"
            }
          ], 
          "location": {
            "city": "Austin", 
            "zip": "78750-3222", 
            "country": "United States", 
            "longitude": -97.771810000000002, 
            "state": "TX", 
            "street": "12856 N Highway 183", 
            "latitude": 30.43478
          }
        }, 
        {
          "category": "Restaurant/cafe", 
          "name": "Papa Murphy's Take 'n' Bake Pizza", 
          "id": "103794476380563", 
          "category_list": [
            {
              "id": "180256082015845", 
              "name": "Pizza Place"
            }
          ], 
          "location": {
            "city": "Marion", 
            "zip": "43302", 
            "country": "United States", 
            "longitude": -83.082176000000004, 
            "state": "OH", 
            "street": "138 McMahan Blvd", 
            "latitude": 40.581856999999999
          }
        }, 
        {
          "category": "Local business", 
          "name": "Papa Murphy's Take-N-Bake Pizza", 
          "id": "129517493747928", 
          "category_list": [
            {
              "id": "180256082015845", 
              "name": "Pizza Place"
            }
          ], 
          "location": {
            "city": "Chilliwack", 
            "zip": "V2R4E8", 
            "country": "Canada", 
            "longitude": -121.95946848, 
            "state": "BC", 
            "street": "7592 Vedder Rd", 
            "latitude": 49.140262558300002
          }
        }, 
        {
          "category": "Local business", 
          "name": "Papa Murphy's Take-N-Bake Pizza", 
          "id": "132955256732751", 
          "category_list": [
            {
              "id": "180256082015845", 
              "name": "Pizza Place"
            }
          ], 
          "location": {
            "city": "Maple Ridge District Municipality", 
            "zip": "V2X2P9", 
            "country": "Canada", 
            "longitude": -122.65560000000001, 
            "state": "BC", 
            "street": "20691 Lougheed Hwy", 
            "latitude": 49.219000000000001
          }
        }, 
        {
          "category": "Local business", 
          "name": "Papa Murphy's Take 'N' Bake Pizza", 
          "id": "161401230547518", 
          "category_list": [
            {
              "id": "180256082015845", 
              "name": "Pizza Place"
            }
          ], 
          "location": {
            "city": "Marquette", 
            "zip": "49855-9494", 
            "country": "United States", 
            "longitude": -87.464440999999994, 
            "state": "MI", 
            "street": "3117 Us Highway 41 W", 
            "latitude": 46.549258999999999
          }
        }, 
        {
          "category": "Local business", 
          "name": "Papa Murphy's Take 'N' Bake Pizza", 
          "id": "169079356437102", 
          "category_list": [
            {
              "id": "180256082015845", 
              "name": "Pizza Place"
            }
          ], 
          "location": {
            "city": "Portales", 
            "zip": "88130-6328", 
            "country": "United States", 
            "longitude": -103.33736, 
            "state": "NM", 
            "street": "421 S Avenue C", 
            "latitude": 34.182419000000003
          }
        }, 
        {
          "category": "Local business", 
          "name": "Papa Murphy's Take 'N' Bake Pizza", 
          "id": "170587549618361", 
          "category_list": [
            {
              "id": "180256082015845", 
              "name": "Pizza Place"
            }
          ], 
          "location": {
            "city": "Yankton", 
            "zip": "57078-4890", 
            "country": "United States", 
            "longitude": -97.397852, 
            "state": "SD", 
            "street": "3001 Broadway Ave", 
            "latitude": 42.907128
          }
        }, 
        {
          "category": "Local business", 
          "name": "Papa Murphy's Take 'N' Bake Pizza", 
          "id": "144388475703777", 
          "category_list": [
            {
              "id": "197871390225897", 
              "name": "Cafe"
            }, 
            {
              "id": "180256082015845", 
              "name": "Pizza Place"
            }
          ], 
          "location": {
            "city": "Plano", 
            "zip": "75025", 
            "country": "United States", 
            "longitude": -96.737390333500002, 
            "state": "TX", 
            "street": "", 
            "latitude": 33.085832588599999
          }
        }, 
        {
          "category": "Local business", 
          "name": "Papa Murphy's Take 'N Bake Pizza", 
          "id": "244288552254066", 
          "category_list": [
            {
              "id": "2500", 
              "name": "Local Business"
            }
          ], 
          "location": {
            "city": "Porterville", 
            "zip": "93257", 
            "country": "United States", 
            "longitude": -119.026718832, 
            "state": "CA", 
            "street": "", 
            "latitude": 36.054041876699998
          }
        }, 
        {
          "category": "Local business", 
          "name": "Papa Murphy's take 'n' Bake Pizza.", 
          "id": "341954352509663", 
          "category_list": [
            {
              "id": "2500", 
              "name": "Local Business"
            }
          ], 
          "location": {
            "city": "Fort Walton Beach", 
            "zip": "32548", 
            "country": "United States", 
            "longitude": -86.606631999900003, 
            "state": "FL", 
            "street": "", 
            "latitude": 30.412289806
          }
        }, 
        {
          "category": "Local business", 
          "name": "Papa Murphy's Take 'N' Bake Pizza", 
          "id": "105532132847457", 
          "category_list": [
            {
              "id": "180256082015845", 
              "name": "Pizza Place"
            }
          ], 
          "location": {
            "city": "West Jordan", 
            "zip": "84084-4904", 
            "country": "United States", 
            "longitude": -111.983047, 
            "state": "UT", 
            "street": "3851 Cobble Ridge Dr Apt 1302", 
            "latitude": 40.622889999999998
          }
        }, 
        {
          "category": "Local business", 
          "name": "Papa Murphy's Take 'N' Bake Pizza", 
          "id": "114435085283115", 
          "category_list": [
            {
              "id": "180256082015845", 
              "name": "Pizza Place"
            }
          ], 
          "location": {
            "city": "Antelope", 
            "zip": "95843-5543", 
            "country": "United States", 
            "longitude": -121.381607, 
            "state": "CA", 
            "street": "8529 Brisenbourg Way", 
            "latitude": 38.723972000000003
          }
        }, 
        {
          "category": "Local business", 
          "name": "Papa Murphy's Take 'N' Bake Pizza", 
          "id": "117771574949436", 
          "category_list": [
            {
              "id": "180256082015845", 
              "name": "Pizza Place"
            }
          ], 
          "location": {
            "city": "Mount Vernon", 
            "zip": "43050-2634", 
            "country": "United States", 
            "longitude": -82.471671999999998, 
            "state": "OH", 
            "street": "406 Coshocton Ave", 
            "latitude": 40.396008000000002
          }
        }, 
        {
          "category": "Local business", 
          "name": "Papa Murphy's Take 'N' Bake Pizza", 
          "id": "123281154396528", 
          "category_list": [
            {
              "id": "180256082015845", 
              "name": "Pizza Place"
            }
          ], 
          "location": {
            "city": "Austin", 
            "zip": "78738-6817", 
            "country": "United States", 
            "longitude": -97.958145999999999, 
            "state": "TX", 
            "street": "3400 Ranch Road 620 S Apt 2303", 
            "latitude": 30.324221999999999
          }
        }, 
        {
          "category": "Local business", 
          "name": "Papa Murphy's Take 'N' Bake Pizza", 
          "id": "135032703215859", 
          "category_list": [
            {
              "id": "180256082015845", 
              "name": "Pizza Place"
            }
          ], 
          "location": {
            "city": "San Rafael", 
            "zip": "94904-1752", 
            "country": "United States", 
            "longitude": -122.533897, 
            "state": "CA", 
            "street": "350 Bon Air Rd", 
            "latitude": 37.949489999999997
          }
        }, 
        {
          "category": "Local business", 
          "name": "Papa Murphy's Take 'N' Bake Pizza", 
          "id": "135484419836263", 
          "category_list": [
            {
              "id": "180256082015845", 
              "name": "Pizza Place"
            }
          ], 
          "location": {
            "city": "Columbus", 
            "zip": "43214-1124", 
            "country": "United States", 
            "longitude": -83.018608999999998, 
            "state": "OH", 
            "street": "5548 N High St", 
            "latitude": 40.075909000000003
          }
        }, 
        {
          "category": "Local business", 
          "name": "Papa Murphy's Take 'N' Bake Pizza", 
          "id": "136904126357711", 
          "category_list": [
            {
              "id": "180256082015845", 
              "name": "Pizza Place"
            }
          ], 
          "location": {
            "city": "Pleasanton", 
            "zip": "94566-7060", 
            "country": "United States", 
            "longitude": -121.900627, 
            "state": "CA", 
            "street": "6700 Koll Center Pkwy", 
            "latitude": 37.657989999999998
          }
        }, 
        {
          "category": "Local business", 
          "name": "Papa Murphy's Take 'N' Bake Pizza", 
          "id": "136979283017329", 
          "category_list": [
            {
              "id": "180256082015845", 
              "name": "Pizza Place"
            }
          ], 
          "location": {
            "city": "Mesquite", 
            "zip": "89027-8899", 
            "country": "United States", 
            "longitude": -114.106966, 
            "state": "NV", 
            "street": "1085 W Pioneer Blvd Ste 150", 
            "latitude": 36.808540999999998
          }
        }, 
        {
          "category": "Local business", 
          "name": "Papa Murphy's Take-N-Bake Pizza", 
          "id": "138121389535196", 
          "category_list": [
            {
              "id": "180256082015845", 
              "name": "Pizza Place"
            }
          ], 
          "location": {
            "city": "Surrey", 
            "zip": "V3S7Y3", 
            "country": "Canada", 
            "longitude": -122.702229538, 
            "state": "BC", 
            "street": "18789 Fraser Hwy", 
            "latitude": 49.124542928399997
          }
        }, 
        {
          "category": "Local business", 
          "name": "Papa Murphy's Take-N-Bake Pizza", 
          "id": "138445236168106", 
          "category_list": [
            {
              "id": "180256082015845", 
              "name": "Pizza Place"
            }
          ], 
          "location": {
            "city": "Port Coquitlam", 
            "zip": "V3B6S2", 
            "country": "Canada", 
            "longitude": -122.782537115, 
            "state": "BC", 
            "street": "3025 Lougheed Hwy", 
            "latitude": 49.262047838800001
          }
        }, 
        {
          "category": "Local business", 
          "name": "Papa Murphy's Take 'N' Bake Pizza", 
          "id": "148187405226744", 
          "category_list": [
            {
              "id": "180256082015845", 
              "name": "Pizza Place"
            }
          ], 
          "location": {
            "city": "Lodi", 
            "zip": "95240-3423", 
            "country": "United States", 
            "longitude": -121.27820199999999, 
            "state": "CA", 
            "street": "422 W Lodi Ave", 
            "latitude": 38.129928999999997
          }
        }, 
        {
          "category": "Local business", 
          "name": "Papa Murphy's Take 'n' Bake Pizza", 
          "id": "154992024542480", 
          "category_list": [
            {
              "id": "180256082015845", 
              "name": "Pizza Place"
            }
          ], 
          "location": {
            "city": "Denton", 
            "zip": "76209", 
            "country": "United States", 
            "longitude": -97.118783237700001, 
            "state": "TX", 
            "street": "", 
            "latitude": 33.232610837000003
          }
        }, 
        {
          "category": "Local business", 
          "name": "Papa Murphy's Take 'N' Bake Pizza", 
          "id": "159573650743252", 
          "category_list": [
            {
              "id": "180256082015845", 
              "name": "Pizza Place"
            }
          ], 
          "location": {
            "city": "Garberville", 
            "zip": "95542-3136", 
            "country": "United States", 
            "longitude": -123.79451, 
            "state": "CA", 
            "street": "773 Redwood Dr", 
            "latitude": 40.100619999999999
          }
        }, 
        {
          "category": "Local business", 
          "name": "Papa Murphy's Take 'N' Bake Pizza", 
          "id": "163256683703761", 
          "category_list": [
            {
              "id": "180256082015845", 
              "name": "Pizza Place"
            }
          ], 
          "location": {
            "city": "Lynden", 
            "zip": "98264-1213", 
            "country": "United States", 
            "longitude": -122.473079, 
            "state": "WA", 
            "street": "191 18th St Ste B", 
            "latitude": 48.94032
          }
        }, 
        {
          "category": "Local business", 
          "name": "Papa Murphy's Take 'N' Bake Pizza", 
          "id": "175928489107823", 
          "category_list": [
            {
              "id": "180256082015845", 
              "name": "Pizza Place"
            }
          ], 
          "location": {
            "city": "Dinuba", 
            "zip": "93618", 
            "country": "United States", 
            "longitude": -119.403629728, 
            "state": "CA", 
            "street": "", 
            "latitude": 36.545620122999999
          }
        }, 
        {
          "category": "Local business", 
          "name": "Papa Murphy's Take n Bake Pizza", 
          "id": "152590708150761", 
          "category_list": [
            {
              "id": "2500", 
              "name": "Local Business"
            }
          ], 
          "location": {
            "latitude": 28.755727578199998, 
            "street": "", 
            "zip": "", 
            "longitude": -81.345279224999999
          }
        }, 
        {
          "category": "Restaurant/cafe", 
          "name": "Papa Murphy's Take n'bake Pizza", 
          "id": "211136455694846", 
          "category_list": [
            {
              "id": "165679780146824", 
              "name": "Food & Restaurant"
            }
          ], 
          "location": {
            "city": "Cedar Rapids", 
            "zip": "52402", 
            "country": "United States", 
            "longitude": -91.664382000000003, 
            "state": "IA", 
            "street": "3335 Center Point Rd. NE", 
            "latitude": 42.012081999999999
          }
        }, 
        {
          "category": "Local business", 
          "name": "Papa Murphy's Take 'N' Bake Pizza", 
          "id": "320614801334909", 
          "category_list": [
            {
              "id": "2500", 
              "name": "Local Business"
            }
          ], 
          "location": {
            "city": "Port Angeles", 
            "zip": "98362", 
            "country": "United States", 
            "longitude": -123.40846599299999, 
            "state": "WA", 
            "street": "", 
            "latitude": 48.110286130799999
          }
        }, 
        {
          "category": "Local business", 
          "name": "Papa Murphy's Take 'N' Bake Pizza", 
          "id": "346453502098362", 
          "category_list": [
            {
              "id": "2500", 
              "name": "Local Business"
            }
          ], 
          "location": {
            "city": "Pleasanton", 
            "zip": "94566", 
            "country": "United States", 
            "longitude": -121.87536736600001, 
            "state": "CA", 
            "street": "", 
            "latitude": 37.679167316300003
          }
        }, 
        {
          "category": "Food/grocery", 
          "name": "Papa Murphy's Take N Bake Pizza", 
          "id": "381205558575084", 
          "category_list": [
            {
              "id": "150108431712141", 
              "name": "Food & Grocery"
            }
          ], 
          "location": {
            "city": "Washington", 
            "zip": "63090", 
            "country": "United States", 
            "longitude": -90.982781000000003, 
            "state": "MO", 
            "street": "3004 Phoenix Center Drive", 
            "latitude": 38.537108000000003
          }
        }, 
        {
          "category": "Local business", 
          "name": "Papa Murphy's Take 'N' Bake Pizza", 
          "id": "134305426620206", 
          "category_list": [
            {
              "id": "179672275401610", 
              "name": "Business Consultant"
            }, 
            {
              "id": "180256082015845", 
              "name": "Pizza Place"
            }
          ], 
          "location": {
            "city": "Taylorville", 
            "zip": "62568-2759", 
            "country": "United States", 
            "longitude": -89.310282000000001, 
            "state": "IL", 
            "street": "1524 W Springfield Rd Ste B", 
            "latitude": 39.566924
          }
        }, 
        {
          "category": "Local business", 
          "name": "Papa Murphy's Take 'n' Bake Pizza", 
          "id": "301545469964127", 
          "category_list": [
            {
              "id": "191334337551378", 
              "name": "Restaurant Wholesale"
            }
          ], 
          "location": {
            "city": "Victoria", 
            "zip": "", 
            "country": "Canada", 
            "longitude": -123.33370709, 
            "state": "BC", 
            "street": "Cedar Hill Cross Rd", 
            "latitude": 48.461447450000001
          }
        }, 
        {
          "category": "Restaurant/cafe", 
          "name": "Papa Murphy's Take N Bake Pizza Corning", 
          "id": "148729601981266", 
          "category_list": [
            {
              "id": "165679780146824", 
              "name": "Food & Restaurant"
            }
          ], 
          "location": {
            "city": "Corning", 
            "zip": "96021", 
            "country": "United States", 
            "longitude": -122.193141, 
            "state": "CA", 
            "street": "2011 Solano Street", 
            "latitude": 39.927880000000002
          }
        }, 
        {
          "category": "Local business", 
          "name": "Papa Murphy's Take 'N' Bake Pizza", 
          "id": "163822770312305", 
          "category_list": [
            {
              "id": "180256082015845", 
              "name": "Pizza Place"
            }
          ], 
          "location": {
            "city": "San Antonio", 
            "zip": "78251-1347", 
            "country": "United States", 
            "longitude": -98.701627823899997, 
            "state": "TX", 
            "street": "10670 Culebra Rd", 
            "latitude": 29.492495251699999
          }
        }, 
        {
          "category": "Food/grocery", 
          "name": "Papa Murphy's Take 'N' Bake Pizza", 
          "id": "202800109753818", 
          "category_list": [
            {
              "id": "150108431712141", 
              "name": "Food & Grocery"
            }, 
            {
              "id": "180256082015845", 
              "name": "Pizza Place"
            }
          ], 
          "location": {
            "city": "Decatur", 
            "zip": "35603", 
            "country": "United States", 
            "longitude": -87.008685999999997, 
            "state": "AL", 
            "street": "1406 Beltline Rd SW #B", 
            "latitude": 34.563944999999997
          }
        }, 
        {
          "category": "Local business", 
          "name": "Brencam Inc-Papa Murphy's Take 'N' Bake Pizza", 
          "id": "120742047937970", 
          "category_list": [
            {
              "id": "180256082015845", 
              "name": "Pizza Place"
            }
          ], 
          "location": {
            "city": "McKinleyville", 
            "zip": "95519-3606", 
            "country": "United States", 
            "longitude": -124.102188, 
            "state": "CA", 
            "street": "1940 Central Ave", 
            "latitude": 40.940781000000001
          }
        }, 
        {
          "category": "Restaurant/cafe", 
          "name": "Papa Murphy's Take N Bake, San Ramon", 
          "id": "138697726159580", 
          "category_list": [
            {
              "id": "180256082015845", 
              "name": "Pizza Place"
            }
          ], 
          "location": {
            "city": "San Ramon", 
            "zip": "94544", 
            "country": "United States", 
            "longitude": -121.944351, 
            "state": "CA", 
            "street": "21001 San Ramon Valley blvd", 
            "latitude": 37.724097999999998
          }
        }, 
        {
          "category": "Restaurant/cafe", 
          "name": "Papa Murphy's Take 'N Bake Pizza-  Spirit Lake Location", 
          "id": "349726595722", 
          "category_list": [
            {
              "id": "273819889375819", 
              "name": "Restaurant"
            }
          ], 
          "location": {
            "city": "Spirit Lake", 
            "zip": "51301", 
            "country": "United States", 
            "longitude": -95.126169000000004, 
            "state": "IA", 
            "street": "3601 Highway 71", 
            "latitude": 43.418888000000003
          }
        }
      ]
    }
  }, 
  {
    "business_name": "Sign Of The Whale", 
    "business_id": "1f_DXcxpAKfILKK6cDPLxQ", 
    "fb_pages": {
      "paging": {
        "next": "https://graph.facebook.com/search?type=place&access_token=229546593895315|yPLlHqq6YvDLIH4nL0kjJtIFSlU&limit=5000&offset=5000&__after_id=169125603097950"
      }, 
      "data": [
        {
          "category": "Local business", 
          "name": "Sign of The Whale", 
          "id": "163070907051104", 
          "category_list": [
            {
              "id": "187133811318958", 
              "name": "Business Services"
            }, 
            {
              "id": "164886566892249", 
              "name": "Advertising Agency"
            }
          ], 
          "location": {
            "city": "Tempe", 
            "zip": "85284-4545", 
            "country": "United States", 
            "longitude": -111.915059, 
            "state": "AZ", 
            "street": "1706 E Warner Rd", 
            "latitude": 33.334798999999997
          }
        }, 
        {
          "category": "Shopping/retail", 
          "name": "Sign of the Whale Antiques", 
          "id": "438344046202345", 
          "category_list": [
            {
              "id": "150732438316813", 
              "name": "Antique Store"
            }
          ], 
          "location": {
            "city": "Glen Ellyn", 
            "zip": "60137", 
            "country": "United States", 
            "longitude": -88.064053999999999, 
            "state": "IL", 
            "street": "558 Crescent Blvd", 
            "latitude": 41.877087000000003
          }
        }, 
        {
          "category": "Local business", 
          "name": "Sign of the Whale Bar", 
          "id": "279714545483335", 
          "category_list": [
            {
              "id": "184460441595855", 
              "name": "Sports Bar"
            }
          ], 
          "location": {
            "city": "Point Arena", 
            "zip": "95468", 
            "country": "United States", 
            "longitude": -123.692390551, 
            "state": "CA", 
            "street": "", 
            "latitude": 38.909205864199997
          }
        }, 
        {
          "category": "Local business", 
          "name": "Sign of The Whale Liquor", 
          "id": "107009682690030", 
          "category_list": [
            {
              "id": "199833073363963", 
              "name": "Liquor Store"
            }
          ], 
          "location": {
            "city": "Lexington Park", 
            "zip": "20653-1566", 
            "country": "United States", 
            "longitude": -76.458755999999994, 
            "state": "MD", 
            "street": "21899 Three Notch Rd Unit 7", 
            "latitude": 38.268397
          }
        }, 
        {
          "category": "Local business", 
          "name": "Sign of The Whale Restaurant", 
          "id": "111520548888725", 
          "category_list": [
            {
              "id": "192831537402299", 
              "name": "Family Style Restaurant"
            }
          ], 
          "location": {
            "city": "Falls Church", 
            "zip": "22042-3200", 
            "country": "United States", 
            "longitude": -77.198288000000005, 
            "state": "VA", 
            "street": "7279 Arlington Blvd", 
            "latitude": 38.864947999999998
          }
        }, 
        {
          "category": "Local business", 
          "name": "Sign O' The Whale", 
          "id": "169125603097950", 
          "category_list": [
            {
              "id": "187133811318958", 
              "name": "Business Services"
            }, 
            {
              "id": "164886566892249", 
              "name": "Advertising Agency"
            }, 
            {
              "id": "188953757794108", 
              "name": "Signs & Banner Service"
            }
          ], 
          "location": {
            "city": "Easton", 
            "zip": "21601-2924", 
            "country": "United States", 
            "longitude": -76.072272999999996, 
            "state": "MD", 
            "street": "208 Talbot St", 
            "latitude": 38.771141
          }
        }
      ]
    }
  }, 
  {
    "business_name": "Staples Copy & Print Centers", 
    "business_id": "DOZVo32Zk507SJhJSg2saA", 
    "fb_pages": {
      "paging": {
        "next": "https://graph.facebook.com/search?type=place&access_token=229546593895315|yPLlHqq6YvDLIH4nL0kjJtIFSlU&limit=5000&offset=5000&__after_id=159988680688612"
      }, 
      "data": [
        {
          "category": "Business services", 
          "name": "Staples Copy and Print Services", 
          "id": "189938754376316", 
          "category_list": [
            {
              "id": "187133811318958", 
              "name": "Business Services"
            }, 
            {
              "id": "200600219953504", 
              "name": "Shopping & Retail"
            }
          ], 
          "location": {
            "city": "Newport Beach", 
            "zip": "92660", 
            "country": "United States", 
            "longitude": -117.864861922, 
            "state": "CA", 
            "street": "3601 Jamboree, Ste. 16", 
            "latitude": 33.6567308367
          }
        }, 
        {
          "category": "Professional services", 
          "name": "Staples Copy and Print Centre Tunbridge Wells", 
          "id": "219829001526299", 
          "category_list": [
            {
              "id": "205510939478893", 
              "name": "Copying & Printing"
            }, 
            {
              "id": "197888373555475", 
              "name": "Printing Service"
            }
          ], 
          "location": {
            "city": "Tunbridge Wells", 
            "zip": "TN2 3UY", 
            "country": "United Kingdom", 
            "longitude": 0.28711843153257, 
            "state": "", 
            "street": "Unit 6, Fountains Retail Park, Longfield Road, Off Dowding Way", 
            "latitude": 51.156836627017
          }
        }, 
        {
          "category": "Business services", 
          "name": "Staples Copy & Print - Ocala", 
          "id": "221975971299056", 
          "category_list": [
            {
              "id": "187133811318958", 
              "name": "Business Services"
            }
          ], 
          "location": {
            "city": "Ocala", 
            "zip": "34470", 
            "country": "United States", 
            "longitude": -82.111924000000002, 
            "state": "FL", 
            "street": "1901 E Silver Springs Boulevard", 
            "latitude": 29.187128000000001
          }
        }, 
        {
          "category": "Shopping/retail", 
          "name": "Staples Copy & Print Nijmegen", 
          "id": "404272883020454", 
          "category_list": [
            {
              "id": "110249975723427", 
              "name": "Office Supplies"
            }
          ], 
          "location": {
            "city": "Nijmegen", 
            "zip": "6541 CX", 
            "country": "Netherlands", 
            "longitude": 5.8225510934300004, 
            "state": "", 
            "street": "Energieweg 42a", 
            "latitude": 51.841523760500003
          }
        }, 
        {
          "category": "Shopping/retail", 
          "name": "Staples Copy & Print Maastricht", 
          "id": "588944987801506", 
          "category_list": [
            {
              "id": "200600219953504", 
              "name": "Shopping & Retail"
            }
          ], 
          "location": {
            "city": "Maastricht", 
            "zip": "6222 NZ", 
            "country": "Netherlands", 
            "longitude": 5.7137750691034004, 
            "state": "", 
            "street": "Fregatweg 130", 
            "latitude": 50.873565133957001
          }
        }, 
        {
          "category": "Shopping/retail", 
          "name": "Staples copy&print Beverwijk", 
          "id": "371496509634974", 
          "category_list": [
            {
              "id": "197888373555475", 
              "name": "Printing Service"
            }, 
            {
              "id": "200600219953504", 
              "name": "Shopping & Retail"
            }
          ], 
          "location": {
            "city": "Beverwijk", 
            "zip": "1948NK", 
            "country": "Netherlands", 
            "longitude": 4.6628309413800002, 
            "state": "", 
            "street": "Parallelweg 45a", 
            "latitude": 52.478823596700003
          }
        }, 
        {
          "category": "Business services", 
          "name": "Staples Copy&Print", 
          "id": "426628114118413", 
          "category_list": [
            {
              "id": "197888373555475", 
              "name": "Printing Service"
            }, 
            {
              "id": "205510939478893", 
              "name": "Copying & Printing"
            }
          ], 
          "location": {
            "city": "Groningen", 
            "zip": "9723 JA", 
            "country": "Netherlands", 
            "longitude": 6.6081753193994004, 
            "state": "", 
            "street": "Kieler Bocht 11", 
            "latitude": 53.215957843596001
          }
        }, 
        {
          "category": "Shopping/retail", 
          "name": "Staples Copy & Print Tilburg", 
          "id": "531823100196044", 
          "category_list": [
            {
              "id": "200600219953504", 
              "name": "Shopping & Retail"
            }
          ], 
          "location": {
            "city": "Tilburg", 
            "zip": "5026 RS", 
            "country": "Netherlands", 
            "longitude": 5.0591489124700004, 
            "state": "", 
            "street": "Charles Stulemeijerweg 3", 
            "latitude": 51.541705696699999
          }
        }, 
        {
          "category": "Business services", 
          "name": "Staples Copy Center Goldsboro", 
          "id": "223362854411101", 
          "category_list": [
            {
              "id": "187133811318958", 
              "name": "Business Services"
            }
          ], 
          "location": {
            "city": "Goldsboro", 
            "zip": "27534", 
            "country": "United States", 
            "longitude": -77.933902000000003, 
            "state": "NC", 
            "street": "1101B Berkeley Blvd", 
            "latitude": 35.380052999999997
          }
        }, 
        {
          "category": "Shopping/retail", 
          "name": "Gilroy Staples - Copy & Print Center", 
          "id": "154173064789874", 
          "category_list": [
            {
              "id": "205510939478893", 
              "name": "Copying & Printing"
            }
          ], 
          "location": {
            "city": "Gilroy", 
            "zip": "95020", 
            "country": "United States", 
            "longitude": -121.565956, 
            "state": "CA", 
            "street": "8840 San Ysidro Ave", 
            "latitude": 37.028030000000001
          }
        }, 
        {
          "category": "Local business", 
          "name": "Staples", 
          "id": "193922433968737", 
          "category_list": [
            {
              "id": "205510939478893", 
              "name": "Copying & Printing"
            }, 
            {
              "id": "110249975723427", 
              "name": "Office Supplies"
            }
          ], 
          "location": {
            "city": "Surrey", 
            "zip": "", 
            "country": "Canada", 
            "longitude": -122.89117541100001, 
            "state": "BC", 
            "street": "", 
            "latitude": 49.136209847899998
          }
        }, 
        {
          "category": "Local business", 
          "name": "Staples Copy&Print Duiven", 
          "id": "189521907838102", 
          "category_list": [
            {
              "id": "2500", 
              "name": "Local Business"
            }
          ], 
          "location": {
            "city": "Duiven", 
            "zip": "6921 RJ", 
            "country": "Netherlands", 
            "longitude": 5.9928894583053998, 
            "state": "", 
            "street": "Nieuwgraaf 18", 
            "latitude": 51.965395397279003
          }
        }, 
        {
          "category": "Business services", 
          "name": "Staples Copy & Print Centre", 
          "id": "452176704865166", 
          "category_list": [
            {
              "id": "176831012360626", 
              "name": "Professional Services"
            }
          ], 
          "location": {
            "city": "Calgary", 
            "zip": " T3A 0E2", 
            "country": "Canada", 
            "longitude": -114.203598265, 
            "state": "AB", 
            "street": "3625 Shaganappi Tr. NW", 
            "latitude": 51.127562819700003
          }
        }, 
        {
          "category": "Local business", 
          "name": "Staples Copy Center", 
          "id": "127031330682659", 
          "category_list": [
            {
              "id": "110249975723427", 
              "name": "Office Supplies"
            }, 
            {
              "id": "162183907165552", 
              "name": "Graphic Design"
            }, 
            {
              "id": "197888373555475", 
              "name": "Printing Service"
            }
          ], 
          "location": {
            "city": "Torrington", 
            "zip": "06790", 
            "country": "United States", 
            "longitude": -73.121149000000003, 
            "state": "CT", 
            "street": "15 South Main St.", 
            "latitude": 41.799841999999998
          }
        }, 
        {
          "category": "Business services", 
          "name": "Staples Copy & Print", 
          "id": "1426134707599141", 
          "category_list": [
            {
              "id": "205510939478893", 
              "name": "Copying & Printing"
            }
          ], 
          "location": {
            "city": "Rotterdam", 
            "zip": "3047 BP", 
            "country": "Netherlands", 
            "longitude": 4.4080907702263996, 
            "state": "", 
            "street": "Sydneystraat 10", 
            "latitude": 51.941256122984001
          }
        }, 
        {
          "category": "Local business", 
          "name": "Staples Copy and Print Shop", 
          "id": "122979941128480", 
          "category_list": [
            {
              "id": "2500", 
              "name": "Local Business"
            }
          ], 
          "location": {
            "city": "Medford", 
            "zip": "02155", 
            "country": "United States", 
            "longitude": -71.110827326800006, 
            "state": "MA", 
            "street": "", 
            "latitude": 42.415412664400002
          }
        }, 
        {
          "category": "Local business", 
          "name": "Staples Copy Center", 
          "id": "152766441444989", 
          "category_list": [
            {
              "id": "200600219953504", 
              "name": "Shopping & Retail"
            }
          ], 
          "location": {
            "city": "Summerville", 
            "zip": "29483", 
            "country": "United States", 
            "longitude": -80.155037080599996, 
            "state": "SC", 
            "street": "", 
            "latitude": 33.037132199600002
          }
        }, 
        {
          "category": "Local business", 
          "name": "Staples Copy & Print Shop", 
          "id": "155771377794217", 
          "category_list": [
            {
              "id": "151931054869702", 
              "name": "Document Service"
            }, 
            {
              "id": "110249975723427", 
              "name": "Office Supplies"
            }, 
            {
              "id": "188953757794108", 
              "name": "Signs & Banner Service"
            }
          ], 
          "location": {
            "city": "New York", 
            "zip": "10011-7305", 
            "country": "United States", 
            "longitude": -73.998019999999997, 
            "state": "NY", 
            "street": "116 W 14th St Frnt 1", 
            "latitude": 40.737504999999999
          }
        }, 
        {
          "category": "Local business", 
          "name": "staples copy&print shop", 
          "id": "167162890013011", 
          "category_list": [
            {
              "id": "200600219953504", 
              "name": "Shopping & Retail"
            }, 
            {
              "id": "187133811318958", 
              "name": "Business Services"
            }
          ], 
          "location": {
            "city": "New York", 
            "zip": "10004", 
            "country": "United States", 
            "longitude": -74.014224100000007, 
            "state": "NY", 
            "street": "", 
            "latitude": 40.702461200000002
          }
        }, 
        {
          "category": "Local business", 
          "name": "Staples Copy And Print", 
          "id": "176062545764144", 
          "category_list": [
            {
              "id": "200600219953504", 
              "name": "Shopping & Retail"
            }, 
            {
              "id": "197888373555475", 
              "name": "Printing Service"
            }
          ], 
          "location": {
            "city": "Santa Ana", 
            "zip": "92704", 
            "country": "United States", 
            "longitude": -117.90716692700001, 
            "state": "CA", 
            "street": "", 
            "latitude": 33.701296280000001
          }
        }, 
        {
          "category": "Local business", 
          "name": "Staples Copy Center", 
          "id": "176704102342845", 
          "category_list": [
            {
              "id": "151931054869702", 
              "name": "Document Service"
            }, 
            {
              "id": "200600219953504", 
              "name": "Shopping & Retail"
            }
          ], 
          "location": {
            "city": "El Cerrito", 
            "zip": "94530", 
            "country": "United States", 
            "longitude": -122.31862841900001, 
            "state": "CA", 
            "street": "", 
            "latitude": 37.923805273399999
          }
        }, 
        {
          "category": "Local business", 
          "name": "Staples-Copy & Print Center", 
          "id": "185441028172894", 
          "category_list": [
            {
              "id": "200600219953504", 
              "name": "Shopping & Retail"
            }, 
            {
              "id": "151931054869702", 
              "name": "Document Service"
            }
          ], 
          "location": {
            "city": "Chicago", 
            "zip": "60607", 
            "country": "United States", 
            "longitude": -87.639694527700001, 
            "state": "IL", 
            "street": "", 
            "latitude": 41.867725759499997
          }
        }, 
        {
          "category": "Local business", 
          "name": "staples copy&print", 
          "id": "190728240944676", 
          "category_list": [
            {
              "id": "200600219953504", 
              "name": "Shopping & Retail"
            }, 
            {
              "id": "151931054869702", 
              "name": "Document Service"
            }
          ], 
          "location": {
            "city": "Boston", 
            "zip": "", 
            "country": "United States", 
            "longitude": -71.083665890700004, 
            "state": "MA", 
            "street": "", 
            "latitude": 42.348297719000001
          }
        }, 
        {
          "category": "Local business", 
          "name": "Staples Copy Center", 
          "id": "201632456514245", 
          "category_list": [
            {
              "id": "151931054869702", 
              "name": "Document Service"
            }, 
            {
              "id": "200600219953504", 
              "name": "Shopping & Retail"
            }
          ], 
          "location": {
            "city": "Brooklyn", 
            "zip": "", 
            "country": "United States", 
            "longitude": -73.986531481, 
            "state": "NY", 
            "street": "", 
            "latitude": 40.6742556859
          }
        }, 
        {
          "category": "Local business", 
          "name": "Staples Copy & Print Center", 
          "id": "206928122721776", 
          "category_list": [
            {
              "id": "2500", 
              "name": "Local Business"
            }
          ], 
          "location": {
            "city": "New York", 
            "zip": "", 
            "country": "United States", 
            "longitude": -73.901754894785995, 
            "state": "NY", 
            "street": "", 
            "latitude": 40.863727191401999
          }
        }, 
        {
          "category": "Local business", 
          "name": "Staples Copy And Print Shop", 
          "id": "207695375919753", 
          "category_list": [
            {
              "id": "197888373555475", 
              "name": "Printing Service"
            }, 
            {
              "id": "110249975723427", 
              "name": "Office Supplies"
            }
          ], 
          "location": {
            "city": "Glendale", 
            "zip": "", 
            "country": "United States", 
            "longitude": -118.257124448, 
            "state": "CA", 
            "street": "", 
            "latitude": 34.147955383999999
          }
        }, 
        {
          "category": "Local business", 
          "name": "Staples Copy & Print Center", 
          "id": "271057946311140", 
          "category_list": [
            {
              "id": "2500", 
              "name": "Local Business"
            }
          ], 
          "location": {
            "city": "Huntington Park", 
            "zip": "", 
            "country": "United States", 
            "longitude": -118.213639875, 
            "state": "CA", 
            "street": "", 
            "latitude": 33.988568200000003
          }
        }, 
        {
          "category": "Local business", 
          "name": "Staples Copy And Printshop", 
          "id": "186247138087537", 
          "category_list": [
            {
              "id": "200600219953504", 
              "name": "Shopping & Retail"
            }, 
            {
              "id": "176831012360626", 
              "name": "Professional Services"
            }
          ], 
          "location": {
            "city": "Marina del Rey", 
            "zip": "", 
            "country": "United States", 
            "longitude": -118.44768881100001, 
            "state": "CA", 
            "street": "", 
            "latitude": 33.990788350300001
          }
        }, 
        {
          "category": "Local business", 
          "name": "Staples", 
          "id": "131104503619974", 
          "category_list": [
            {
              "id": "205510939478893", 
              "name": "Copying & Printing"
            }, 
            {
              "id": "110249975723427", 
              "name": "Office Supplies"
            }
          ], 
          "location": {
            "city": "Maple Ridge District Municipality", 
            "zip": "", 
            "country": "Canada", 
            "longitude": -122.666276223, 
            "state": "BC", 
            "street": "", 
            "latitude": 49.220932648100003
          }
        }, 
        {
          "category": "Local business", 
          "name": "Staples", 
          "id": "147119991988261", 
          "category_list": [
            {
              "id": "205510939478893", 
              "name": "Copying & Printing"
            }, 
            {
              "id": "110249975723427", 
              "name": "Office Supplies"
            }
          ], 
          "location": {
            "city": "Ajax", 
            "zip": "L1S7L8", 
            "country": "Canada", 
            "longitude": -79.025721104699997, 
            "state": "ON", 
            "street": "16 Harwood Ave S", 
            "latitude": 43.859748333200002
          }
        }, 
        {
          "category": "Local business", 
          "name": "Staples", 
          "id": "167675266582909", 
          "category_list": [
            {
              "id": "205510939478893", 
              "name": "Copying & Printing"
            }, 
            {
              "id": "110249975723427", 
              "name": "Office Supplies"
            }
          ], 
          "location": {
            "city": "Greenfield", 
            "zip": "01301-9621", 
            "country": "United States", 
            "longitude": -72.626228999999995, 
            "state": "MA", 
            "street": "259 Mohawk Trl", 
            "latitude": 42.588338999999998
          }
        }, 
        {
          "category": "Local business", 
          "name": "Staples", 
          "id": "171880446181890", 
          "category_list": [
            {
              "id": "205510939478893", 
              "name": "Copying & Printing"
            }, 
            {
              "id": "110249975723427", 
              "name": "Office Supplies"
            }
          ], 
          "location": {
            "city": "Surrey", 
            "zip": "", 
            "country": "Canada", 
            "longitude": -122.84450502599999, 
            "state": "BC", 
            "street": "", 
            "latitude": 49.186923702400001
          }
        }, 
        {
          "category": "Business services", 
          "name": "Fans of Staples", 
          "id": "589802834391559", 
          "category_list": [
            {
              "id": "205510939478893", 
              "name": "Copying & Printing"
            }
          ], 
          "location": {
            "city": "Massapequa", 
            "zip": "", 
            "country": "United States", 
            "longitude": -73.436508000000003, 
            "state": "NY", 
            "street": "5500 Sunrise Highway", 
            "latitude": 40.678150000000002
          }
        }, 
        {
          "category": "Local business", 
          "name": "UPS Store on Staples Mill Road", 
          "id": "144082788956155", 
          "category_list": [
            {
              "id": "205510939478893", 
              "name": "Copying & Printing"
            }, 
            {
              "id": "108459679231422", 
              "name": "Notary Public"
            }, 
            {
              "id": "124999390906893", 
              "name": "Packaging Supplies & Equipment"
            }
          ], 
          "location": {
            "city": "Richmond", 
            "zip": "23228", 
            "country": "United States", 
            "longitude": -77.498536000000001, 
            "state": "VA", 
            "street": "7330 Staples Mill Rd", 
            "latitude": 37.616450999999998
          }
        }, 
        {
          "category": "Local business", 
          "name": "Danka", 
          "id": "159988680688612", 
          "category_list": [
            {
              "id": "205510939478893", 
              "name": "Copying & Printing"
            }
          ], 
          "location": {
            "city": "Corpus Christi", 
            "zip": "78413-3884", 
            "country": "United States", 
            "longitude": -97.375679000000005, 
            "state": "TX", 
            "street": "5702 S Staples St Ste E4", 
            "latitude": 27.697220000000002
          }
        }
      ]
    }
  }, 
  {
    "business_name": "St Andrew the Apostle Catholic Church", 
    "business_id": "UVehGYYtA4i5xmFwpIUhLQ", 
    "fb_pages": {
      "paging": {
        "next": "https://graph.facebook.com/search?type=place&access_token=229546593895315|yPLlHqq6YvDLIH4nL0kjJtIFSlU&limit=5000&offset=5000&__after_id=136721696370246"
      }, 
      "data": [
        {
          "category": "Local business", 
          "name": "St Andrew The Apostle Catholic Church", 
          "id": "109488799090134", 
          "category_list": [
            {
              "id": "187714557925874", 
              "name": "Religious Organization"
            }, 
            {
              "id": "175647552480085", 
              "name": "Catholic Church"
            }
          ], 
          "location": {
            "city": "Chandler", 
            "zip": "85226-2300", 
            "country": "United States", 
            "longitude": -111.90165833924, 
            "state": "AZ", 
            "street": "3450 W Ray Rd", 
            "latitude": 33.320605279379002
          }
        }, 
        {
          "category": "Local business", 
          "name": "St Andrew The Apostle Catholic Church", 
          "id": "120554324622953", 
          "category_list": [
            {
              "id": "175647552480085", 
              "name": "Catholic Church"
            }
          ], 
          "location": {
            "city": "Lufkin", 
            "zip": "75904-5529", 
            "country": "United States", 
            "longitude": -94.740452389400005, 
            "state": "TX", 
            "street": "1611 Feagin Dr", 
            "latitude": 31.312249357199999
          }
        }, 
        {
          "category": "Local business", 
          "name": "St Andrew The Apostle Catholic Church", 
          "id": "156918644353506", 
          "category_list": [
            {
              "id": "175647552480085", 
              "name": "Catholic Church"
            }
          ], 
          "location": {
            "latitude": -33.748216656899999, 
            "street": "", 
            "zip": "", 
            "longitude": 150.89017571700001
          }
        }, 
        {
          "category": "Local business", 
          "name": "St Andrew The Apostle Catholic Church", 
          "id": "113535685347637", 
          "category_list": [
            {
              "id": "175647552480085", 
              "name": "Catholic Church"
            }
          ], 
          "location": {
            "city": "Norton", 
            "zip": "44203-5931", 
            "country": "United States", 
            "longitude": -81.667427000000004, 
            "state": "OH", 
            "street": "4022 Johnson Rd", 
            "latitude": 41.003749999999997
          }
        }, 
        {
          "category": "Local business", 
          "name": "St. Andrew Apostle Catholic Church", 
          "id": "201938743254297", 
          "category_list": [
            {
              "id": "175647552480085", 
              "name": "Catholic Church"
            }
          ], 
          "location": {
            "city": "Silver Spring", 
            "zip": "20902", 
            "country": "United States", 
            "longitude": -77.030870065612007, 
            "state": "MD", 
            "street": "11600 Kemp Mill Road", 
            "latitude": 39.047096376193998
          }
        }, 
        {
          "category": "Local business", 
          "name": "St Andrew The Apostle", 
          "id": "121727357838176", 
          "category_list": [
            {
              "id": "175647552480085", 
              "name": "Catholic Church"
            }
          ], 
          "location": {
            "city": "Clifton", 
            "zip": "07012-1023", 
            "country": "United States", 
            "longitude": -74.161867141970006, 
            "state": "NJ", 
            "street": "400 Mount Prospect Ave", 
            "latitude": 40.855294986723997
          }
        }, 
        {
          "category": "Local business", 
          "name": "St Andrew The Apostle", 
          "id": "120120181333742", 
          "category_list": [
            {
              "id": "175647552480085", 
              "name": "Catholic Church"
            }
          ], 
          "location": {
            "city": "New Orleans", 
            "zip": "70131-5331", 
            "country": "United States", 
            "longitude": -89.999869060373001, 
            "state": "LA", 
            "street": "3127 Eton St", 
            "latitude": 29.921044678398999
          }
        }, 
        {
          "category": "Local business", 
          "name": "St Andrew The Apostle Catholic Church", 
          "id": "157229987643633", 
          "category_list": [
            {
              "id": "187714557925874", 
              "name": "Religious Organization"
            }, 
            {
              "id": "175647552480085", 
              "name": "Catholic Church"
            }
          ], 
          "location": {
            "city": "Indianapolis", 
            "zip": "46218-1442", 
            "country": "United States", 
            "longitude": -86.099188706500001, 
            "state": "IN", 
            "street": "3922 E 38th St", 
            "latitude": 39.8261930022
          }
        }, 
        {
          "category": "Local business", 
          "name": "St Andrew The Apostle Catholic Church", 
          "id": "115836578438871", 
          "category_list": [
            {
              "id": "175647552480085", 
              "name": "Catholic Church"
            }
          ], 
          "location": {
            "city": "Lexington", 
            "zip": "38351-4021", 
            "country": "United States", 
            "longitude": -88.385428000000005, 
            "state": "TN", 
            "street": "895 N Broad St", 
            "latitude": 35.677112000000001
          }
        }, 
        {
          "category": "Local business", 
          "name": "St. Andrew the Apostle Parish", 
          "id": "187017791309830", 
          "category_list": [
            {
              "id": "175647552480085", 
              "name": "Catholic Church"
            }
          ], 
          "location": {
            "city": "Makati", 
            "zip": "", 
            "country": "Philippines", 
            "longitude": 121.02358100447999, 
            "state": "", 
            "street": "N. Garcia St. cor. Kalayaan Ave. Bel-Air II", 
            "latitude": 14.566110401209
          }
        }, 
        {
          "category": "Church/religious organization", 
          "name": "St. Andrew the Apostle Church/School Alumni -Calumet City", 
          "id": "113676132036655", 
          "category_list": [
            {
              "id": "175647552480085", 
              "name": "Catholic Church"
            }
          ], 
          "location": {
            "city": "Calumet City", 
            "zip": "60409", 
            "country": "United States", 
            "longitude": -87.532476000000003, 
            "state": "IL", 
            "street": "768 Lincoln Avenue", 
            "latitude": 41.612665
          }
        }, 
        {
          "category": "Local business", 
          "name": "St Andrew The Apostle Roman Catholic Church", 
          "id": "115925505094955", 
          "category_list": [
            {
              "id": "175647552480085", 
              "name": "Catholic Church"
            }
          ], 
          "location": {
            "city": "Gibbsboro", 
            "zip": "08026-1127", 
            "country": "United States", 
            "longitude": -74.957912941364, 
            "state": "NJ", 
            "street": "120 United States Ave E", 
            "latitude": 39.838753666344999
          }
        }, 
        {
          "category": "Church/religious organization", 
          "name": "St. Andrew the Apostle Apex", 
          "id": "118256084874648", 
          "category_list": [
            {
              "id": "175647552480085", 
              "name": "Catholic Church"
            }
          ], 
          "location": {
            "city": "Apex", 
            "zip": "27518", 
            "country": "United States", 
            "longitude": -78.8214757808, 
            "state": "NC", 
            "street": "3008 Old Raleigh Rd", 
            "latitude": 35.740774749099998
          }
        }, 
        {
          "category": "Local business", 
          "name": "St Andrew The Apostle Church", 
          "id": "105446999521470", 
          "category_list": [
            {
              "id": "175647552480085", 
              "name": "Catholic Church"
            }
          ], 
          "location": {
            "city": "Sierra Vista", 
            "zip": "85635-1050", 
            "country": "United States", 
            "longitude": -110.302224, 
            "state": "AZ", 
            "street": "800 Taylor Dr", 
            "latitude": 31.562445
          }
        }, 
        {
          "category": "Local business", 
          "name": "St Andrew The Apostle Byzantine Catholic Church", 
          "id": "116563068368230", 
          "category_list": [
            {
              "id": "175647552480085", 
              "name": "Catholic Church"
            }
          ], 
          "location": {
            "city": "Westbury", 
            "zip": "11590-1808", 
            "country": "United States", 
            "longitude": -73.598775000000003, 
            "state": "NY", 
            "street": "275 Ellison Ave", 
            "latitude": 40.756239999999998
          }
        }, 
        {
          "category": "Local business", 
          "name": "St Andrew The Apostle Byzantine Catholic Church", 
          "id": "120641194614710", 
          "category_list": [
            {
              "id": "175647552480085", 
              "name": "Catholic Church"
            }, 
            {
              "id": "178669642178193", 
              "name": "Social Services"
            }, 
            {
              "id": "184266718279692", 
              "name": "Christian Church"
            }
          ], 
          "location": {
            "city": "Gibsonia", 
            "zip": "15044-6093", 
            "country": "United States", 
            "longitude": -80.022036999999997, 
            "state": "PA", 
            "street": "235 Logan Rd", 
            "latitude": 40.646054999999997
          }
        }, 
        {
          "category": "Church/religious organization", 
          "name": "The Cathedral Church of St. Andrew the Apostle", 
          "id": "207136468187", 
          "category_list": [
            {
              "id": "192134360811676", 
              "name": "Church"
            }
          ], 
          "location": {
            "city": "Peoria", 
            "zip": "61603", 
            "country": "United States", 
            "longitude": -89.573593000000002, 
            "state": "IL", 
            "street": "1601 NE Madison Ave", 
            "latitude": 40.705680999999998
          }
        }, 
        {
          "category": "Local business", 
          "name": "St. Andrew the Apostle", 
          "id": "192129994154600", 
          "category_list": [
            {
              "id": "175647552480085", 
              "name": "Catholic Church"
            }, 
            {
              "id": "151676848220295", 
              "name": "Education"
            }
          ], 
          "location": {
            "city": "Romeoville", 
            "zip": "60446", 
            "country": "United States", 
            "longitude": -88.090484408500004, 
            "state": "IL", 
            "street": "", 
            "latitude": 41.649443871800003
          }
        }, 
        {
          "category": "Local business", 
          "name": "Saint Andrew The Apostle Catholic Church", 
          "id": "116303711728098", 
          "category_list": [
            {
              "id": "175647552480085", 
              "name": "Catholic Church"
            }
          ], 
          "location": {
            "city": "Clifton", 
            "zip": "20124-1115", 
            "country": "United States", 
            "longitude": -77.421261203881997, 
            "state": "VA", 
            "street": "6720 Union Mill Rd", 
            "latitude": 38.805079360402999
          }
        }, 
        {
          "category": "Local business", 
          "name": "St Andrew The Apostle", 
          "id": "108213065886804", 
          "category_list": [
            {
              "id": "175647552480085", 
              "name": "Catholic Church"
            }
          ], 
          "location": {
            "city": "Brooklyn", 
            "zip": "11220-5205", 
            "country": "United States", 
            "longitude": -74.027744132500004, 
            "state": "NY", 
            "street": "6713 Ridge Blvd", 
            "latitude": 40.638254288799999
          }
        }, 
        {
          "category": "Local business", 
          "name": "St Andrews The Apostle Catholic Church", 
          "id": "113350665365434", 
          "category_list": [
            {
              "id": "175647552480085", 
              "name": "Catholic Church"
            }
          ], 
          "location": {
            "city": "Wray", 
            "zip": "80758-1628", 
            "country": "United States", 
            "longitude": -102.227351, 
            "state": "CO", 
            "street": "412 Dexter St", 
            "latitude": 40.077682000000003
          }
        }, 
        {
          "category": "Local business", 
          "name": "Saint Andrew the Apostle School", 
          "id": "136721696370246", 
          "category_list": [
            {
              "id": "175647552480085", 
              "name": "Catholic Church"
            }, 
            {
              "id": "151676848220295", 
              "name": "Education"
            }
          ], 
          "location": {
            "city": "Kansas City", 
            "zip": "64119", 
            "country": "United States", 
            "longitude": -94.534606649300002, 
            "state": "MO", 
            "street": "", 
            "latitude": 39.211146949099998
          }
        }
      ]
    }
  }, 
  {
    "business_name": "Amano Pizza Bistro", 
    "business_id": "uYj2NO1HZRNiD-de_pSdJA", 
    "fb_pages": {
      "paging": {
        "next": "https://graph.facebook.com/search?type=place&access_token=229546593895315|yPLlHqq6YvDLIH4nL0kjJtIFSlU&limit=5000&offset=5000&__after_id=111644945539397"
      }, 
      "data": [
        {
          "category": "Local business", 
          "name": "Amano Pizza Bistro", 
          "id": "111644945539397", 
          "category_list": [
            {
              "id": "110290705711626", 
              "name": "Bar"
            }, 
            {
              "id": "180256082015845", 
              "name": "Pizza Place"
            }
          ], 
          "location": {
            "city": "Phoenix", 
            "zip": "85042-6732", 
            "country": "United States", 
            "longitude": -112.04947086931, 
            "state": "AZ", 
            "street": "1541 E Baseline Rd", 
            "latitude": 33.377409229092997
          }
        }
      ]
    }
  }, 
  {
    "business_name": "Niro's Gyros", 
    "business_id": "nBrD6TxddhHx4FhMk32JvQ", 
    "fb_pages": {
      "paging": {
        "next": "https://graph.facebook.com/search?type=place&access_token=229546593895315|yPLlHqq6YvDLIH4nL0kjJtIFSlU&limit=5000&offset=5000&__after_id=382218261887801"
      }, 
      "data": [
        {
          "category": "Local business", 
          "name": "Niro's Gyros", 
          "id": "120539924628967", 
          "category_list": [
            {
              "id": "192803624072087", 
              "name": "Fast Food Restaurant"
            }, 
            {
              "id": "144722595590046", 
              "name": "Greek Restaurant"
            }
          ], 
          "location": {
            "city": "Phoenix", 
            "zip": "85044-1780", 
            "country": "United States", 
            "longitude": -111.98083616647, 
            "state": "AZ", 
            "street": "10826 S 48th St", 
            "latitude": 33.348030873101997
          }
        }, 
        {
          "category": "Local business", 
          "name": "Niro's Gyros", 
          "id": "113957351967954", 
          "category_list": [
            {
              "id": "192803624072087", 
              "name": "Fast Food Restaurant"
            }, 
            {
              "id": "144722595590046", 
              "name": "Greek Restaurant"
            }
          ], 
          "location": {
            "city": "Champaign", 
            "zip": "61821-3005", 
            "country": "United States", 
            "longitude": -88.280433441439996, 
            "state": "IL", 
            "street": "2001 W Springfield Ave", 
            "latitude": 40.112600181845004
          }
        }, 
        {
          "category": "Local business", 
          "name": "Niro's Gyros", 
          "id": "195843667101427", 
          "category_list": [
            {
              "id": "192803624072087", 
              "name": "Fast Food Restaurant"
            }
          ], 
          "location": {
            "city": "Manteno", 
            "zip": "60950", 
            "country": "United States", 
            "longitude": -87.832852082800002, 
            "state": "IL", 
            "street": "", 
            "latitude": 41.248179372400003
          }
        }, 
        {
          "category": "Local business", 
          "name": "Niro's Gyro's", 
          "id": "117272854966155", 
          "category_list": [
            {
              "id": "192803624072087", 
              "name": "Fast Food Restaurant"
            }, 
            {
              "id": "144722595590046", 
              "name": "Greek Restaurant"
            }
          ], 
          "location": {
            "city": "Bradley", 
            "zip": "60915-2630", 
            "country": "United States", 
            "longitude": -87.877418357699995, 
            "state": "IL", 
            "street": "545 S Kennedy Dr", 
            "latitude": 41.137561328700002
          }
        }, 
        {
          "category": "Restaurant/cafe", 
          "name": "Niro's Gyros Tempe", 
          "id": "136247686461663", 
          "category_list": [
            {
              "id": "212285478786733", 
              "name": "Hot Dog Joint"
            }, 
            {
              "id": "192803624072087", 
              "name": "Fast Food Restaurant"
            }, 
            {
              "id": "187425207958280", 
              "name": "Burger Restaurant"
            }
          ], 
          "location": {
            "city": "Tempe", 
            "zip": "85281", 
            "country": "United States", 
            "longitude": -111.908501, 
            "state": "AZ", 
            "street": "1825 E. University Dr.", 
            "latitude": 33.421677000000003
          }
        }, 
        {
          "category": "Local business", 
          "name": "Niros Gyros", 
          "id": "111744262196195", 
          "category_list": [
            {
              "id": "144722595590046", 
              "name": "Greek Restaurant"
            }, 
            {
              "id": "192803624072087", 
              "name": "Fast Food Restaurant"
            }
          ], 
          "location": {
            "city": "Knoxville", 
            "zip": "37916-2403", 
            "country": "United States", 
            "longitude": -83.933009430503006, 
            "state": "TN", 
            "street": "711 17th St", 
            "latitude": 35.957156127329
          }
        }, 
        {
          "category": "Local business", 
          "name": "Niros Gyros", 
          "id": "121000561244922", 
          "category_list": [
            {
              "id": "192803624072087", 
              "name": "Fast Food Restaurant"
            }
          ], 
          "location": {
            "city": "Raleigh", 
            "zip": "27601-2905", 
            "country": "United States", 
            "longitude": -78.640411, 
            "state": "NC", 
            "street": "126 S Salisbury St", 
            "latitude": 35.778629000000002
          }
        }, 
        {
          "category": "Local business", 
          "name": "Niros Gyros", 
          "id": "140237339356530", 
          "category_list": [
            {
              "id": "273819889375819", 
              "name": "Restaurant"
            }
          ], 
          "location": {
            "city": "Rantoul", 
            "zip": "61866-3201", 
            "country": "United States", 
            "longitude": -88.136657, 
            "state": "IL", 
            "street": "405 S Maplewood Dr", 
            "latitude": 40.308411999999997
          }
        }, 
        {
          "category": "Restaurant/cafe", 
          "name": "Niros Gyros", 
          "id": "382218261887801", 
          "category_list": [
            {
              "id": "273819889375819", 
              "name": "Restaurant"
            }
          ], 
          "location": {
            "city": "Beecher", 
            "zip": "60401", 
            "country": "United States", 
            "longitude": -87.621561, 
            "state": "IL", 
            "street": "632 Dixie Hwy", 
            "latitude": 41.343046999999999
          }
        }
      ]
    }
  }, 
  {
    "business_name": "Arizona Foot Health, PC", 
    "business_id": "UQnDD6-KDLGRRCOrj_PiMg", 
    "fb_pages": {
      "paging": {
        "next": "https://graph.facebook.com/search?type=place&access_token=229546593895315|yPLlHqq6YvDLIH4nL0kjJtIFSlU&limit=5000&offset=5000&__after_id=133995369983931"
      }, 
      "data": [
        {
          "category": "Hospital/clinic", 
          "name": "Arizona Foot Health, P.C.", 
          "id": "133995369983931", 
          "category_list": [
            {
              "id": "190310404327530", 
              "name": "Podiatrist"
            }, 
            {
              "id": "137847742955715", 
              "name": "Clinic"
            }
          ], 
          "location": {
            "city": "Phoenix", 
            "zip": "85017-1919", 
            "country": "United States", 
            "longitude": -112.131905, 
            "state": "AZ", 
            "street": "3401 W. Bethany Home Rd.", 
            "latitude": 33.523769000000001
          }
        }
      ]
    }
  }, 
  {
    "business_name": "Victory Bmw Vespa", 
    "business_id": "kzZJjm56gG0aSpyA-dS3eA", 
    "fb_pages": {
      "data": []
    }
  }, 
  {
    "business_name": "Lunar Golf", 
    "business_id": "TQC7zn0qh0Tz-go7e1D-BA", 
    "fb_pages": {
      "paging": {
        "next": "https://graph.facebook.com/search?type=place&access_token=229546593895315|yPLlHqq6YvDLIH4nL0kjJtIFSlU&limit=5000&offset=5000&__after_id=135405256509724"
      }, 
      "data": [
        {
          "category": "Local business", 
          "name": "Lunar Golf", 
          "id": "232612683431605", 
          "category_list": [
            {
              "id": "145250718867825", 
              "name": "Miniature Golf"
            }, 
            {
              "id": "176059775772759", 
              "name": "Golf Course"
            }
          ], 
          "location": {
            "city": "Wichita Falls", 
            "zip": "76308", 
            "country": "United States", 
            "longitude": -98.531664869598998, 
            "state": "TX", 
            "street": "", 
            "latitude": 33.868946828089001
          }
        }, 
        {
          "category": "Local business", 
          "name": "Lunar Golf.(:", 
          "id": "203059603043138", 
          "category_list": [
            {
              "id": "176059775772759", 
              "name": "Golf Course"
            }
          ], 
          "location": {
            "city": "Cincinnati", 
            "zip": "45245", 
            "country": "United States", 
            "longitude": -84.277797983900001, 
            "state": "OH", 
            "street": "", 
            "latitude": 39.104012462199996
          }
        }, 
        {
          "category": "Local business", 
          "name": "Lunar Golf", 
          "id": "225799774118602", 
          "category_list": [
            {
              "id": "186982054657561", 
              "name": "Sports & Recreation"
            }
          ], 
          "location": {
            "city": "Phoenix", 
            "zip": "85051", 
            "country": "United States", 
            "longitude": -112.12216060199999, 
            "state": "AZ", 
            "street": "", 
            "latitude": 33.575836957100002
          }
        }, 
        {
          "category": "Local business", 
          "name": "Lunar Mini Golf", 
          "id": "121018681246331", 
          "category_list": [
            {
              "id": "145250718867825", 
              "name": "Miniature Golf"
            }, 
            {
              "id": "176059775772759", 
              "name": "Golf Course"
            }
          ], 
          "location": {
            "city": "Longview", 
            "zip": "75605-4436", 
            "country": "United States", 
            "longitude": -94.751884656219005, 
            "state": "TX", 
            "street": "3500 Mccann Rd Ste F2", 
            "latitude": 32.539021176364997
          }
        }, 
        {
          "category": "Local business", 
          "name": "Lunar Mini Golf", 
          "id": "157046174335448", 
          "category_list": [
            {
              "id": "176059775772759", 
              "name": "Golf Course"
            }, 
            {
              "id": "133436743388217", 
              "name": "Arts & Entertainment"
            }, 
            {
              "id": "145250718867825", 
              "name": "Miniature Golf"
            }
          ], 
          "location": {
            "city": "Lawrenceville", 
            "zip": "30043-7844", 
            "country": "United States", 
            "longitude": -84.078642859300004, 
            "state": "GA", 
            "street": "5900 Sugarloaf Pkwy Ste 308", 
            "latitude": 33.981400549941
          }
        }, 
        {
          "category": "Local business", 
          "name": "Lunar Mini Golf", 
          "id": "100888029955908", 
          "category_list": [
            {
              "id": "176059775772759", 
              "name": "Golf Course"
            }, 
            {
              "id": "145250718867825", 
              "name": "Miniature Golf"
            }
          ], 
          "location": {
            "city": "Milpitas", 
            "zip": "95035-8041", 
            "country": "United States", 
            "longitude": -121.8983415159, 
            "state": "CA", 
            "street": "447 Great Mall Dr", 
            "latitude": 37.417502535700997
          }
        }, 
        {
          "category": "Local business", 
          "name": "Lunar Mini Golf", 
          "id": "104911696219394", 
          "category_list": [
            {
              "id": "145250718867825", 
              "name": "Miniature Golf"
            }
          ], 
          "location": {
            "city": "Sarasota", 
            "zip": "34238-2990", 
            "country": "United States", 
            "longitude": -82.494660148999998, 
            "state": "FL", 
            "street": "8201 S Tamiami Trl Unit 58", 
            "latitude": 27.234846569399998
          }
        }, 
        {
          "category": "Attractions/things to do", 
          "name": "Lunar Golf at Prescott Gateway Mall", 
          "id": "202124003248334", 
          "category_list": [
            {
              "id": "176059775772759", 
              "name": "Golf Course"
            }
          ], 
          "location": {
            "city": "Prescott", 
            "zip": "86305", 
            "country": "United States", 
            "longitude": -112.408117, 
            "state": "AZ", 
            "street": "3250 Gateway Blvd", 
            "latitude": 34.548791000000001
          }
        }, 
        {
          "category": "Local business", 
          "name": "Lunar Golf", 
          "id": "165620493585798", 
          "category_list": [
            {
              "id": "2500", 
              "name": "Local Business"
            }
          ], 
          "location": {
            "city": "Dalton", 
            "zip": "30721", 
            "country": "United States", 
            "longitude": -84.934430000000006, 
            "state": "GA", 
            "street": "", 
            "latitude": 34.759151000000003
          }
        }, 
        {
          "category": "Attractions/things to do", 
          "name": "Lunar Golf at Rolling Oaks Mall", 
          "id": "261193940678954", 
          "category_list": [
            {
              "id": "145250718867825", 
              "name": "Miniature Golf"
            }
          ], 
          "location": {
            "city": "San Antonio", 
            "zip": "78247", 
            "country": "United States", 
            "longitude": -98.352801999999997, 
            "state": "TX", 
            "street": "6909 N Loop 1604 East", 
            "latitude": 29.594434
          }
        }, 
        {
          "category": "Attractions/things to do", 
          "name": "Lunar Mini Golf at Regency Square Mall", 
          "id": "108243355884735", 
          "category_list": [
            {
              "id": "145250718867825", 
              "name": "Miniature Golf"
            }, 
            {
              "id": "176059775772759", 
              "name": "Golf Course"
            }
          ], 
          "location": {
            "city": "Jacksonville", 
            "zip": "32225", 
            "country": "United States", 
            "longitude": -81.550273881579997, 
            "state": "FL", 
            "street": "9501 Arlington Expy", 
            "latitude": 30.323358970969998
          }
        }, 
        {
          "category": "Local business", 
          "name": "Lunar Mini Golf", 
          "id": "113833535313664", 
          "category_list": [
            {
              "id": "145250718867825", 
              "name": "Miniature Golf"
            }
          ], 
          "location": {
            "city": "Lufkin", 
            "zip": "75901-5624", 
            "country": "United States", 
            "longitude": -94.725258945899995, 
            "state": "TX", 
            "street": "4600 S Medford Dr", 
            "latitude": 31.312634880099999
          }
        }, 
        {
          "category": "Local business", 
          "name": "Lunar Mini Golf", 
          "id": "152783058096241", 
          "category_list": [
            {
              "id": "176059775772759", 
              "name": "Golf Course"
            }
          ], 
          "location": {
            "city": "Nottingham", 
            "zip": "21236-4901", 
            "country": "United States", 
            "longitude": -76.466962228, 
            "state": "MD", 
            "street": "8200 Perry Hall Blvd", 
            "latitude": 39.374570928099999
          }
        }, 
        {
          "category": "Attractions/things to do", 
          "name": "Lunar Mini Golf at Chesapeake Square Mall", 
          "id": "212349985464411", 
          "category_list": [
            {
              "id": "145250718867825", 
              "name": "Miniature Golf"
            }, 
            {
              "id": "176059775772759", 
              "name": "Golf Course"
            }
          ], 
          "location": {
            "city": "Chesapeake", 
            "zip": "23321", 
            "country": "United States", 
            "longitude": -76.415780699400003, 
            "state": "VA", 
            "street": "4200 Portsmouth Blvd", 
            "latitude": 36.826116557500001
          }
        }, 
        {
          "category": "Attractions/things to do", 
          "name": "Lunar Mini Golf at Madison Square Mall", 
          "id": "562009560478777", 
          "category_list": [
            {
              "id": "145250718867825", 
              "name": "Miniature Golf"
            }, 
            {
              "id": "176059775772759", 
              "name": "Golf Course"
            }
          ], 
          "location": {
            "city": "Huntsville", 
            "zip": "35806", 
            "country": "United States", 
            "longitude": -86.664539000000005, 
            "state": "AL", 
            "street": "5901 University Drive", 
            "latitude": 34.740287000000002
          }
        }, 
        {
          "category": "Local business", 
          "name": "Lunar Mini Golf", 
          "id": "210680242275707", 
          "category_list": [
            {
              "id": "145250718867825", 
              "name": "Miniature Golf"
            }
          ], 
          "location": {
            "city": "Topeka", 
            "zip": "66604", 
            "country": "United States", 
            "longitude": -95.766388000000006, 
            "state": "KS", 
            "street": "1801 SW Wanamaker Rd.", 
            "latitude": 39.032744999999998
          }
        }, 
        {
          "category": "Local business", 
          "name": "Lunar Mini Golf", 
          "id": "100869483290709", 
          "category_list": [
            {
              "id": "145250718867825", 
              "name": "Miniature Golf"
            }
          ], 
          "location": {
            "city": "Ames", 
            "zip": "50010-4640", 
            "country": "United States", 
            "longitude": -93.622473999999997, 
            "state": "IA", 
            "street": "2801 Grand Ave Ste 1215", 
            "latitude": 42.049725000000002
          }
        }, 
        {
          "category": "Local business", 
          "name": "Lunar Mini Golf", 
          "id": "111482108892273", 
          "category_list": [
            {
              "id": "176059775772759", 
              "name": "Golf Course"
            }, 
            {
              "id": "145250718867825", 
              "name": "Miniature Golf"
            }
          ], 
          "location": {
            "city": "Richmond", 
            "zip": "23235-4780", 
            "country": "United States", 
            "longitude": -77.609558000000007, 
            "state": "VA", 
            "street": "11500 Midlothian Tpke", 
            "latitude": 37.507271000000003
          }
        }, 
        {
          "category": "Local business", 
          "name": "Lunar Mini Golf", 
          "id": "111540725553172", 
          "category_list": [
            {
              "id": "176059775772759", 
              "name": "Golf Course"
            }
          ], 
          "location": {
            "city": "Ocoee", 
            "zip": "34761-6802", 
            "country": "United States", 
            "longitude": -81.516182000000001, 
            "state": "FL", 
            "street": "9401 W Colonial Dr", 
            "latitude": 28.557527
          }
        }, 
        {
          "category": "Local business", 
          "name": "Lunar Mini Golf", 
          "id": "113577395341441", 
          "category_list": [
            {
              "id": "176059775772759", 
              "name": "Golf Course"
            }
          ], 
          "location": {
            "city": "Omaha", 
            "zip": "68144-5221", 
            "country": "United States", 
            "longitude": -96.135294999999999, 
            "state": "NE", 
            "street": "3001 S 144th St", 
            "latitude": 41.229821999999999
          }
        }, 
        {
          "category": "Local business", 
          "name": "Lunar Mini Golf", 
          "id": "115995331754296", 
          "category_list": [
            {
              "id": "176059775772759", 
              "name": "Golf Course"
            }
          ], 
          "location": {
            "city": "Greensboro", 
            "zip": "27407-4743", 
            "country": "United States", 
            "longitude": -79.835334000000003, 
            "state": "NC", 
            "street": "410 Four Seasons Town Ctr", 
            "latitude": 36.040024000000003
          }
        }, 
        {
          "category": "Local business", 
          "name": "Lunar Mini Golf", 
          "id": "116238848400092", 
          "category_list": [
            {
              "id": "145250718867825", 
              "name": "Miniature Golf"
            }
          ], 
          "location": {
            "city": "Denton", 
            "zip": "76205-8100", 
            "country": "United States", 
            "longitude": -97.107821999999999, 
            "state": "TX", 
            "street": "2201 S Interstate 35 E Ste M13", 
            "latitude": 33.190655
          }
        }, 
        {
          "category": "Local business", 
          "name": "Lunar Mini Golf", 
          "id": "117285124956629", 
          "category_list": [
            {
              "id": "145250718867825", 
              "name": "Miniature Golf"
            }
          ], 
          "location": {
            "city": "Springfield", 
            "zip": "65804-3976", 
            "country": "United States", 
            "longitude": -93.263312999999997, 
            "state": "MO", 
            "street": "2825 S Glenstone Ave Ste 362", 
            "latitude": 37.16283
          }
        }, 
        {
          "category": "Local business", 
          "name": "Lunar Mini Golf", 
          "id": "120362954646992", 
          "category_list": [
            {
              "id": "176059775772759", 
              "name": "Golf Course"
            }, 
            {
              "id": "145250718867825", 
              "name": "Miniature Golf"
            }
          ], 
          "location": {
            "city": "Council Bluffs", 
            "zip": "51503-5270", 
            "country": "United States", 
            "longitude": -95.826830000000001, 
            "state": "IA", 
            "street": "1751 Madison Ave Ste 416", 
            "latitude": 41.244019999999999
          }
        }, 
        {
          "category": "Local business", 
          "name": "Lunar Mini Golf", 
          "id": "120417144642507", 
          "category_list": [
            {
              "id": "176059775772759", 
              "name": "Golf Course"
            }
          ], 
          "location": {
            "city": "Lakeland", 
            "zip": "33809-3833", 
            "country": "United States", 
            "longitude": -81.974056000000004, 
            "state": "FL", 
            "street": "3800 Us Highway 98 N", 
            "latitude": 28.091089
          }
        }, 
        {
          "category": "Local business", 
          "name": "Lunar Mini Golf", 
          "id": "120553034622997", 
          "category_list": [
            {
              "id": "145250718867825", 
              "name": "Miniature Golf"
            }
          ], 
          "location": {
            "city": "Macon", 
            "zip": "31206-3649", 
            "country": "United States", 
            "longitude": -83.690369000000004, 
            "state": "GA", 
            "street": "3661 Eisenhower Pkwy", 
            "latitude": 32.816380000000002
          }
        }, 
        {
          "category": "Local business", 
          "name": "Lunar Mini Golf", 
          "id": "120705787946110", 
          "category_list": [
            {
              "id": "145250718867825", 
              "name": "Miniature Golf"
            }
          ], 
          "location": {
            "city": "Wichita", 
            "zip": "67209-2570", 
            "country": "United States", 
            "longitude": -97.395657, 
            "state": "KS", 
            "street": "4600 W Kellogg Dr Ste 304", 
            "latitude": 37.673794000000001
          }
        }, 
        {
          "category": "Local business", 
          "name": "Lunar Mini Golf", 
          "id": "121261047884839", 
          "category_list": [
            {
              "id": "145250718867825", 
              "name": "Miniature Golf"
            }
          ], 
          "location": {
            "city": "Peru", 
            "zip": "61354-1232", 
            "country": "United States", 
            "longitude": -89.126891145599998, 
            "state": "IL", 
            "street": "1607 36th St", 
            "latitude": 41.355626322699997
          }
        }, 
        {
          "category": "Local business", 
          "name": "Lunar Mini Golf", 
          "id": "127227557332776", 
          "category_list": [
            {
              "id": "145250718867825", 
              "name": "Miniature Golf"
            }
          ], 
          "location": {
            "city": "Akron", 
            "zip": "44333-3337", 
            "country": "United States", 
            "longitude": -81.618567999999996, 
            "state": "OH", 
            "street": "3265 W Market St", 
            "latitude": 41.132702000000002
          }
        }, 
        {
          "category": "Local business", 
          "name": "Lunar Mini Golf", 
          "id": "159086730788961", 
          "category_list": [
            {
              "id": "145250718867825", 
              "name": "Miniature Golf"
            }
          ], 
          "location": {
            "city": "Lewisville", 
            "zip": "75067-8756", 
            "country": "United States", 
            "longitude": -96.972179999999994, 
            "state": "TX", 
            "street": "2401 S Stemmons Fwy", 
            "latitude": 33.002628999999999
          }
        }, 
        {
          "category": "Local business", 
          "name": "Lunar Mini Golf", 
          "id": "159350287431581", 
          "category_list": [
            {
              "id": "145250718867825", 
              "name": "Miniature Golf"
            }
          ], 
          "location": {
            "city": "Knoxville", 
            "zip": "37924-5044", 
            "country": "United States", 
            "longitude": -83.876389000000003, 
            "state": "TN", 
            "street": "3001 Knoxville Center Dr", 
            "latitude": 36.034122000000004
          }
        }, 
        {
          "category": "Local business", 
          "name": "Lunar Mini Golf", 
          "id": "160627677293101", 
          "category_list": [
            {
              "id": "176059775772759", 
              "name": "Golf Course"
            }
          ], 
          "location": {
            "city": "Danville", 
            "zip": "24540-4028", 
            "country": "United States", 
            "longitude": -79.421543999999997, 
            "state": "VA", 
            "street": "325 Piedmont Dr", 
            "latitude": 36.592858
          }
        }, 
        {
          "category": "Local business", 
          "name": "Lunar Mini Golf", 
          "id": "317170691700901", 
          "category_list": [
            {
              "id": "145250718867825", 
              "name": "Miniature Golf"
            }
          ], 
          "location": {
            "city": "Spartanburg", 
            "zip": "", 
            "country": "United States", 
            "longitude": -81.994900000000001, 
            "state": "SC", 
            "street": "205 W Blackstock Road", 
            "latitude": 34.939526000000001
          }
        }, 
        {
          "category": "Local business", 
          "name": "Lunar Mini Golf", 
          "id": "135405256509724", 
          "category_list": [
            {
              "id": "189018581118681", 
              "name": "Sports Club"
            }
          ], 
          "location": {
            "city": "Lake Jackson", 
            "zip": "77566-4029", 
            "country": "United States", 
            "longitude": -95.462847999999994, 
            "state": "TX", 
            "street": "100 Highway 332 W", 
            "latitude": 29.052593999999999
          }
        }
      ]
    }
  }, 
  {
    "business_name": "Rainbow Ryders, Inc Hot Air Balloon Company", 
    "business_id": "rcyO0WSXanfEnWBBh4CCNA", 
    "fb_pages": {
      "data": []
    }
  }
]