[
  {
    "business_name": "Saba's Mediterranean Cuisine", 
    "business_id": "qXQ3ZBdwI3GlbR5-eYWqNA", 
    "fb_pages": {
      "paging": {
        "next": "https://graph.facebook.com/search?type=place&access_token=229546593895315|yPLlHqq6YvDLIH4nL0kjJtIFSlU&limit=5000&offset=5000&__after_id=158292504221114"
      }, 
      "data": [
        {
          "category": "Restaurant/cafe", 
          "name": "Saba's Mediterranean Cuisine", 
          "id": "158292504221114", 
          "category_list": [
            {
              "id": "200742186618963", 
              "name": "Vegetarian & Vegan Restaurant"
            }, 
            {
              "id": "187425207958280", 
              "name": "Burger Restaurant"
            }, 
            {
              "id": "167954166588517", 
              "name": "Diner"
            }
          ], 
          "location": {
            "city": "Phoenix", 
            "zip": "85032", 
            "country": "United States", 
            "longitude": -111.97782910367, 
            "state": "AZ", 
            "street": "4747 E. Bell Rd. ", 
            "latitude": 33.640328428060002
          }
        }
      ]
    }
  }, 
  {
    "business_name": "Palo Verde Bike Shop", 
    "business_id": "-8Z6AiHwXInpnl6Q1Ey_5w", 
    "fb_pages": {
      "data": []
    }
  }, 
  {
    "business_name": "Gila River Casino", 
    "business_id": "L6yYzUqVcX97uNXDGqS7-w", 
    "fb_pages": {
      "paging": {
        "next": "https://graph.facebook.com/search?type=place&access_token=229546593895315|yPLlHqq6YvDLIH4nL0kjJtIFSlU&limit=5000&offset=5000&__after_id=136026286470145"
      }, 
      "data": [
        {
          "category": "Local business", 
          "name": "Gila River Casino", 
          "id": "138216296219659", 
          "category_list": [
            {
              "id": "187724814583579", 
              "name": "Casino"
            }
          ], 
          "location": {
            "city": "Phoenix", 
            "zip": "85339", 
            "country": "United States", 
            "longitude": -112.16059086001999, 
            "state": "AZ", 
            "street": "", 
            "latitude": 33.314188253803998
          }
        }, 
        {
          "category": "Local business", 
          "name": "Gila River Casino Lone Butte", 
          "id": "253228871389994", 
          "category_list": [
            {
              "id": "187724814583579", 
              "name": "Casino"
            }, 
            {
              "id": "139386576124160", 
              "name": "Public Services"
            }
          ], 
          "location": {
            "city": "Chandler", 
            "zip": "85226", 
            "country": "United States", 
            "longitude": -111.94312982228, 
            "state": "AZ", 
            "street": "1077 S Kyrene Rd", 
            "latitude": 33.289099498440002
          }
        }, 
        {
          "category": "Local business", 
          "name": "Gila River Casino WHP", 
          "id": "150409621675754", 
          "category_list": [
            {
              "id": "187724814583579", 
              "name": "Casino"
            }, 
            {
              "id": "196434697050078", 
              "name": "Tobacco Store"
            }
          ], 
          "location": {
            "city": "Maricopa", 
            "zip": "85048", 
            "country": "United States", 
            "longitude": -111.97423158207, 
            "state": "AZ", 
            "street": "", 
            "latitude": 33.281518870351
          }
        }, 
        {
          "category": "Local business", 
          "name": "Gila River Vee Quiva Casino", 
          "id": "136026286470145", 
          "category_list": [
            {
              "id": "187724814583579", 
              "name": "Casino"
            }
          ], 
          "location": {
            "city": "Phoenix", 
            "zip": "85339", 
            "country": "United States", 
            "longitude": -112.16820113599999, 
            "state": "AZ", 
            "street": "", 
            "latitude": 33.383877329900002
          }
        }
      ]
    }
  }, 
  {
    "business_name": "Coney Island Grill", 
    "business_id": "BNOFxq6AAXamgLw_tzbe7Q", 
    "fb_pages": {
      "paging": {
        "next": "https://graph.facebook.com/search?type=place&access_token=229546593895315|yPLlHqq6YvDLIH4nL0kjJtIFSlU&limit=5000&offset=5000&__after_id=1471154976441997"
      }, 
      "data": [
        {
          "category": "Local business", 
          "name": "Coney Island Grill", 
          "id": "122736211117683", 
          "category_list": [
            {
              "id": "187224924655149", 
              "name": "Theme Park"
            }, 
            {
              "id": "110290705711626", 
              "name": "Bar"
            }, 
            {
              "id": "180256082015845", 
              "name": "Pizza Place"
            }
          ], 
          "location": {
            "city": "Fresno", 
            "zip": "93720-4323", 
            "country": "United States", 
            "longitude": -119.78818916740001, 
            "state": "CA", 
            "street": "175 E Via Del Parque", 
            "latitude": 36.850033683828997
          }
        }, 
        {
          "category": "Local business", 
          "name": "Coney Island Bar and Grill", 
          "id": "392107927484177", 
          "category_list": [
            {
              "id": "273819889375819", 
              "name": "Restaurant"
            }, 
            {
              "id": "110290705711626", 
              "name": "Bar"
            }
          ], 
          "location": {
            "city": "Brooklyn", 
            "zip": "11224", 
            "country": "United States", 
            "longitude": -73.979918922600007, 
            "state": "NY", 
            "street": "1205 Surf Ave. @ West 12th St.", 
            "latitude": 40.575617379400001
          }
        }, 
        {
          "category": "Restaurant/cafe", 
          "name": "Coney Island Grill", 
          "id": "180173685357548", 
          "category_list": [
            {
              "id": "144722595590046", 
              "name": "Greek Restaurant"
            }, 
            {
              "id": "149803325077018", 
              "name": "American Restaurant"
            }, 
            {
              "id": "212285478786733", 
              "name": "Hot Dog Joint"
            }
          ], 
          "location": {
            "city": "Phoenix", 
            "zip": "85003", 
            "country": "United States", 
            "longitude": -112.07424194594, 
            "state": "AZ", 
            "street": "16 w adams st", 
            "latitude": 33.449218022444001
          }
        }, 
        {
          "category": "Local business", 
          "name": "B and J's Coney Island", 
          "id": "117678378250233", 
          "category_list": [
            {
              "id": "233804719972590", 
              "name": "Bar & Grill"
            }, 
            {
              "id": "149803325077018", 
              "name": "American Restaurant"
            }
          ], 
          "location": {
            "city": "Slippery Rock", 
            "zip": "16057", 
            "country": "United States", 
            "longitude": -80.052177603302994, 
            "state": "PA", 
            "street": "235 Kelly Blvd", 
            "latitude": 41.072063187940998
          }
        }, 
        {
          "category": "Restaurant/cafe", 
          "name": "Dorians Coney Island and Grill", 
          "id": "279115395492009", 
          "category_list": [
            {
              "id": "273819889375819", 
              "name": "Restaurant"
            }
          ], 
          "location": {
            "city": "Dearborn Heights", 
            "zip": "48125", 
            "country": "United States", 
            "longitude": -83.269918541199999, 
            "state": "MI", 
            "street": "5401 S. Telegraph", 
            "latitude": 42.271675098300001
          }
        }, 
        {
          "category": "Local business", 
          "name": "Village Grill Coney Island", 
          "id": "152896714731801", 
          "category_list": [
            {
              "id": "150534008338515", 
              "name": "Barbecue Restaurant"
            }
          ], 
          "location": {
            "city": "Farmington", 
            "zip": "48336", 
            "country": "United States", 
            "longitude": -83.356079908900995, 
            "state": "MI", 
            "street": "", 
            "latitude": 42.470443467644998
          }
        }, 
        {
          "category": "Restaurant/cafe", 
          "name": "Livonia Grill Coney Island", 
          "id": "128643947326545", 
          "category_list": [
            {
              "id": "273819889375819", 
              "name": "Restaurant"
            }
          ], 
          "location": {
            "city": "Livonia", 
            "zip": "48150", 
            "country": "United States", 
            "longitude": -83.315360999999996, 
            "state": "MI", 
            "street": "27545 Plymouth Rd", 
            "latitude": 42.369388999999998
          }
        }, 
        {
          "category": "Local business", 
          "name": "Clawson Coney Island and Grill", 
          "id": "121131344567421", 
          "category_list": [
            {
              "id": "192831537402299", 
              "name": "Family Style Restaurant"
            }
          ], 
          "location": {
            "city": "Clawson", 
            "zip": "48017-2061", 
            "country": "United States", 
            "longitude": -83.145932900199995, 
            "state": "MI", 
            "street": "41 S Main St", 
            "latitude": 42.532769211000002
          }
        }, 
        {
          "category": "Club", 
          "name": "Silko Sports Lounge & Grill", 
          "id": "585033608185158", 
          "category_list": [
            {
              "id": "184460441595855", 
              "name": "Sports Bar"
            }, 
            {
              "id": "189018581118681", 
              "name": "Sports Club"
            }, 
            {
              "id": "191478144212980", 
              "name": "Night Club"
            }
          ], 
          "location": {
            "city": "Brooklyn", 
            "zip": "11230", 
            "country": "United States", 
            "longitude": -73.962862000000001, 
            "state": "NY", 
            "street": "1910 Coney Island Avenue", 
            "latitude": 40.610734000000001
          }
        }, 
        {
          "category": "Local business", 
          "name": "Jillian's Coney Island & Grille", 
          "id": "357971340982167", 
          "category_list": [
            {
              "id": "192831537402299", 
              "name": "Family Style Restaurant"
            }
          ], 
          "location": {
            "city": "Chesterfield", 
            "zip": "48051", 
            "country": "United States", 
            "longitude": -82.832587288037999, 
            "state": "MI", 
            "street": "50800 Gratiot Ave", 
            "latitude": 42.673007578783
          }
        }, 
        {
          "category": "Local business", 
          "name": "Jd's Grill & Coney Island", 
          "id": "173619826156626", 
          "category_list": [
            {
              "id": "165679780146824", 
              "name": "Food & Restaurant"
            }
          ], 
          "location": {
            "city": "Sebastian", 
            "zip": "32958", 
            "country": "United States", 
            "longitude": -80.487068125799993, 
            "state": "FL", 
            "street": "", 
            "latitude": 27.8432291136
          }
        }, 
        {
          "category": "Local business", 
          "name": "Metro Grill Coney Island", 
          "id": "120364697976290", 
          "category_list": [
            {
              "id": "150534008338515", 
              "name": "Barbecue Restaurant"
            }, 
            {
              "id": "192803624072087", 
              "name": "Fast Food Restaurant"
            }
          ], 
          "location": {
            "city": "Detroit", 
            "zip": "48210-1118", 
            "country": "United States", 
            "longitude": -83.129188999999997, 
            "state": "MI", 
            "street": "6211 W Warren Ave", 
            "latitude": 42.344329999999999
          }
        }, 
        {
          "category": "Restaurant/cafe", 
          "name": "Sparta Grill Coney Island", 
          "id": "157852411020151", 
          "category_list": [
            {
              "id": "273819889375819", 
              "name": "Restaurant"
            }
          ], 
          "location": {
            "city": "Webberville", 
            "zip": "48892", 
            "country": "United States", 
            "longitude": -84.173839999999998, 
            "state": "MI", 
            "street": "104 E Grand River ", 
            "latitude": 42.666862000000002
          }
        }, 
        {
          "category": "Local business", 
          "name": "Holiday Grill Coney Island", 
          "id": "203355909796142", 
          "category_list": [
            {
              "id": "273819889375819", 
              "name": "Restaurant"
            }
          ], 
          "location": {
            "city": "Dearborn", 
            "zip": "48124", 
            "country": "United States", 
            "longitude": -83.258277245800002, 
            "state": "MI", 
            "street": "", 
            "latitude": 42.3039560283
          }
        }, 
        {
          "category": "Local business", 
          "name": "Gratiot Grill Coney Island", 
          "id": "204757716253296", 
          "category_list": [
            {
              "id": "2500", 
              "name": "Local Business"
            }
          ], 
          "location": {
            "city": "Detroit", 
            "zip": "48207", 
            "country": "United States", 
            "longitude": -83.031149758599994, 
            "state": "MI", 
            "street": "", 
            "latitude": 42.3681745827
          }
        }, 
        {
          "category": "Local business", 
          "name": "Coney Island Hot Dog", 
          "id": "100886363289643", 
          "category_list": [
            {
              "id": "233804719972590", 
              "name": "Bar & Grill"
            }
          ], 
          "location": {
            "city": "Austintown", 
            "zip": "44515-2303", 
            "country": "United States", 
            "longitude": -80.763581050200003, 
            "state": "OH", 
            "street": "31 N. Canfield Niles Rd", 
            "latitude": 41.100865301299997
          }
        }, 
        {
          "category": "Bar", 
          "name": "See  More.", 
          "id": "315748655222150", 
          "category_list": [
            {
              "id": "233804719972590", 
              "name": "Bar & Grill"
            }
          ], 
          "location": {
            "city": "Brooklyn", 
            "zip": "11218", 
            "country": "United States", 
            "longitude": -73.968993999999995, 
            "state": "NY", 
            "street": " 772 Coney Island Ave", 
            "latitude": 40.638556999999999
          }
        }, 
        {
          "category": "Local business", 
          "name": "Chris & Cathy's Coney Island Grill", 
          "id": "111559718883445", 
          "category_list": [
            {
              "id": "150534008338515", 
              "name": "Barbecue Restaurant"
            }
          ], 
          "location": {
            "city": "Maplewood", 
            "zip": "07040-2414", 
            "country": "United States", 
            "longitude": -74.254706999999996, 
            "state": "NJ", 
            "street": "1546 Springfield Ave", 
            "latitude": 40.722991999999998
          }
        }, 
        {
          "category": "Local business", 
          "name": "Pete's Grill Coney Island", 
          "id": "113638745336907", 
          "category_list": [
            {
              "id": "150534008338515", 
              "name": "Barbecue Restaurant"
            }
          ], 
          "location": {
            "city": "Detroit", 
            "zip": "48234-1243", 
            "country": "United States", 
            "longitude": -83.082931916299998, 
            "state": "MI", 
            "street": "1400 E Outer Dr", 
            "latitude": 42.439877672400002
          }
        }, 
        {
          "category": "Restaurant/cafe", 
          "name": "Retro Grill", 
          "id": "602095369859666", 
          "category_list": [
            {
              "id": "187425207958280", 
              "name": "Burger Restaurant"
            }
          ], 
          "location": {
            "city": "Brooklyn", 
            "zip": "11229", 
            "country": "United States", 
            "longitude": -73.959884578900002, 
            "state": "NY", 
            "street": "2256 Coney Island Avenue", 
            "latitude": 40.590234215599999
          }
        }, 
        {
          "category": "Restaurant/cafe", 
          "name": "Fuciaana Asian Food & Crystal Grill", 
          "id": "690059647681695", 
          "category_list": [
            {
              "id": "150534008338515", 
              "name": "Barbecue Restaurant"
            }
          ], 
          "location": {
            "city": "Brooklyn", 
            "zip": "11223", 
            "country": "United States", 
            "longitude": -73.961081320000005, 
            "state": "NY", 
            "street": "2478, Coney Island Avenue", 
            "latitude": 40.596361546200001
          }
        }, 
        {
          "category": "Hotel", 
          "name": "Cine Bites Media", 
          "id": "381678931926122", 
          "category_list": [
            {
              "id": "233804719972590", 
              "name": "Bar & Grill"
            }
          ], 
          "location": {
            "city": "Brooklyn", 
            "zip": "11218", 
            "country": "United States", 
            "longitude": -73.968993999999995, 
            "state": "NY", 
            "street": " 772 Coney Island Ave ", 
            "latitude": 40.638556999999999
          }
        }, 
        {
          "category": "Hotel", 
          "name": "Lemon Media", 
          "id": "518408208203755", 
          "category_list": [
            {
              "id": "233804719972590", 
              "name": "Bar & Grill"
            }
          ], 
          "location": {
            "city": "Brooklyn", 
            "zip": "11218 ", 
            "country": "United States", 
            "longitude": -73.968993999999995, 
            "state": "NY", 
            "street": " 772 Coney Island Ave ", 
            "latitude": 40.638556999999999
          }
        }, 
        {
          "category": "Local business", 
          "name": "Doner Gyro & Grill", 
          "id": "153177888054227", 
          "category_list": [
            {
              "id": "192803624072087", 
              "name": "Fast Food Restaurant"
            }
          ], 
          "location": {
            "city": "Brooklyn", 
            "zip": "11223-5026", 
            "country": "United States", 
            "longitude": -73.961235000000002, 
            "state": "NY", 
            "street": "2556 Coney Island Ave", 
            "latitude": 40.594456000000001
          }
        }, 
        {
          "category": "Local business", 
          "name": "Glat Island Grill", 
          "id": "120888677923727", 
          "category_list": [
            {
              "id": "150534008338515", 
              "name": "Barbecue Restaurant"
            }, 
            {
              "id": "150108431712141", 
              "name": "Food & Grocery"
            }
          ], 
          "location": {
            "city": "Brooklyn", 
            "zip": "11223-3337", 
            "country": "United States", 
            "longitude": -73.961100999999999, 
            "state": "NY", 
            "street": "2279 Coney Island Ave", 
            "latitude": 40.601512999999997
          }
        }, 
        {
          "category": "Restaurant/cafe", 
          "name": "Nasheman Grill and Restaurant", 
          "id": "1405570896331194", 
          "category_list": [
            {
              "id": "273819889375819", 
              "name": "Restaurant"
            }
          ], 
          "location": {
            "city": "Brooklyn", 
            "zip": "11235", 
            "country": "United States", 
            "longitude": -73.959402999999995, 
            "state": "NY", 
            "street": "3149 Coney island Avenue", 
            "latitude": 40.579242000000001
          }
        }, 
        {
          "category": "Bar", 
          "name": "Mallu Girls \u0647", 
          "id": "127832667387230", 
          "category_list": [
            {
              "id": "233804719972590", 
              "name": "Bar & Grill"
            }
          ], 
          "location": {
            "city": "Brooklyn", 
            "zip": "11218", 
            "country": "United States", 
            "longitude": -73.968993999999995, 
            "state": "NY", 
            "street": "772 Coney Island Ave", 
            "latitude": 40.638556999999999
          }
        }, 
        {
          "category": "Bar", 
          "name": "All Kerala Lovers Association", 
          "id": "1413173395583947", 
          "category_list": [
            {
              "id": "233804719972590", 
              "name": "Bar & Grill"
            }
          ], 
          "location": {
            "city": "Brooklyn", 
            "zip": "11218", 
            "country": "United States", 
            "longitude": -73.968993999999995, 
            "state": "NY", 
            "street": " 772 Coney Island Ave", 
            "latitude": 40.638556999999999
          }
        }, 
        {
          "category": "Bar", 
          "name": "Poda Thendi", 
          "id": "600169053353820", 
          "category_list": [
            {
              "id": "233804719972590", 
              "name": "Bar & Grill"
            }
          ], 
          "location": {
            "city": "Brooklyn", 
            "zip": "11218", 
            "country": "United States", 
            "longitude": -73.968993999999995, 
            "state": "NY", 
            "street": "772 Coney Island Ave", 
            "latitude": 40.638556999999999
          }
        }, 
        {
          "category": "Bar", 
          "name": "AppBloo", 
          "id": "362758883816034", 
          "category_list": [
            {
              "id": "233804719972590", 
              "name": "Bar & Grill"
            }
          ], 
          "location": {
            "city": "Brooklyn", 
            "zip": "11218", 
            "country": "United States", 
            "longitude": -73.968993999999995, 
            "state": "NY", 
            "street": "772 Coney Island Ave", 
            "latitude": 40.638556999999999
          }
        }, 
        {
          "category": "Bar", 
          "name": "K K P P", 
          "id": "442502482525694", 
          "category_list": [
            {
              "id": "233804719972590", 
              "name": "Bar & Grill"
            }
          ], 
          "location": {
            "city": "Brooklyn", 
            "zip": "11218", 
            "country": "United States", 
            "longitude": -73.968993999999995, 
            "state": "NY", 
            "street": "772 Coney Island Ave", 
            "latitude": 40.638556999999999
          }
        }, 
        {
          "category": "Bar", 
          "name": "Malayalam Movie Dialogues", 
          "id": "548820205193151", 
          "category_list": [
            {
              "id": "233804719972590", 
              "name": "Bar & Grill"
            }
          ], 
          "location": {
            "city": "Brooklyn", 
            "zip": "11218", 
            "country": "United States", 
            "longitude": -73.968993999999995, 
            "state": "NY", 
            "street": "772 Coney Island Ave", 
            "latitude": 40.638556999999999
          }
        }, 
        {
          "category": "Bar", 
          "name": "Poda Patty", 
          "id": "1471154976441997", 
          "category_list": [
            {
              "id": "233804719972590", 
              "name": "Bar & Grill"
            }
          ], 
          "location": {
            "city": "Brooklyn", 
            "zip": "11218", 
            "country": "United States", 
            "longitude": -73.968993999999995, 
            "state": "NY", 
            "street": "772 Coney Island Ave", 
            "latitude": 40.638556999999999
          }
        }
      ]
    }
  }, 
  {
    "business_name": "Fiesta Resort Conference Center", 
    "business_id": "VS6eeO_IxSW0pQOWPtXSEg", 
    "fb_pages": {
      "data": []
    }
  }, 
  {
    "business_name": "Lil Deemos Family Bistro", 
    "business_id": "Eeonj15SXvfR6kgvh8BOWw", 
    "fb_pages": {
      "paging": {
        "next": "https://graph.facebook.com/search?type=place&access_token=229546593895315|yPLlHqq6YvDLIH4nL0kjJtIFSlU&limit=5000&offset=5000&__after_id=122181474487319"
      }, 
      "data": [
        {
          "category": "Restaurant/cafe", 
          "name": "lil Deemo's Family Bistro", 
          "id": "122181474487319", 
          "category_list": [
            {
              "id": "273819889375819", 
              "name": "Restaurant"
            }
          ], 
          "location": {
            "city": "Glendale", 
            "zip": "", 
            "country": "United States", 
            "longitude": -112.184479, 
            "state": "AZ", 
            "street": "5830 west thunderbird road", 
            "latitude": 33.610883999999999
          }
        }
      ]
    }
  }, 
  {
    "business_name": "Fresh Gourmet To Go", 
    "business_id": "_mFZT2Ar2ayJ5kP35i79ZA", 
    "fb_pages": {
      "paging": {
        "next": "https://graph.facebook.com/search?type=place&access_token=229546593895315|yPLlHqq6YvDLIH4nL0kjJtIFSlU&limit=5000&offset=5000&__after_id=252631551579877"
      }, 
      "data": [
        {
          "category": "Restaurant/cafe", 
          "name": "Zedric's: Fresh Gourmet to Go", 
          "id": "139497506102439", 
          "category_list": [
            {
              "id": "156756251046858", 
              "name": "Health Food Restaurant"
            }
          ], 
          "location": {
            "city": "San Antonio", 
            "zip": "78230", 
            "country": "United States", 
            "longitude": -98.561358119952004, 
            "state": "TX", 
            "street": "9873 Interstate Highway 10", 
            "latitude": 29.532996537039001
          }
        }, 
        {
          "category": "Local business", 
          "name": "Fresh Gourmet to go Downtown bistro", 
          "id": "175528402465881", 
          "category_list": [
            {
              "id": "273819889375819", 
              "name": "Restaurant"
            }
          ], 
          "location": {
            "city": "Phoenix", 
            "zip": "85004", 
            "country": "United States", 
            "longitude": -112.072039195, 
            "state": "AZ", 
            "street": "", 
            "latitude": 33.458818390700003
          }
        }, 
        {
          "category": "Local business", 
          "name": "Fresh Gourmet To Go (RCC)", 
          "id": "175244942492607", 
          "category_list": [
            {
              "id": "273819889375819", 
              "name": "Restaurant"
            }
          ], 
          "location": {
            "city": "Phoenix", 
            "zip": "85034", 
            "country": "United States", 
            "longitude": -112.04588678, 
            "state": "AZ", 
            "street": "", 
            "latitude": 33.430281421799997
          }
        }, 
        {
          "category": "Local business", 
          "name": "Zedric's Fresh Gourmet to Go", 
          "id": "340552072721412", 
          "category_list": [
            {
              "id": "156756251046858", 
              "name": "Health Food Restaurant"
            }
          ], 
          "location": {
            "city": "San Antonio", 
            "zip": "78209", 
            "country": "United States", 
            "longitude": -98.462861229300003, 
            "state": "TX", 
            "street": "", 
            "latitude": 29.4754874383
          }
        }, 
        {
          "category": "Restaurant/cafe", 
          "name": "Go Pasta Fresh & Gourmet", 
          "id": "216921431771444", 
          "category_list": [
            {
              "id": "273819889375819", 
              "name": "Restaurant"
            }
          ], 
          "location": {
            "city": "Belo Horizonte", 
            "zip": "30140131", 
            "country": "Brazil", 
            "longitude": -43.9353779375, 
            "state": "", 
            "street": "Rua Tom\u00e9 de Souza, 912 ", 
            "latitude": -19.936950715599998
          }
        }, 
        {
          "category": "Local business", 
          "name": "Nikki's Fresh Gourmet", 
          "id": "122951004429699", 
          "category_list": [
            {
              "id": "134501539950711", 
              "name": "Sushi Restaurant"
            }
          ], 
          "location": {
            "city": "Wilmington", 
            "zip": "28401-8404", 
            "country": "United States", 
            "longitude": -77.948687193450994, 
            "state": "NC", 
            "street": "16 S Front St", 
            "latitude": 34.234942596143
          }
        }, 
        {
          "category": "Food/grocery", 
          "name": "Fresh Gourmet HK", 
          "id": "447923901948556", 
          "category_list": [
            {
              "id": "150108431712141", 
              "name": "Food & Grocery"
            }
          ], 
          "location": {
            "city": "Hong Kong", 
            "zip": "", 
            "country": "Hong Kong", 
            "longitude": 114.15000000000001, 
            "street": "", 
            "latitude": 22.283300000000001
          }
        }, 
        {
          "category": "Food/grocery", 
          "name": "Gourmet Fresh", 
          "id": "287492674680539", 
          "category_list": [
            {
              "id": "150108431712141", 
              "name": "Food & Grocery"
            }
          ], 
          "location": {
            "city": "Brooklyn", 
            "zip": "11231", 
            "country": "United States", 
            "longitude": -73.997634000000005, 
            "state": "NY", 
            "street": "437 Court Street", 
            "latitude": 40.678376999999998
          }
        }, 
        {
          "category": "Local business", 
          "name": "Fresh Gourmet", 
          "id": "248911091868574", 
          "category_list": [
            {
              "id": "2500", 
              "name": "Local Business"
            }
          ], 
          "location": {
            "city": "Kowloon", 
            "zip": "852", 
            "country": "Hong Kong", 
            "longitude": 114.192422196, 
            "street": "G/F,28 Shepherd Street, Tai Hang, Causeway Bay", 
            "latitude": 22.278682287999999
          }
        }, 
        {
          "category": "Local business", 
          "name": "Planet Fresh Gourmet Burritos", 
          "id": "120895584589780", 
          "category_list": [
            {
              "id": "199377230079198", 
              "name": "Mexican Restaurant"
            }
          ], 
          "location": {
            "city": "Santa Cruz", 
            "zip": "95060-3803", 
            "country": "United States", 
            "longitude": -122.02788128948001, 
            "state": "CA", 
            "street": "1003 Cedar St", 
            "latitude": 36.975008375126002
          }
        }, 
        {
          "category": "Food/grocery", 
          "name": "Zone Fresh Gourmet Markets", 
          "id": "108115666651", 
          "category_list": [
            {
              "id": "150108431712141", 
              "name": "Food & Grocery"
            }
          ], 
          "location": {
            "city": "Brisbane", 
            "zip": "4030", 
            "country": "Australia", 
            "longitude": 153.02450317899999, 
            "state": "QLD", 
            "street": "Newmarket Road, Windsor", 
            "latitude": -27.437722240399999
          }
        }, 
        {
          "category": "Local business", 
          "name": "The Fresh Gourmet in San Marino", 
          "id": "159562387395380", 
          "category_list": [
            {
              "id": "273819889375819", 
              "name": "Restaurant"
            }
          ], 
          "location": {
            "city": "San Marino", 
            "zip": "91108", 
            "country": "United States", 
            "longitude": -118.10971503693, 
            "state": "CA", 
            "street": "2004 Huntington Drive", 
            "latitude": 34.120256938278999
          }
        }, 
        {
          "category": "Food/grocery", 
          "name": "Fresh Goals Gourmet", 
          "id": "315964768490599", 
          "category_list": [
            {
              "id": "187462324610381", 
              "name": "Food Consultant"
            }, 
            {
              "id": "165679780146824", 
              "name": "Food & Restaurant"
            }
          ], 
          "location": {
            "city": "Manalapan", 
            "zip": "07726", 
            "country": "United States", 
            "longitude": -74.334599999999995, 
            "state": "NJ", 
            "street": "Delivery Only", 
            "latitude": 40.292700000000004
          }
        }, 
        {
          "category": "Restaurant/cafe", 
          "name": "Planet Fresh Gourmet Burrito", 
          "id": "106601546027125", 
          "category_list": [
            {
              "id": "199377230079198", 
              "name": "Mexican Restaurant"
            }
          ], 
          "location": {
            "city": "Pleasanton", 
            "zip": "94588", 
            "country": "United States", 
            "longitude": -121.924593067, 
            "state": "CA", 
            "street": "5548-D Springdale Ave.", 
            "latitude": 37.692198623499998
          }
        }, 
        {
          "category": "Local business", 
          "name": "Fresh Gourmet", 
          "id": "160156884181095", 
          "category_list": [
            {
              "id": "198722103478014", 
              "name": "Health Food Store"
            }
          ], 
          "location": {
            "city": "Houston", 
            "zip": "", 
            "country": "United States", 
            "longitude": -95.333494070794998, 
            "state": "TX", 
            "street": "", 
            "latitude": 29.983475215782001
          }
        }, 
        {
          "category": "Food/grocery", 
          "name": "Paul's Gourmet Jerky & Fresh Meats", 
          "id": "549926215039599", 
          "category_list": [
            {
              "id": "200019523363001", 
              "name": "Food & Beverage Service & Distribution"
            }
          ], 
          "location": {
            "city": "Kent City", 
            "zip": "49330", 
            "country": "United States", 
            "longitude": -85.757598999999999, 
            "state": "MI", 
            "street": "280 Ball Creek Rd", 
            "latitude": 43.220149999999997
          }
        }, 
        {
          "category": "Restaurant/cafe", 
          "name": "Belinda's Gourmet Fresh Catering", 
          "id": "41264698480", 
          "category_list": [
            {
              "id": "165679780146824", 
              "name": "Food & Restaurant"
            }
          ], 
          "location": {
            "city": "Santo Domingo", 
            "zip": "", 
            "country": "Dominican Republic", 
            "longitude": -69.936136036682001, 
            "state": "", 
            "street": "Desiderio Arias No. 54, Bella Vista", 
            "latitude": 18.460335563708998
          }
        }, 
        {
          "category": "Restaurant/cafe", 
          "name": "FRESH BEETS Gourmet Ice Pops", 
          "id": "445909028787717", 
          "category_list": [
            {
              "id": "139433292785470", 
              "name": "Caterer"
            }, 
            {
              "id": "273819889375819", 
              "name": "Restaurant"
            }
          ], 
          "location": {
            "city": "Columbia", 
            "zip": "65203", 
            "country": "United States", 
            "longitude": -92.333799999999997, 
            "state": "MO", 
            "street": "Columbia Farmers Market", 
            "latitude": 38.948399999999999
          }
        }, 
        {
          "category": "Food/grocery", 
          "name": "Rica Fresh Gourmet Pasta", 
          "id": "157162254491969", 
          "category_list": [
            {
              "id": "150108431712141", 
              "name": "Food & Grocery"
            }, 
            {
              "id": "178048968909016", 
              "name": "Manufacturing"
            }, 
            {
              "id": "273819889375819", 
              "name": "Restaurant"
            }
          ], 
          "location": {
            "city": "Vermont South", 
            "zip": "3133", 
            "country": "Australia", 
            "longitude": 145.18408976326, 
            "state": "VIC", 
            "street": "291 Hawthorn Rd", 
            "latitude": -37.847351474378002
          }
        }, 
        {
          "category": "Food/grocery", 
          "name": "Fresh Gourmet Takeaway", 
          "id": "308227469219380", 
          "category_list": [
            {
              "id": "150108431712141", 
              "name": "Food & Grocery"
            }, 
            {
              "id": "273819889375819", 
              "name": "Restaurant"
            }, 
            {
              "id": "139433292785470", 
              "name": "Caterer"
            }
          ], 
          "location": {
            "city": "Langley", 
            "zip": "V2Y 2N2", 
            "country": "Canada", 
            "longitude": -122.66733253242001, 
            "state": "BC", 
            "street": "#3, 6280 202 Street", 
            "latitude": 49.119083545781997
          }
        }, 
        {
          "category": "Local business", 
          "name": "Fit N Fresh Gourmet", 
          "id": "160931277309592", 
          "category_list": [
            {
              "id": "2500", 
              "name": "Local Business"
            }
          ], 
          "location": {
            "latitude": 29.750830000000001, 
            "street": "", 
            "zip": "", 
            "longitude": -95.800830000000005
          }
        }, 
        {
          "category": "Local business", 
          "name": "Cullins Fresh Gourmet Foods", 
          "id": "126285870753507", 
          "category_list": [
            {
              "id": "2500", 
              "name": "Local Business"
            }
          ], 
          "location": {
            "city": "Florham Park", 
            "zip": "07932", 
            "country": "United States", 
            "longitude": -74.392953000000006, 
            "state": "NJ", 
            "street": "184 Columbia Tpke, New Jersey, 07932 Next to Kings Supermarket", 
            "latitude": 40.790272999999999
          }
        }, 
        {
          "category": "Restaurant/cafe", 
          "name": "freshQu\u00edsimo green gourmet", 
          "id": "167525626664999", 
          "category_list": [
            {
              "id": "219222658110242", 
              "name": "Smoothie & Juice Bar"
            }, 
            {
              "id": "197871390225897", 
              "name": "Cafe"
            }, 
            {
              "id": "119869574758000", 
              "name": "Tapas Bar & Restaurant"
            }
          ], 
          "location": {
            "city": "Alicante", 
            "zip": "03003", 
            "country": "Spain", 
            "longitude": -0.48912512906099997, 
            "state": "", 
            "street": "Federico Soto 1-3, Gourmet Experience, El Corte Ingl\u00e9s.", 
            "latitude": 38.343900886500002
          }
        }, 
        {
          "category": "Local business", 
          "name": "A Cafe Fresh Gourmet", 
          "id": "194565677298596", 
          "category_list": [
            {
              "id": "2500", 
              "name": "Local Business"
            }
          ], 
          "location": {
            "city": "San Diego", 
            "zip": "92111", 
            "country": "United States", 
            "longitude": -117.15062, 
            "state": "CA", 
            "street": "", 
            "latitude": 32.820340000000002
          }
        }, 
        {
          "category": "Food/grocery", 
          "name": "Beefalicious Farm Fresh Gourmet Beef", 
          "id": "174908792567055", 
          "category_list": [
            {
              "id": "150108431712141", 
              "name": "Food & Grocery"
            }
          ], 
          "location": {
            "city": "Marulan", 
            "zip": "2579", 
            "country": "Australia", 
            "longitude": 150.017, 
            "state": "NSW", 
            "street": "Marulan South Road", 
            "latitude": -34.700000000000003
          }
        }, 
        {
          "category": "Local business", 
          "name": "Gourmet Fresh Xpress", 
          "id": "117804345073648", 
          "category_list": [
            {
              "id": "273819889375819", 
              "name": "Restaurant"
            }
          ], 
          "location": {
            "city": "Detroit", 
            "zip": "48201", 
            "country": "United States", 
            "longitude": -83.060908659999996, 
            "state": "MI", 
            "street": "", 
            "latitude": 42.351989699999997
          }
        }, 
        {
          "category": "Local business", 
          "name": "Gourmet's Fresh Pasta", 
          "id": "115109221842146", 
          "category_list": [
            {
              "id": "193831710644458", 
              "name": "Italian Restaurant"
            }, 
            {
              "id": "169207329791658", 
              "name": "Grocery Store"
            }
          ], 
          "location": {
            "city": "Pasadena", 
            "zip": "91103-3009", 
            "country": "United States", 
            "longitude": -118.150192, 
            "state": "CA", 
            "street": "950 N Fair Oaks Ave", 
            "latitude": 34.162064000000001
          }
        }, 
        {
          "category": "Local business", 
          "name": "Garden Fresh Gourmet", 
          "id": "219612441384264", 
          "category_list": [
            {
              "id": "187133811318958", 
              "name": "Business Services"
            }, 
            {
              "id": "175962259115742", 
              "name": "Food & Beverage Service & Distribution"
            }
          ], 
          "location": {
            "city": "Taylor", 
            "zip": "48180", 
            "country": "United States", 
            "longitude": -83.248734330900007, 
            "state": "MI", 
            "street": "", 
            "latitude": 42.264692869500003
          }
        }, 
        {
          "category": "Food/grocery", 
          "name": "FRESH Gourmet Deli-very", 
          "id": "166828853516227", 
          "category_list": [
            {
              "id": "139433292785470", 
              "name": "Caterer"
            }, 
            {
              "id": "188296324525457", 
              "name": "Sandwich Shop"
            }, 
            {
              "id": "224426430990363", 
              "name": "Food Truck"
            }
          ], 
          "location": {
            "city": "Grez-Doiceau", 
            "zip": "1390", 
            "country": "Belgium", 
            "longitude": 4.6533509507252999, 
            "state": "", 
            "street": "366 Chauss\u00e9e de Wavre", 
            "latitude": 50.735962067731002
          }
        }, 
        {
          "category": "Restaurant/cafe", 
          "name": "So Fresh Gourmet Cafe & Takeaway", 
          "id": "231684186862527", 
          "category_list": [
            {
              "id": "200742186618963", 
              "name": "Vegetarian & Vegan Restaurant"
            }, 
            {
              "id": "192803624072087", 
              "name": "Fast Food Restaurant"
            }, 
            {
              "id": "192108214153222", 
              "name": "Breakfast & Brunch Restaurant"
            }
          ], 
          "location": {
            "city": "Padstow", 
            "zip": "2211", 
            "country": "Australia", 
            "longitude": 151.031894448, 
            "state": "NSW", 
            "street": "1a Padstow pde", 
            "latitude": -33.952320718700001
          }
        }, 
        {
          "category": "Food/grocery", 
          "name": "Kardinya Fresh Gourmet Butchers", 
          "id": "249165255146655", 
          "category_list": [
            {
              "id": "150108431712141", 
              "name": "Food & Grocery"
            }
          ], 
          "location": {
            "city": "Perth", 
            "zip": "6163", 
            "country": "Australia", 
            "longitude": 115.81546642546, 
            "state": "WA", 
            "street": "", 
            "latitude": -32.068166564225002, 
            "located_in": 152499171449167
          }
        }, 
        {
          "category": "Restaurant/cafe", 
          "name": "T.F.A Gourmet Fresh Fast Food", 
          "id": "437368269671623", 
          "category_list": [
            {
              "id": "273819889375819", 
              "name": "Restaurant"
            }
          ], 
          "location": {
            "city": "Shawville", 
            "zip": "j0x2y0", 
            "country": "Canada", 
            "longitude": -76.4833, 
            "state": "QC", 
            "street": "303 Route Noth", 
            "latitude": 45.600000000000001
          }
        }, 
        {
          "category": "Local business", 
          "name": "China Gourmet", 
          "id": "115597501793952", 
          "category_list": [
            {
              "id": "174483852595760", 
              "name": "Chinese Restaurant"
            }
          ], 
          "location": {
            "city": "Fresh Meadows", 
            "zip": "11366-1732", 
            "country": "United States", 
            "longitude": -73.783227999999994, 
            "state": "NY", 
            "street": "18524 Union Tpke", 
            "latitude": 40.728330999999997
          }
        }, 
        {
          "category": "Food/grocery", 
          "name": "The Fresh Chef. Seasonal, Gourmet Snack Wagon", 
          "id": "523856240997463", 
          "category_list": [
            {
              "id": "150108431712141", 
              "name": "Food & Grocery"
            }
          ], 
          "location": {
            "city": "Coventry", 
            "zip": "", 
            "country": "United Kingdom", 
            "longitude": -1.5612527188500001, 
            "state": "", 
            "street": "15 collingwood road", 
            "latitude": 52.387822506299997
          }
        }, 
        {
          "category": "Food/grocery", 
          "name": "IGIC - Fresh foods . Biz Center . Gourmet Coffee Shop", 
          "id": "181102501934709", 
          "category_list": [
            {
              "id": "197871390225897", 
              "name": "Cafe"
            }
          ], 
          "location": {
            "city": "Corpus Christi", 
            "zip": "78418", 
            "country": "United States", 
            "longitude": -97.222831999999997, 
            "state": "TX", 
            "street": "14225 South Padre Island Drive, Suites 9 & 10", 
            "latitude": 27.625166
          }
        }, 
        {
          "category": "Local business", 
          "name": "Fresh Gourmet Cuisine Corp", 
          "id": "133894679995920", 
          "category_list": [
            {
              "id": "139433292785470", 
              "name": "Caterer"
            }, 
            {
              "id": "273819889375819", 
              "name": "Restaurant"
            }
          ], 
          "location": {
            "city": "Northridge", 
            "zip": "91324-3507", 
            "country": "United States", 
            "longitude": -118.55744199999999, 
            "state": "CA", 
            "street": "19431 Business Center Dr", 
            "latitude": 34.232272999999999
          }
        }, 
        {
          "category": "Restaurant/cafe", 
          "name": "Flip Flopsicle Gourmet Ice Pops & Fresh Organic Juice", 
          "id": "158487380995123", 
          "category_list": [
            {
              "id": "187153754656815", 
              "name": "Dessert Restaurant"
            }, 
            {
              "id": "219222658110242", 
              "name": "Smoothie & Juice Bar"
            }, 
            {
              "id": "200742186618963", 
              "name": "Vegetarian & Vegan Restaurant"
            }
          ], 
          "location": {
            "city": "Payson", 
            "zip": "85541", 
            "country": "United States", 
            "longitude": -111.328863, 
            "state": "AZ", 
            "street": "", 
            "latitude": 34.231209
          }
        }, 
        {
          "category": "Food/grocery", 
          "name": "Effie's Gourmet Chicken & Fresh Fish", 
          "id": "256344334425209", 
          "category_list": [
            {
              "id": "150108431712141", 
              "name": "Food & Grocery"
            }
          ], 
          "location": {
            "city": "Perth", 
            "zip": "6062", 
            "country": "Australia", 
            "longitude": 116.00933991399999, 
            "state": "WA", 
            "street": "Coventry square market", 
            "latitude": -31.947232126300001
          }
        }, 
        {
          "category": "Local business", 
          "name": "Garden Fresh Gourmet", 
          "id": "145227988833588", 
          "category_list": [
            {
              "id": "273819889375819", 
              "name": "Restaurant"
            }
          ], 
          "location": {
            "city": "Ferndale", 
            "zip": "48220", 
            "country": "United States", 
            "longitude": -83.120558647199999, 
            "state": "MI", 
            "street": "", 
            "latitude": 42.458418390699997
          }
        }, 
        {
          "category": "Restaurant/cafe", 
          "name": "Cobblestone Deli, Business Lunch Catering, Gourmet Fresh Soups, Salad Bar", 
          "id": "144931198984837", 
          "category_list": [
            {
              "id": "112286315572975", 
              "name": "Salad Bar"
            }, 
            {
              "id": "188296324525457", 
              "name": "Sandwich Shop"
            }
          ], 
          "location": {
            "city": "Burlington", 
            "zip": "05401", 
            "country": "United States", 
            "longitude": -73.218338000000003, 
            "state": "VT", 
            "street": "152 Battery Street", 
            "latitude": 44.475368000000003
          }
        }, 
        {
          "category": "Local business", 
          "name": "Gourmet Flowers and Fresh Baskets", 
          "id": "159415507414052", 
          "category_list": [
            {
              "id": "192111490806699", 
              "name": "Florist"
            }
          ], 
          "location": {
            "city": "Miami", 
            "zip": "33175-3204", 
            "country": "United States", 
            "longitude": -80.411857999999995, 
            "state": "FL", 
            "street": "13369 SW 42nd St", 
            "latitude": 25.729464
          }
        }, 
        {
          "category": "Local business", 
          "name": "Fresh Kabobs of Long Beach Gourmet Indian Kitchen.", 
          "id": "225923357495042", 
          "category_list": [
            {
              "id": "2500", 
              "name": "Local Business"
            }
          ], 
          "location": {
            "city": "Long Beach", 
            "zip": "90802", 
            "country": "United States", 
            "longitude": -118.19071660100001, 
            "state": "CA", 
            "street": "", 
            "latitude": 33.7718409716
          }
        }, 
        {
          "category": "Small business", 
          "name": "Katte's Kaffe' Gourmet Coffee", 
          "id": "197506720331493", 
          "category_list": [
            {
              "id": "133436743388217", 
              "name": "Arts & Entertainment"
            }
          ], 
          "location": {
            "city": "La Mesa", 
            "zip": "91941-6862", 
            "country": "United States", 
            "longitude": -116.99543799999999, 
            "state": "CA", 
            "street": "4023 S Tropico Dr.", 
            "latitude": 32.751804
          }
        }, 
        {
          "category": "Food/grocery", 
          "name": "Michelle's Gourmet at Swan Valley Fresh Market", 
          "id": "194287603955940", 
          "category_list": [
            {
              "id": "150108431712141", 
              "name": "Food & Grocery"
            }
          ], 
          "location": {
            "city": "Perth", 
            "zip": "6056", 
            "country": "Australia", 
            "longitude": 116.0175857, 
            "state": "WA", 
            "street": "64 Morrison Road Midland", 
            "latitude": -31.893569150000001
          }
        }, 
        {
          "category": "Local business", 
          "name": "David's Gourmet Deli Inc", 
          "id": "111665745537874", 
          "category_list": [
            {
              "id": "188334264523313", 
              "name": "Deli"
            }
          ], 
          "location": {
            "city": "Maspeth", 
            "zip": "11378-3542", 
            "country": "United States", 
            "longitude": -73.900963000000004, 
            "state": "NY", 
            "street": "6073 Fresh Pond Rd", 
            "latitude": 40.715069
          }
        }, 
        {
          "category": "Food/grocery", 
          "name": "Fresh Local & Imported Truffles", 
          "id": "146247242182325", 
          "category_list": [
            {
              "id": "150108431712141", 
              "name": "Food & Grocery"
            }
          ], 
          "location": {
            "city": "Melbourne", 
            "zip": "3207", 
            "country": "Australia", 
            "longitude": 144.93356, 
            "state": "VIC", 
            "street": "", 
            "latitude": -37.839033999085999
          }
        }, 
        {
          "category": "Food/grocery", 
          "name": "Sunset Gourmet in the Kitchen", 
          "id": "252631551579877", 
          "category_list": [
            {
              "id": "162264673824073", 
              "name": "Specialty Grocery Store"
            }, 
            {
              "id": "182269951819423", 
              "name": "Cooking Lesson"
            }
          ], 
          "location": {
            "latitude": 46.003969502132001, 
            "street": "", 
            "zip": "", 
            "longitude": -77.453380255037004
          }
        }
      ]
    }
  }, 
  {
    "business_name": "Phoenix Tennis Center", 
    "business_id": "bGYQiDTdpTc_ok7cYsZzoA", 
    "fb_pages": {
      "paging": {
        "next": "https://graph.facebook.com/search?type=place&access_token=229546593895315|yPLlHqq6YvDLIH4nL0kjJtIFSlU&limit=5000&offset=5000&__after_id=493447460730064"
      }, 
      "data": [
        {
          "category": "Local business", 
          "name": "Phoenix Tennis Center", 
          "id": "114138588616929", 
          "category_list": [
            {
              "id": "187950394558510", 
              "name": "Tennis"
            }, 
            {
              "id": "133436743388217", 
              "name": "Arts & Entertainment"
            }
          ], 
          "location": {
            "city": "Phoenix", 
            "zip": "85015-1508", 
            "country": "United States", 
            "longitude": -112.10485907021, 
            "state": "AZ", 
            "street": "6330 N 21st Ave", 
            "latitude": 33.530160221256999
          }
        }, 
        {
          "category": "Sports/recreation/activities", 
          "name": "Ahwatukee Community Swim and Tennis Center", 
          "id": "359274497471981", 
          "category_list": [
            {
              "id": "187950394558510", 
              "name": "Tennis"
            }
          ], 
          "location": {
            "city": "Phoenix", 
            "zip": "85044", 
            "country": "United States", 
            "longitude": -111.974164, 
            "state": "AZ", 
            "street": "4700 E. Warner Road", 
            "latitude": 33.334930999999997
          }
        }, 
        {
          "category": "Local business", 
          "name": "Tennis Center @ Jw Marriott", 
          "id": "249753055073991", 
          "category_list": [
            {
              "id": "2500", 
              "name": "Local Business"
            }
          ], 
          "location": {
            "city": "Phoenix", 
            "zip": "85054", 
            "country": "United States", 
            "longitude": -111.96772873, 
            "state": "AZ", 
            "street": "", 
            "latitude": 33.682528490000003
          }
        }, 
        {
          "category": "Local business", 
          "name": "City Center Tennis Courts", 
          "id": "120338984645721", 
          "category_list": [
            {
              "id": "192998244062607", 
              "name": "Sports Center"
            }
          ], 
          "location": {
            "city": "Phoenix", 
            "zip": "85004", 
            "country": "United States", 
            "longitude": -112.072276, 
            "state": "AZ", 
            "street": "121 E Adams St", 
            "latitude": 33.449182999999998
          }
        }, 
        {
          "category": "Local business", 
          "name": "Mountain Park Ranch Tennis Court", 
          "id": "493447460730064", 
          "category_list": [
            {
              "id": "296862927058877", 
              "name": "Community Center"
            }
          ], 
          "location": {
            "city": "Phoenix", 
            "zip": "85044", 
            "country": "United States", 
            "longitude": -111.99751224511, 
            "state": "AZ", 
            "street": "", 
            "latitude": 33.323206213024001
          }
        }
      ]
    }
  }, 
  {
    "business_name": "Tilted Kilt Pub & Eatery", 
    "business_id": "o9nCXNC14VScabiy2bftgw", 
    "fb_pages": {
      "paging": {
        "next": "https://graph.facebook.com/search?type=place&access_token=229546593895315|yPLlHqq6YvDLIH4nL0kjJtIFSlU&limit=5000&offset=5000&__after_id=202766473160857"
      }, 
      "data": [
        {
          "category": "Bar", 
          "name": "Tilted Kilt Pub, King of Prussia", 
          "id": "174471815992868", 
          "category_list": [
            {
              "id": "273819889375819", 
              "name": "Restaurant"
            }, 
            {
              "id": "218693881483234", 
              "name": "Pub"
            }, 
            {
              "id": "184460441595855", 
              "name": "Sports Bar"
            }
          ], 
          "location": {
            "city": "King of Prussia", 
            "zip": "19406", 
            "country": "United States", 
            "longitude": -75.390334450563998, 
            "state": "PA", 
            "street": "826 W. Dekalb Pike", 
            "latitude": 40.084863822621998
          }
        }, 
        {
          "category": "Restaurant/cafe", 
          "name": "Tilted Kilt Pub & Eatery, Wethersfield", 
          "id": "175189822574290", 
          "category_list": [
            {
              "id": "218693881483234", 
              "name": "Pub"
            }, 
            {
              "id": "184460441595855", 
              "name": "Sports Bar"
            }, 
            {
              "id": "273819889375819", 
              "name": "Restaurant"
            }
          ], 
          "location": {
            "city": "Wethersfield", 
            "zip": "06109", 
            "country": "United States", 
            "longitude": -72.656282079310003, 
            "state": "CT", 
            "street": "1151 Silas Deane Hwy.", 
            "latitude": 41.690144223895999
          }
        }, 
        {
          "category": "Restaurant/cafe", 
          "name": "Tilted Kilt Pub Paradise Valley", 
          "id": "156043297834280", 
          "category_list": [
            {
              "id": "273819889375819", 
              "name": "Restaurant"
            }, 
            {
              "id": "218693881483234", 
              "name": "Pub"
            }, 
            {
              "id": "110290705711626", 
              "name": "Bar"
            }
          ], 
          "location": {
            "city": "Phoenix", 
            "zip": "85032", 
            "country": "United States", 
            "longitude": -111.9784956434, 
            "state": "AZ", 
            "street": "4731 E. Cactus", 
            "latitude": 33.597696634019997
          }
        }, 
        {
          "category": "Local business", 
          "name": "Tilted Kilt Pub & Eatery", 
          "id": "111662742204140", 
          "category_list": [
            {
              "id": "218693881483234", 
              "name": "Pub"
            }, 
            {
              "id": "184460441595855", 
              "name": "Sports Bar"
            }, 
            {
              "id": "233804719972590", 
              "name": "Bar & Grill"
            }
          ], 
          "location": {
            "city": "Wethersfield", 
            "zip": "06109", 
            "country": "United States", 
            "longitude": -117.15562525343999, 
            "state": "CT", 
            "street": "310 10th Ave", 
            "latitude": 32.708540752855001
          }
        }, 
        {
          "category": "Restaurant/cafe", 
          "name": "Tilted Kilt Pub & Eatery, Edmonton", 
          "id": "302422753119334", 
          "category_list": [
            {
              "id": "218693881483234", 
              "name": "Pub"
            }, 
            {
              "id": "189018581118681", 
              "name": "Sports Club"
            }, 
            {
              "id": "110290705711626", 
              "name": "Bar"
            }
          ], 
          "location": {
            "city": "Edmonton", 
            "zip": "T6E 2A1", 
            "country": "Canada", 
            "longitude": -113.49759149281, 
            "state": "AB", 
            "street": "10401 82 Ave", 
            "latitude": 53.517978760822999
          }
        }, 
        {
          "category": "Local business", 
          "name": "Tilted Kilt Pub & Eatery", 
          "id": "263586227021456", 
          "category_list": [
            {
              "id": "233804719972590", 
              "name": "Bar & Grill"
            }, 
            {
              "id": "187425207958280", 
              "name": "Burger Restaurant"
            }
          ], 
          "location": {
            "city": "Canton", 
            "zip": "44718", 
            "country": "United States", 
            "longitude": -81.432441264416994, 
            "state": "OH", 
            "street": "5075 Dressler Rd", 
            "latitude": 40.854608879224003
          }
        }, 
        {
          "category": "Local business", 
          "name": "Tilted Kilt Pub and Eatery", 
          "id": "121518781195924", 
          "category_list": [
            {
              "id": "218693881483234", 
              "name": "Pub"
            }, 
            {
              "id": "149803325077018", 
              "name": "American Restaurant"
            }, 
            {
              "id": "233804719972590", 
              "name": "Bar & Grill"
            }
          ], 
          "location": {
            "city": "Denver", 
            "zip": "80202-1567", 
            "country": "United States", 
            "longitude": -104.99617532828999, 
            "state": "CO", 
            "street": "1201 16th St", 
            "latitude": 39.748375957748003
          }
        }, 
        {
          "category": "Local business", 
          "name": "Tilted Kilt Pub & Eatery", 
          "id": "435911329789570", 
          "category_list": [
            {
              "id": "273819889375819", 
              "name": "Restaurant"
            }, 
            {
              "id": "110290705711626", 
              "name": "Bar"
            }
          ], 
          "location": {
            "city": "Matthews", 
            "zip": "28105", 
            "country": "United States", 
            "longitude": -80.712950716872001, 
            "state": "NC", 
            "street": "Windsor Square Dr", 
            "latitude": 35.133228661168999
          }
        }, 
        {
          "category": "Local business", 
          "name": "Tilted Kilt Pub & Eatery Of Granger,IN", 
          "id": "165877953476316", 
          "category_list": [
            {
              "id": "184460441595855", 
              "name": "Sports Bar"
            }, 
            {
              "id": "137463256320813", 
              "name": "Irish Restaurant"
            }
          ], 
          "location": {
            "city": "Granger", 
            "zip": "46530", 
            "country": "United States", 
            "longitude": -86.167516515716002, 
            "state": "IN", 
            "street": "1032 East University Drive", 
            "latitude": 41.721766161384998
          }
        }, 
        {
          "category": "Local business", 
          "name": "The Tilted Kilt Pub & Eatery", 
          "id": "411708662234592", 
          "category_list": [
            {
              "id": "110290705711626", 
              "name": "Bar"
            }, 
            {
              "id": "273819889375819", 
              "name": "Restaurant"
            }
          ], 
          "location": {
            "city": "Novi", 
            "zip": "48377", 
            "country": "United States", 
            "longitude": -83.484112113066004, 
            "state": "MI", 
            "street": "", 
            "latitude": 42.490493716758998
          }
        }, 
        {
          "category": "Local business", 
          "name": "Tilted Kilt Pub & Eatery", 
          "id": "1052543324885378", 
          "category_list": [
            {
              "id": "218693881483234", 
              "name": "Pub"
            }
          ], 
          "location": {
            "city": "Temecula", 
            "zip": "92589", 
            "country": "United States", 
            "longitude": -117.15770809791, 
            "state": "CA", 
            "street": "26520 Ynez Rd.", 
            "latitude": 33.523052656659999
          }
        }, 
        {
          "category": "Local business", 
          "name": "Tilted Kilt Pub & Eatery", 
          "id": "175746715785028", 
          "category_list": [
            {
              "id": "273819889375819", 
              "name": "Restaurant"
            }, 
            {
              "id": "184460441595855", 
              "name": "Sports Bar"
            }, 
            {
              "id": "218693881483234", 
              "name": "Pub"
            }
          ], 
          "location": {
            "city": "Columbus", 
            "zip": "43240", 
            "country": "United States", 
            "longitude": -82.992153107375003, 
            "state": "OH", 
            "street": "", 
            "latitude": 40.1396209798
          }
        }, 
        {
          "category": "Local business", 
          "name": "Tilted Kilt Pub & Eatery", 
          "id": "151035914936845", 
          "category_list": [
            {
              "id": "218693881483234", 
              "name": "Pub"
            }, 
            {
              "id": "184460441595855", 
              "name": "Sports Bar"
            }, 
            {
              "id": "137463256320813", 
              "name": "Irish Restaurant"
            }
          ], 
          "location": {
            "city": "Atlanta", 
            "zip": "30338", 
            "country": "United States", 
            "longitude": -84.351382130781005, 
            "state": "GA", 
            "street": "1155-B Mount Vernon Highway", 
            "latitude": 33.932782272615
          }
        }, 
        {
          "category": "Local business", 
          "name": "The Tilted Kilt Pub And Eatery", 
          "id": "400506079966118", 
          "category_list": [
            {
              "id": "273819889375819", 
              "name": "Restaurant"
            }, 
            {
              "id": "184460441595855", 
              "name": "Sports Bar"
            }, 
            {
              "id": "218693881483234", 
              "name": "Pub"
            }
          ], 
          "location": {
            "city": "Santa Clarita", 
            "zip": "91355", 
            "country": "United States", 
            "longitude": -118.56017846701, 
            "state": "CA", 
            "street": "Theatre Drive", 
            "latitude": 34.417177834451003
          }
        }, 
        {
          "category": "Local business", 
          "name": "Tilted Kilt Pub N Eatery", 
          "id": "153802444750181", 
          "category_list": [
            {
              "id": "273819889375819", 
              "name": "Restaurant"
            }
          ], 
          "location": {
            "city": "Cleveland", 
            "zip": "44113", 
            "country": "United States", 
            "longitude": -81.692205754254005, 
            "state": "OH", 
            "street": "", 
            "latitude": 41.497954679271999
          }
        }, 
        {
          "category": "Local business", 
          "name": "Tilted Kilt Pub & Eatery", 
          "id": "285479398235050", 
          "category_list": [
            {
              "id": "218693881483234", 
              "name": "Pub"
            }
          ], 
          "location": {
            "city": "Romeoville", 
            "zip": "60440", 
            "country": "United States", 
            "longitude": -88.125314070773001, 
            "state": "IL", 
            "street": "1055  S. Weber Rd.", 
            "latitude": 41.661962537279997
          }
        }, 
        {
          "category": "Local business", 
          "name": "Tilted Kilt Pub", 
          "id": "375707412494144", 
          "category_list": [
            {
              "id": "233804719972590", 
              "name": "Bar & Grill"
            }
          ], 
          "location": {
            "city": "San Antonio", 
            "zip": "78232", 
            "country": "United States", 
            "longitude": -98.459175184599999, 
            "state": "TX", 
            "street": "", 
            "latitude": 29.605703925
          }
        }, 
        {
          "category": "Local business", 
          "name": "Tilted Kilt Pub & Eatery", 
          "id": "196042290428918", 
          "category_list": [
            {
              "id": "110290705711626", 
              "name": "Bar"
            }, 
            {
              "id": "218693881483234", 
              "name": "Pub"
            }, 
            {
              "id": "149803325077018", 
              "name": "American Restaurant"
            }
          ], 
          "location": {
            "city": "Nottingham", 
            "zip": "21236", 
            "country": "United States", 
            "longitude": -76.464921925195995, 
            "state": "MD", 
            "street": "", 
            "latitude": 39.371171981989001
          }
        }, 
        {
          "category": "Local business", 
          "name": "Tilted Kilt Pub & Eatery", 
          "id": "147830188695353", 
          "category_list": [
            {
              "id": "218693881483234", 
              "name": "Pub"
            }
          ], 
          "location": {
            "city": "Chicago Ridge", 
            "zip": "60415", 
            "country": "United States", 
            "longitude": -87.780542642819995, 
            "state": "IL", 
            "street": "6401 95th St.", 
            "latitude": 41.719412408967997
          }
        }, 
        {
          "category": "Local business", 
          "name": "Tilted Kilt Pub And Eater", 
          "id": "135988449811739", 
          "category_list": [
            {
              "id": "110290705711626", 
              "name": "Bar"
            }, 
            {
              "id": "273819889375819", 
              "name": "Restaurant"
            }
          ], 
          "location": {
            "city": "Elgin", 
            "zip": "60124", 
            "country": "United States", 
            "longitude": -88.337122749437995, 
            "state": "IL", 
            "street": "2300 Bushwood Dr", 
            "latitude": 42.090664913540003
          }
        }, 
        {
          "category": "Local business", 
          "name": "Tilted Kilt Pub & Eatery", 
          "id": "183260321736039", 
          "category_list": [
            {
              "id": "233804719972590", 
              "name": "Bar & Grill"
            }, 
            {
              "id": "218693881483234", 
              "name": "Pub"
            }
          ], 
          "location": {
            "city": "Schaumburg", 
            "zip": "60173", 
            "country": "United States", 
            "longitude": -88.051443014144994, 
            "state": "IL", 
            "street": "", 
            "latitude": 42.040381648523997
          }
        }, 
        {
          "category": "Local business", 
          "name": "Tilted Kilt Pub & Eatery", 
          "id": "152236924826174", 
          "category_list": [
            {
              "id": "273819889375819", 
              "name": "Restaurant"
            }, 
            {
              "id": "110290705711626", 
              "name": "Bar"
            }, 
            {
              "id": "218693881483234", 
              "name": "Pub"
            }
          ], 
          "location": {
            "city": "Fort Wayne", 
            "zip": "46804", 
            "country": "United States", 
            "longitude": -85.200150046347005, 
            "state": "IN", 
            "street": "", 
            "latitude": 41.073985988315997, 
            "located_in": 139954012690471
          }
        }, 
        {
          "category": "Local business", 
          "name": "Tilted Kilt Pub & Eatery", 
          "id": "143308195736621", 
          "category_list": [
            {
              "id": "273819889375819", 
              "name": "Restaurant"
            }, 
            {
              "id": "110290705711626", 
              "name": "Bar"
            }
          ], 
          "location": {
            "city": "Buford", 
            "zip": "30519", 
            "country": "United States", 
            "longitude": -83.986362477499995, 
            "state": "GA", 
            "street": "", 
            "latitude": 34.0745139697
          }
        }, 
        {
          "category": "Local business", 
          "name": "Tilted Kilt", 
          "id": "321340494573832", 
          "category_list": [
            {
              "id": "218693881483234", 
              "name": "Pub"
            }, 
            {
              "id": "184460441595855", 
              "name": "Sports Bar"
            }, 
            {
              "id": "187425207958280", 
              "name": "Burger Restaurant"
            }
          ], 
          "location": {
            "city": "Joliet", 
            "zip": "60431", 
            "country": "United States", 
            "longitude": -88.166238249859006, 
            "state": "IL", 
            "street": "3340 Mall Loop Dr. #1467", 
            "latitude": 41.577492664032
          }
        }, 
        {
          "category": "Local business", 
          "name": "Tilted Kilt Pub & Eatery", 
          "id": "185672521495120", 
          "category_list": [
            {
              "id": "273819889375819", 
              "name": "Restaurant"
            }, 
            {
              "id": "110290705711626", 
              "name": "Bar"
            }
          ], 
          "location": {
            "city": "San Diego", 
            "zip": "92108", 
            "country": "United States", 
            "longitude": -117.14679819062999, 
            "state": "CA", 
            "street": "", 
            "latitude": 32.768458631399
          }
        }, 
        {
          "category": "Restaurant/cafe", 
          "name": "Tilted Kilt Chino", 
          "id": "408127689301700", 
          "category_list": [
            {
              "id": "218693881483234", 
              "name": "Pub"
            }, 
            {
              "id": "184460441595855", 
              "name": "Sports Bar"
            }, 
            {
              "id": "233804719972590", 
              "name": "Bar & Grill"
            }
          ], 
          "location": {
            "city": "Chino", 
            "zip": "91710", 
            "country": "United States", 
            "longitude": -117.7188246388, 
            "state": "CA", 
            "street": "3919 Grand Ave", 
            "latitude": 33.997736394268998
          }
        }, 
        {
          "category": "Local business", 
          "name": "Tilted Kilt Pub and Eatery", 
          "id": "196609573724077", 
          "category_list": [
            {
              "id": "273819889375819", 
              "name": "Restaurant"
            }, 
            {
              "id": "110290705711626", 
              "name": "Bar"
            }
          ], 
          "location": {
            "city": "Peoria", 
            "zip": "61615", 
            "country": "United States", 
            "longitude": -89.668925523499993, 
            "state": "IL", 
            "street": "", 
            "latitude": 40.782054155399997
          }
        }, 
        {
          "category": "Bar", 
          "name": "Tilted Kilt Pittsburgh", 
          "id": "187799301264631", 
          "category_list": [
            {
              "id": "218693881483234", 
              "name": "Pub"
            }, 
            {
              "id": "184460441595855", 
              "name": "Sports Bar"
            }, 
            {
              "id": "233804719972590", 
              "name": "Bar & Grill"
            }
          ], 
          "location": {
            "city": "Pittsburgh", 
            "zip": "15212", 
            "country": "United States", 
            "longitude": -80.010722327306993, 
            "state": "PA", 
            "street": "353 Northshore Dr", 
            "latitude": 40.445856455108
          }
        }, 
        {
          "category": "Local business", 
          "name": "Tilted Kilt, (Pub &  Eatery)", 
          "id": "453437864720069", 
          "category_list": [
            {
              "id": "273819889375819", 
              "name": "Restaurant"
            }, 
            {
              "id": "110290705711626", 
              "name": "Bar"
            }
          ], 
          "location": {
            "city": "Chicago", 
            "zip": "60602", 
            "country": "United States", 
            "longitude": -87.626226473100004, 
            "state": "IL", 
            "street": "", 
            "latitude": 41.882634864099998
          }
        }, 
        {
          "category": "Local business", 
          "name": "Tilted Kilt Pub & Eatery", 
          "id": "108211252554411", 
          "category_list": [
            {
              "id": "218693881483234", 
              "name": "Pub"
            }, 
            {
              "id": "184460441595855", 
              "name": "Sports Bar"
            }, 
            {
              "id": "273819889375819", 
              "name": "Restaurant"
            }
          ], 
          "location": {
            "city": "Kennesaw", 
            "zip": "30144-7501", 
            "country": "United States", 
            "longitude": -84.568890253308993, 
            "state": "GA", 
            "street": "780 Cobb Place Blvd NW", 
            "latitude": 34.007710087325997
          }
        }, 
        {
          "category": "Local business", 
          "name": "Tilted Kilt Pub And Eatery", 
          "id": "398589953535544", 
          "category_list": [
            {
              "id": "273819889375819", 
              "name": "Restaurant"
            }
          ], 
          "location": {
            "city": "Vernon Hills", 
            "zip": "60061", 
            "country": "United States", 
            "longitude": -87.942869298399998, 
            "state": "IL", 
            "street": "", 
            "latitude": 42.2344746355
          }
        }, 
        {
          "category": "Restaurant/cafe", 
          "name": "Tilted Kilt Roselle", 
          "id": "110557912320146", 
          "category_list": [
            {
              "id": "218693881483234", 
              "name": "Pub"
            }, 
            {
              "id": "188296324525457", 
              "name": "Sandwich Shop"
            }, 
            {
              "id": "187425207958280", 
              "name": "Burger Restaurant"
            }
          ], 
          "location": {
            "city": "Roselle", 
            "zip": "60172", 
            "country": "United States", 
            "longitude": -88.117017693514001, 
            "state": "IL", 
            "street": "1360 Lake Street", 
            "latitude": 41.97125644482
          }
        }, 
        {
          "category": "Restaurant/cafe", 
          "name": "Tilted Kilt Mall of Georgia", 
          "id": "132512856794380", 
          "category_list": [
            {
              "id": "218693881483234", 
              "name": "Pub"
            }, 
            {
              "id": "184460441595855", 
              "name": "Sports Bar"
            }, 
            {
              "id": "188296324525457", 
              "name": "Sandwich Shop"
            }
          ], 
          "location": {
            "city": "Buford", 
            "zip": "30519", 
            "country": "United States", 
            "longitude": -83.986424624048993, 
            "state": "GA", 
            "street": "3480 Financial Center Way Suite M1080", 
            "latitude": 34.074609328586
          }
        }, 
        {
          "category": "Local business", 
          "name": "Tilted Kilt Pub & Eatery", 
          "id": "103210959740281", 
          "category_list": [
            {
              "id": "110290705711626", 
              "name": "Bar"
            }, 
            {
              "id": "273819889375819", 
              "name": "Restaurant"
            }, 
            {
              "id": "218693881483234", 
              "name": "Pub"
            }
          ], 
          "location": {
            "city": "Hendersonville", 
            "zip": "37075", 
            "country": "United States", 
            "longitude": -86.603470339799998, 
            "state": "TN", 
            "street": "", 
            "latitude": 36.309356448300001
          }
        }, 
        {
          "category": "Restaurant/cafe", 
          "name": "Tilted Kilt Lake Mary", 
          "id": "141751022524042", 
          "category_list": [
            {
              "id": "218693881483234", 
              "name": "Pub"
            }, 
            {
              "id": "184460441595855", 
              "name": "Sports Bar"
            }, 
            {
              "id": "233804719972590", 
              "name": "Bar & Grill"
            }
          ], 
          "location": {
            "city": "Lake Mary", 
            "zip": "32746", 
            "country": "United States", 
            "longitude": -81.358299528101995, 
            "state": "FL", 
            "street": "901 Currency Circle", 
            "latitude": 28.756737843242998
          }
        }, 
        {
          "category": "Restaurant/cafe", 
          "name": "Tilted Kilt Clearwater", 
          "id": "405827400467", 
          "category_list": [
            {
              "id": "218693881483234", 
              "name": "Pub"
            }, 
            {
              "id": "188296324525457", 
              "name": "Sandwich Shop"
            }, 
            {
              "id": "187425207958280", 
              "name": "Burger Restaurant"
            }
          ], 
          "location": {
            "city": "Clearwater", 
            "zip": "33765", 
            "country": "United States", 
            "longitude": -82.731092625833995, 
            "state": "FL", 
            "street": "2571 Drew. St.", 
            "latitude": 27.967428939320001
          }
        }, 
        {
          "category": "Restaurant/cafe", 
          "name": "Tilted Kilt Kenosha", 
          "id": "591612800856173", 
          "category_list": [
            {
              "id": "218693881483234", 
              "name": "Pub"
            }, 
            {
              "id": "184460441595855", 
              "name": "Sports Bar"
            }, 
            {
              "id": "273819889375819", 
              "name": "Restaurant"
            }
          ], 
          "location": {
            "city": "Kenosha", 
            "zip": "53142", 
            "country": "United States", 
            "longitude": -87.892116183203001, 
            "state": "WI", 
            "street": "7000 74th Place", 
            "latitude": 42.568121434365999
          }
        }, 
        {
          "category": "Restaurant/cafe", 
          "name": "Tilted Kilt Watertown", 
          "id": "128392433860504", 
          "category_list": [
            {
              "id": "218693881483234", 
              "name": "Pub"
            }, 
            {
              "id": "184460441595855", 
              "name": "Sports Bar"
            }
          ], 
          "location": {
            "city": "Watertown", 
            "zip": "13601", 
            "country": "United States", 
            "longitude": -75.936226331819, 
            "state": "NY", 
            "street": "1050 Arsenal Street", 
            "latitude": 43.977530419975999
          }
        }, 
        {
          "category": "Restaurant/cafe", 
          "name": "Tilted Kilt Clarksville, TN", 
          "id": "429803190380737", 
          "category_list": [
            {
              "id": "218693881483234", 
              "name": "Pub"
            }, 
            {
              "id": "137463256320813", 
              "name": "Irish Restaurant"
            }, 
            {
              "id": "137670789632630", 
              "name": "British Restaurant"
            }
          ], 
          "location": {
            "city": "Clarksville", 
            "zip": "37040", 
            "country": "United States", 
            "longitude": -87.296470432535003, 
            "state": "TN", 
            "street": "2790B Wilma Rudolph Blvd.", 
            "latitude": 36.587186674900998
          }
        }, 
        {
          "category": "Restaurant/cafe", 
          "name": "Tilted Kilt Suwanee", 
          "id": "215675598502335", 
          "category_list": [
            {
              "id": "218693881483234", 
              "name": "Pub"
            }, 
            {
              "id": "184460441595855", 
              "name": "Sports Bar"
            }, 
            {
              "id": "273819889375819", 
              "name": "Restaurant"
            }
          ], 
          "location": {
            "city": "Suwanee", 
            "zip": "30024", 
            "country": "United States", 
            "longitude": -84.079710820120994, 
            "state": "GA", 
            "street": "1500 Satellite Blvd NW  ", 
            "latitude": 34.002633861808
          }
        }, 
        {
          "category": "Local business", 
          "name": "Tilted Kilt Pub & Eatery", 
          "id": "135505853219646", 
          "category_list": [
            {
              "id": "110290705711626", 
              "name": "Bar"
            }, 
            {
              "id": "273819889375819", 
              "name": "Restaurant"
            }
          ], 
          "location": {
            "city": "Killeen", 
            "zip": "", 
            "country": "United States", 
            "longitude": -97.714487273700001, 
            "state": "TX", 
            "street": "", 
            "latitude": 31.0874178364
          }
        }, 
        {
          "category": "Restaurant/cafe", 
          "name": "Tilted Kilt Charlotte", 
          "id": "150818890909", 
          "category_list": [
            {
              "id": "218693881483234", 
              "name": "Pub"
            }, 
            {
              "id": "188296324525457", 
              "name": "Sandwich Shop"
            }, 
            {
              "id": "187425207958280", 
              "name": "Burger Restaurant"
            }
          ], 
          "location": {
            "city": "Charlotte", 
            "zip": "28273", 
            "country": "United States", 
            "longitude": -80.957920136344995, 
            "state": "NC", 
            "street": "13230 Carowinds Blvd", 
            "latitude": 35.116417603340999
          }
        }, 
        {
          "category": "Restaurant/cafe", 
          "name": "Tilted Kilt Springfield", 
          "id": "405720759534861", 
          "category_list": [
            {
              "id": "218693881483234", 
              "name": "Pub"
            }, 
            {
              "id": "184460441595855", 
              "name": "Sports Bar"
            }, 
            {
              "id": "273819889375819", 
              "name": "Restaurant"
            }
          ], 
          "location": {
            "city": "Springfield", 
            "zip": "62711", 
            "country": "United States", 
            "longitude": -89.730698370035995, 
            "state": "IL", 
            "street": "4111 W. Wabash Ave.", 
            "latitude": 39.757384217636996
          }
        }, 
        {
          "category": "Local business", 
          "name": "Tilted Kilt Pub And Eater", 
          "id": "216310258401044", 
          "category_list": [
            {
              "id": "273819889375819", 
              "name": "Restaurant"
            }, 
            {
              "id": "110290705711626", 
              "name": "Bar"
            }
          ], 
          "location": {
            "city": "Louisville", 
            "zip": "40205", 
            "country": "United States", 
            "longitude": -85.639000752762996, 
            "state": "KY", 
            "street": "6201 Dutchmans Lane", 
            "latitude": 38.230290871209
          }
        }, 
        {
          "category": "Restaurant/cafe", 
          "name": "Tilted Kilt Oakbrook Terrace", 
          "id": "203139209713200", 
          "category_list": [
            {
              "id": "218693881483234", 
              "name": "Pub"
            }, 
            {
              "id": "187425207958280", 
              "name": "Burger Restaurant"
            }, 
            {
              "id": "180256082015845", 
              "name": "Pizza Place"
            }
          ], 
          "location": {
            "city": "Oakbrook Terrace", 
            "zip": "60181", 
            "country": "United States", 
            "longitude": -87.969627317318995, 
            "state": "IL", 
            "street": "17W460 22nd Street", 
            "latitude": 41.846974466315999
          }
        }, 
        {
          "category": "Restaurant/cafe", 
          "name": "Tilted Kilt Palm Desert", 
          "id": "501231603225475", 
          "category_list": [
            {
              "id": "218693881483234", 
              "name": "Pub"
            }, 
            {
              "id": "184460441595855", 
              "name": "Sports Bar"
            }, 
            {
              "id": "273819889375819", 
              "name": "Restaurant"
            }
          ], 
          "location": {
            "city": "Palm Desert", 
            "zip": "92260", 
            "country": "United States", 
            "longitude": -116.4048815144, 
            "state": "CA", 
            "street": "72-191 Highway 111", 
            "latitude": 33.731055892962999
          }
        }, 
        {
          "category": "Local business", 
          "name": "Tilted Kilt Pub & Eatery", 
          "id": "139565779434069", 
          "category_list": [
            {
              "id": "273819889375819", 
              "name": "Restaurant"
            }, 
            {
              "id": "110290705711626", 
              "name": "Bar"
            }
          ], 
          "location": {
            "city": "Woodridge", 
            "zip": "60517", 
            "country": "United States", 
            "longitude": -88.064753057999994, 
            "state": "IL", 
            "street": "", 
            "latitude": 41.754588065500002
          }
        }, 
        {
          "category": "Local business", 
          "name": "Tilted Kilt Pub & Eatery", 
          "id": "172405679487971", 
          "category_list": [
            {
              "id": "110290705711626", 
              "name": "Bar"
            }, 
            {
              "id": "273819889375819", 
              "name": "Restaurant"
            }
          ], 
          "location": {
            "city": "Arnold", 
            "zip": "63010", 
            "country": "United States", 
            "longitude": -90.374675932499997, 
            "state": "MO", 
            "street": "131 Arnold Crossroads Ctr", 
            "latitude": 38.446100126799998
          }
        }, 
        {
          "category": "Restaurant/cafe", 
          "name": "Tilted Kilt Hallandale", 
          "id": "329573560479836", 
          "category_list": [
            {
              "id": "218693881483234", 
              "name": "Pub"
            }, 
            {
              "id": "184460441595855", 
              "name": "Sports Bar"
            }, 
            {
              "id": "233804719972590", 
              "name": "Bar & Grill"
            }
          ], 
          "location": {
            "city": "Hallandale Beach", 
            "zip": "33009", 
            "country": "United States", 
            "longitude": -80.141366987750999, 
            "state": "FL", 
            "street": "606 E Hallandale Beach Blvd", 
            "latitude": 25.985445679624
          }
        }, 
        {
          "category": "Local business", 
          "name": "Tilted Kilt Pub & Eatery", 
          "id": "120782727937221", 
          "category_list": [
            {
              "id": "133436743388217", 
              "name": "Arts & Entertainment"
            }, 
            {
              "id": "149803325077018", 
              "name": "American Restaurant"
            }, 
            {
              "id": "164049010316507", 
              "name": "Gastropub"
            }
          ], 
          "location": {
            "city": "Stevens Point", 
            "zip": "54481-1132", 
            "country": "United States", 
            "longitude": -89.576665212498, 
            "state": "WI", 
            "street": "1501 Northpoint Dr", 
            "latitude": 44.540414561946001
          }
        }, 
        {
          "category": "Local business", 
          "name": "The Tilted Kilt", 
          "id": "141896202528512", 
          "category_list": [
            {
              "id": "218693881483234", 
              "name": "Pub"
            }, 
            {
              "id": "273819889375819", 
              "name": "Restaurant"
            }, 
            {
              "id": "110290705711626", 
              "name": "Bar"
            }
          ], 
          "location": {
            "city": "Woodridge", 
            "zip": "60517", 
            "country": "United States", 
            "longitude": -88.070028529303002, 
            "state": "IL", 
            "street": "6320 Route 53", 
            "latitude": 41.769939000649003
          }
        }, 
        {
          "category": "Restaurant/cafe", 
          "name": "Tilted Kilt Richmond Hill", 
          "id": "515395551809183", 
          "category_list": [
            {
              "id": "218693881483234", 
              "name": "Pub"
            }, 
            {
              "id": "184460441595855", 
              "name": "Sports Bar"
            }, 
            {
              "id": "273819889375819", 
              "name": "Restaurant"
            }
          ], 
          "location": {
            "city": "Richmond Hill", 
            "zip": "L4B4A7", 
            "country": "Canada", 
            "longitude": -79.375124723908002, 
            "state": "ON", 
            "street": "157 York Blvd.", 
            "latitude": 43.847685330565
          }
        }, 
        {
          "category": "Local business", 
          "name": "Tilted Kilt Pub & Eatery", 
          "id": "389362941137251", 
          "category_list": [
            {
              "id": "218693881483234", 
              "name": "Pub"
            }
          ], 
          "location": {
            "city": "Lake Magdalene", 
            "zip": "33618", 
            "country": "United States", 
            "longitude": -82.506619000000001, 
            "state": "FL", 
            "street": "14457 N. Dale Mabry Hwy", 
            "latitude": 28.078928999999999
          }
        }, 
        {
          "category": "Local business", 
          "name": "Tilted Kilt Pub & Eatery", 
          "id": "113917278640279", 
          "category_list": [
            {
              "id": "273819889375819", 
              "name": "Restaurant"
            }, 
            {
              "id": "110290705711626", 
              "name": "Bar"
            }
          ], 
          "location": {
            "city": "Bakersfield", 
            "zip": "93312-2645", 
            "country": "United States", 
            "longitude": -119.10916899999999, 
            "state": "CA", 
            "street": "2900 Calloway Dr", 
            "latitude": 35.386425000000003
          }
        }, 
        {
          "category": "Restaurant/cafe", 
          "name": "Tilted Kilt Milford", 
          "id": "551457714872135", 
          "category_list": [
            {
              "id": "218693881483234", 
              "name": "Pub"
            }, 
            {
              "id": "184460441595855", 
              "name": "Sports Bar"
            }, 
            {
              "id": "233804719972590", 
              "name": "Bar & Grill"
            }
          ], 
          "location": {
            "city": "Milford", 
            "zip": "06460", 
            "country": "United States", 
            "longitude": -73.027542399629993, 
            "state": "CT", 
            "street": "290 Olde Gate Lane", 
            "latitude": 41.233558330268998
          }
        }, 
        {
          "category": "Local business", 
          "name": "Tilted Kilt Pub & Eatery", 
          "id": "424623327601442", 
          "category_list": [
            {
              "id": "218693881483234", 
              "name": "Pub"
            }
          ], 
          "location": {
            "city": "Grapevine", 
            "zip": "76051", 
            "country": "United States", 
            "longitude": -96.8128462695, 
            "state": "TX", 
            "street": "1041 W. State Highway", 
            "latitude": 33.095357436699999
          }
        }, 
        {
          "category": "Local business", 
          "name": "Tilted Kilt Pub & Eatery", 
          "id": "119593088056941", 
          "category_list": [
            {
              "id": "273819889375819", 
              "name": "Restaurant"
            }, 
            {
              "id": "110290705711626", 
              "name": "Bar"
            }
          ], 
          "location": {
            "city": "Madison", 
            "zip": "53704-3608", 
            "country": "United States", 
            "longitude": -89.305961999999994, 
            "state": "WI", 
            "street": "4325 Lien Rd", 
            "latitude": 43.12059
          }
        }, 
        {
          "category": "Local business", 
          "name": "Tilted Kilt Pub & Eatery", 
          "id": "120683557947053", 
          "category_list": [
            {
              "id": "273819889375819", 
              "name": "Restaurant"
            }, 
            {
              "id": "110290705711626", 
              "name": "Bar"
            }
          ], 
          "location": {
            "city": "Madison", 
            "zip": "53719-1026", 
            "country": "United States", 
            "longitude": -89.501937999999996, 
            "state": "WI", 
            "street": "420 Gammon Pl", 
            "latitude": 43.059474999999999
          }
        }, 
        {
          "category": "Local business", 
          "name": "Tilted Kilt Pub & Eatery", 
          "id": "343603845654268", 
          "category_list": [
            {
              "id": "2500", 
              "name": "Local Business"
            }
          ], 
          "location": {
            "city": "Lockport", 
            "zip": "", 
            "country": "United States", 
            "longitude": -88.062632100000002, 
            "state": "IL", 
            "street": "", 
            "latitude": 41.582219866667003
          }
        }, 
        {
          "category": "Restaurant/cafe", 
          "name": "Tilted Kilt Greeley", 
          "id": "123927547813944", 
          "category_list": [
            {
              "id": "218693881483234", 
              "name": "Pub"
            }, 
            {
              "id": "233804719972590", 
              "name": "Bar & Grill"
            }
          ], 
          "location": {
            "city": "Greeley", 
            "zip": "80631", 
            "country": "United States", 
            "longitude": -104.69240600000001, 
            "state": "CO", 
            "street": "610 9th Ave.", 
            "latitude": 40.426969999999997
          }
        }, 
        {
          "category": "Local business", 
          "name": "Tilted Kilt Irish Pub @Rio", 
          "id": "202766473160857", 
          "category_list": [
            {
              "id": "2500", 
              "name": "Local Business"
            }
          ], 
          "location": {
            "city": "Las Vegas", 
            "zip": "89103", 
            "country": "United States", 
            "longitude": -115.1717221, 
            "state": "NV", 
            "street": "", 
            "latitude": 36.104259499999998
          }
        }
      ]
    }
  }, 
  {
    "business_name": "Superstition Springs Center", 
    "business_id": "GW-S-zwQZdbb1hWKlqu-WQ", 
    "fb_pages": {
      "paging": {
        "next": "https://graph.facebook.com/search?type=place&access_token=229546593895315|yPLlHqq6YvDLIH4nL0kjJtIFSlU&limit=5000&offset=5000&__after_id=124764500909954"
      }, 
      "data": [
        {
          "category": "Shopping/retail", 
          "name": "Superstition Springs Center", 
          "id": "133439520016704", 
          "category_list": [
            {
              "id": "109527622457518", 
              "name": "Shopping Mall"
            }
          ], 
          "location": {
            "city": "Mesa", 
            "zip": "85206", 
            "country": "United States", 
            "longitude": -111.68995966120001, 
            "state": "AZ", 
            "street": "6555 E Southern Ave ", 
            "latitude": 33.390497530015999
          }
        }, 
        {
          "category": "Attractions/things to do", 
          "name": "Superstition Springs Center Carousel", 
          "id": "162709880519415", 
          "category_list": [
            {
              "id": "124994474239211", 
              "name": "Amusement"
            }
          ], 
          "location": {
            "city": "Mesa", 
            "zip": "85206", 
            "country": "United States", 
            "longitude": -111.689881, 
            "state": "AZ", 
            "street": "6555 East Southern Ave", 
            "latitude": 33.393738999999997
          }
        }, 
        {
          "category": "Local business", 
          "name": "T-Mobile Superstition Springs Center 4", 
          "id": "444189602265841", 
          "category_list": [
            {
              "id": "210979565595898", 
              "name": "Mobile Phone Shop"
            }
          ], 
          "location": {
            "city": "Mesa", 
            "zip": "85206", 
            "country": "United States", 
            "longitude": -111.689881, 
            "state": "AZ", 
            "street": "6555 E Southern Ave", 
            "latitude": 33.393738999999997
          }
        }, 
        {
          "category": "Local business", 
          "name": "Superstition Springs Transit Center", 
          "id": "241809459234805", 
          "category_list": [
            {
              "id": "144386572288836", 
              "name": "Bus Station"
            }
          ], 
          "location": {
            "city": "Mesa", 
            "zip": "85206", 
            "country": "United States", 
            "longitude": -111.689492325, 
            "state": "AZ", 
            "street": "", 
            "latitude": 33.387551108499999
          }
        }, 
        {
          "category": "Restaurant/cafe", 
          "name": "Chick-fil-A at Superstition Springs Center", 
          "id": "108648012523286", 
          "category_list": [
            {
              "id": "110113695730808", 
              "name": "Chicken Restaurant"
            }
          ], 
          "location": {
            "city": "Mesa", 
            "zip": "85206", 
            "country": "United States", 
            "longitude": -111.689916544, 
            "state": "AZ", 
            "street": "6555 E. Southern Ave.", 
            "latitude": 33.390529706999999
          }
        }, 
        {
          "category": "Local business", 
          "name": "Play Area Superstition Springs Mall", 
          "id": "476982129057396", 
          "category_list": [
            {
              "id": "189334414420898", 
              "name": "Party Center"
            }
          ], 
          "location": {
            "city": "Mesa", 
            "zip": "85206", 
            "country": "United States", 
            "longitude": -111.690832442, 
            "state": "AZ", 
            "street": "", 
            "latitude": 33.391863112400003
          }
        }, 
        {
          "category": "Local business", 
          "name": "Styles for Less @ Superstition Springs Center", 
          "id": "122092881188354", 
          "category_list": [
            {
              "id": "200600219953504", 
              "name": "Shopping & Retail"
            }, 
            {
              "id": "131962450204676", 
              "name": "Car Dealership"
            }
          ], 
          "location": {
            "city": "Mesa", 
            "zip": "85206", 
            "country": "United States", 
            "longitude": -111.69117438000001, 
            "state": "AZ", 
            "street": "", 
            "latitude": 33.3905157222
          }
        }, 
        {
          "category": "Shopping/retail", 
          "name": "ZAGG Invisibleshield at Superstition Springs Center", 
          "id": "545361215501706", 
          "category_list": [
            {
              "id": "187937741228885", 
              "name": "Electronics Store"
            }, 
            {
              "id": "193198380699462", 
              "name": "Repair Service"
            }
          ], 
          "location": {
            "city": "Mesa", 
            "zip": "85206", 
            "country": "United States", 
            "longitude": -111.689881, 
            "state": "AZ", 
            "street": "6555 E Southern Ave", 
            "latitude": 33.393738999999997
          }
        }, 
        {
          "category": "Organization", 
          "name": "Superstition Springs Kumon Math & Reading Center - Mesa, AZ", 
          "id": "57207206771", 
          "category_list": [
            {
              "id": "198503866828628", 
              "name": "Organization"
            }, 
            {
              "id": "145296352197250", 
              "name": "Tutoring"
            }, 
            {
              "id": "108557642554592", 
              "name": "Educational Service"
            }
          ], 
          "location": {
            "city": "Mesa", 
            "zip": "85206", 
            "country": "United States", 
            "longitude": -111.684083, 
            "state": "AZ", 
            "street": "1229 South Power Road # 104", 
            "latitude": 33.392643
          }
        }, 
        {
          "category": "Local business", 
          "name": "KinderCare Learning Centers", 
          "id": "124764500909954", 
          "category_list": [
            {
              "id": "181811248521973", 
              "name": "Child Care"
            }, 
            {
              "id": "151676848220295", 
              "name": "Education"
            }
          ], 
          "location": {
            "city": "Mesa", 
            "zip": "85209-4046", 
            "country": "United States", 
            "longitude": -111.67975199999999, 
            "state": "AZ", 
            "street": "7040 E Superstition Springs Blvd", 
            "latitude": 33.383045000000003
          }
        }
      ]
    }
  }
]