[
  {
    "business_name": "Sam's Gyros", 
    "business_id": "AE7TfOrefJCI_qTvUoAezA", 
    "fb_pages": {
      "paging": {
        "next": "https://graph.facebook.com/search?type=place&access_token=229546593895315|yPLlHqq6YvDLIH4nL0kjJtIFSlU&limit=5000&offset=5000&__after_id=108145115893687"
      }, 
      "data": [
        {
          "category": "Local business", 
          "name": "Sam's Gyros", 
          "id": "100872579957722", 
          "category_list": [
            {
              "id": "192803624072087", 
              "name": "Fast Food Restaurant"
            }
          ], 
          "location": {
            "city": "Indianapolis", 
            "zip": "46220-3126", 
            "country": "United States", 
            "longitude": -86.146022520762003, 
            "state": "IN", 
            "street": "5404 N College Ave", 
            "latitude": 39.851165976969
          }
        }, 
        {
          "category": "Food/grocery", 
          "name": "Sam's Gyros", 
          "id": "434011836653914", 
          "category_list": [
            {
              "id": "150108431712141", 
              "name": "Food & Grocery"
            }
          ], 
          "location": {
            "city": "Louisville", 
            "zip": "40207", 
            "country": "United States", 
            "longitude": -85.62415, 
            "state": "KY", 
            "street": "5000 Shelbyville Rd , Louisville , KY", 
            "latitude": 38.250078000000002
          }
        }, 
        {
          "category": "Restaurant/cafe", 
          "name": "Sam's Gyros", 
          "id": "462247557133030", 
          "category_list": [
            {
              "id": "273819889375819", 
              "name": "Restaurant"
            }
          ], 
          "location": {
            "city": "Omaha", 
            "zip": "68144", 
            "country": "United States", 
            "longitude": -96.135294999999999, 
            "state": "NE", 
            "street": "3001 South 144th Street", 
            "latitude": 41.229821999999999
          }
        }, 
        {
          "category": "Local business", 
          "name": "Sam's Gyros Cafe", 
          "id": "100873279957084", 
          "category_list": [
            {
              "id": "197871390225897", 
              "name": "Cafe"
            }
          ], 
          "location": {
            "city": "Clarksville", 
            "zip": "37042-8041", 
            "country": "United States", 
            "longitude": -87.434163621099998, 
            "state": "TN", 
            "street": "3095 Fort Campbell Blvd", 
            "latitude": 36.632782174799999
          }
        }, 
        {
          "category": "Restaurant/cafe", 
          "name": "Sam's Gyros", 
          "id": "1418028858411620", 
          "category_list": [
            {
              "id": "273819889375819", 
              "name": "Restaurant"
            }
          ], 
          "location": {
            "city": "Bowling Green", 
            "zip": "42101", 
            "country": "United States", 
            "longitude": -86.465736000000007, 
            "state": "KY", 
            "street": "741 Campbell Lane", 
            "latitude": 36.960014000000001
          }
        }, 
        {
          "category": "Local business", 
          "name": "Sam's Gyros", 
          "id": "113404848692354", 
          "category_list": [
            {
              "id": "192803624072087", 
              "name": "Fast Food Restaurant"
            }, 
            {
              "id": "139433292785470", 
              "name": "Caterer"
            }
          ], 
          "location": {
            "city": "Franklin", 
            "zip": "37067-1687", 
            "country": "United States", 
            "longitude": -86.805083999999994, 
            "state": "TN", 
            "street": "625 Bakers Bridge Ave", 
            "latitude": 35.958385
          }
        }, 
        {
          "category": "Local business", 
          "name": "Sam Kabab Gyros", 
          "id": "115488785140340", 
          "category_list": [
            {
              "id": "192803624072087", 
              "name": "Fast Food Restaurant"
            }, 
            {
              "id": "144722595590046", 
              "name": "Greek Restaurant"
            }
          ], 
          "location": {
            "city": "Nashville", 
            "zip": "37221-2981", 
            "country": "United States", 
            "longitude": -86.921921566400002, 
            "state": "TN", 
            "street": "7114 Highway 70 S", 
            "latitude": 36.075087548100001
          }
        }, 
        {
          "category": "Local business", 
          "name": "Sam's Gyros Mediterranean Restaurant", 
          "id": "340583892715588", 
          "category_list": [
            {
              "id": "165679780146824", 
              "name": "Food & Restaurant"
            }
          ], 
          "location": {
            "city": "Riverside", 
            "zip": "", 
            "country": "United States", 
            "longitude": -117.45679214, 
            "state": "CA", 
            "street": "", 
            "latitude": 33.909746890000001
          }
        }, 
        {
          "category": "Local business", 
          "name": "Sams Gyros", 
          "id": "113526105347041", 
          "category_list": [
            {
              "id": "192803624072087", 
              "name": "Fast Food Restaurant"
            }, 
            {
              "id": "144722595590046", 
              "name": "Greek Restaurant"
            }
          ], 
          "location": {
            "city": "Phoenix", 
            "zip": "85020-2818", 
            "country": "United States", 
            "longitude": -112.073532, 
            "state": "AZ", 
            "street": "8941 N Central Ave", 
            "latitude": 33.567580999999997
          }
        }, 
        {
          "category": "Local business", 
          "name": "Sams Gyros", 
          "id": "178507405500970", 
          "category_list": [
            {
              "id": "165679780146824", 
              "name": "Food & Restaurant"
            }
          ], 
          "location": {
            "city": "Indianapolis", 
            "zip": "46250", 
            "country": "United States", 
            "longitude": -86.0464941977, 
            "state": "IN", 
            "street": "", 
            "latitude": 39.891647309100001
          }
        }, 
        {
          "category": "Local business", 
          "name": "Sams Kebab Gyros", 
          "id": "132744826900448", 
          "category_list": [
            {
              "id": "198722103478014", 
              "name": "Health Food Store"
            }
          ], 
          "location": {
            "city": "Milpitas", 
            "zip": "95035", 
            "country": "United States", 
            "longitude": -121.896918086, 
            "state": "CA", 
            "street": "", 
            "latitude": 37.416023368700003
          }
        }, 
        {
          "category": "Restaurant/cafe", 
          "name": "Sam's GYRO cafe", 
          "id": "638042779593261", 
          "category_list": [
            {
              "id": "273819889375819", 
              "name": "Restaurant"
            }
          ], 
          "location": {
            "city": "Clarksville", 
            "zip": "37042", 
            "country": "United States", 
            "longitude": -87.322376000000006, 
            "state": "TN", 
            "street": "1820 b. Tiny Town Rd", 
            "latitude": 36.624898000000002
          }
        }, 
        {
          "category": "Local business", 
          "name": "Sam Kabob Gyro", 
          "id": "114016718628728", 
          "category_list": [
            {
              "id": "192803624072087", 
              "name": "Fast Food Restaurant"
            }
          ], 
          "location": {
            "city": "Nashville", 
            "zip": "37217-3597", 
            "country": "United States", 
            "longitude": -86.643966905900001, 
            "state": "TN", 
            "street": "2500 Murfreesboro Pike", 
            "latitude": 36.079365045999999
          }
        }, 
        {
          "category": "Local business", 
          "name": "Sam's Kabab Gyro", 
          "id": "101518926580265", 
          "category_list": [
            {
              "id": "165679780146824", 
              "name": "Food & Restaurant"
            }
          ], 
          "location": {
            "city": "Lafayette", 
            "zip": "37083-2329", 
            "country": "United States", 
            "longitude": -86.020195000000001, 
            "state": "TN", 
            "street": "625 Baker Dr", 
            "latitude": 36.540176000000002
          }
        }, 
        {
          "category": "Local business", 
          "name": "Sam's Kabab Gyro", 
          "id": "117773934915961", 
          "category_list": [
            {
              "id": "192803624072087", 
              "name": "Fast Food Restaurant"
            }
          ], 
          "location": {
            "city": "Nashville", 
            "zip": "37214-2600", 
            "country": "United States", 
            "longitude": -86.625519999999995, 
            "state": "TN", 
            "street": "3664 Bell Rd", 
            "latitude": 36.150843999999999
          }
        }, 
        {
          "category": "Local business", 
          "name": "Sam's Kebab Gyro", 
          "id": "189459031103271", 
          "category_list": [
            {
              "id": "192803624072087", 
              "name": "Fast Food Restaurant"
            }
          ], 
          "location": {
            "city": "Nashville", 
            "zip": "", 
            "country": "United States", 
            "longitude": -86.643826860000004, 
            "state": "TN", 
            "street": "", 
            "latitude": 36.07939468
          }
        }, 
        {
          "category": "Local business", 
          "name": "Sams Gyro LLC", 
          "id": "108145115893687", 
          "category_list": [
            {
              "id": "192803624072087", 
              "name": "Fast Food Restaurant"
            }
          ], 
          "location": {
            "city": "Orlando", 
            "zip": "32811-4394", 
            "country": "United States", 
            "longitude": -81.434700000000007, 
            "state": "FL", 
            "street": "908 S Ivey Ln", 
            "latitude": 28.530253999999999
          }
        }
      ]
    }
  }, 
  {
    "business_name": "Scala's Italian Ice", 
    "business_id": "ZNXfCzzi-jkfTyb4WewOYA", 
    "fb_pages": {
      "paging": {
        "next": "https://graph.facebook.com/search?type=place&access_token=229546593895315|yPLlHqq6YvDLIH4nL0kjJtIFSlU&limit=5000&offset=5000&__after_id=100477080013002"
      }, 
      "data": [
        {
          "category": "Local business", 
          "name": "Scala's Italian Ice", 
          "id": "100477080013002", 
          "category_list": [
            {
              "id": "188334264523313", 
              "name": "Deli"
            }, 
            {
              "id": "193831710644458", 
              "name": "Italian Restaurant"
            }, 
            {
              "id": "200863816597800", 
              "name": "Ice Cream Parlor"
            }
          ], 
          "location": {
            "city": "Phoenix", 
            "zip": "85032-2299", 
            "country": "United States", 
            "longitude": -111.994995, 
            "state": "AZ", 
            "street": "4030 E Bell Rd", 
            "latitude": 33.641804
          }
        }
      ]
    }
  }, 
  {
    "business_name": "Alexi's Grill", 
    "business_id": "z_IfC-aIkKpuhGfX1yzdfg", 
    "fb_pages": {
      "paging": {
        "next": "https://graph.facebook.com/search?type=place&access_token=229546593895315|yPLlHqq6YvDLIH4nL0kjJtIFSlU&limit=5000&offset=5000&__after_id=563511607023868"
      }, 
      "data": [
        {
          "category": "Local business", 
          "name": "Alexi's Bar & Grill", 
          "id": "119609904720591", 
          "category_list": [
            {
              "id": "273819889375819", 
              "name": "Restaurant"
            }, 
            {
              "id": "133436743388217", 
              "name": "Arts & Entertainment"
            }, 
            {
              "id": "110290705711626", 
              "name": "Bar"
            }
          ], 
          "location": {
            "city": "Chicago", 
            "zip": "60642-2216", 
            "country": "United States", 
            "longitude": -87.666780000000003, 
            "state": "IL", 
            "street": "1225 N Milwaukee Ave", 
            "latitude": 41.903889999999997
          }
        }, 
        {
          "category": "Restaurant/cafe", 
          "name": "Alexis Grill", 
          "id": "117943428221668", 
          "category_list": [
            {
              "id": "193831710644458", 
              "name": "Italian Restaurant"
            }, 
            {
              "id": "163300367054197", 
              "name": "Seafood Restaurant"
            }
          ], 
          "location": {
            "city": "Phoenix", 
            "zip": "85012-2106", 
            "country": "United States", 
            "longitude": -112.07382590086, 
            "state": "AZ", 
            "street": "3550 N Central Ave Ste 120", 
            "latitude": 33.488842140808998
          }
        }, 
        {
          "category": "Restaurant/cafe", 
          "name": "MVP Sports Grille", 
          "id": "586655581351755", 
          "category_list": [
            {
              "id": "184460441595855", 
              "name": "Sports Bar"
            }, 
            {
              "id": "233804719972590", 
              "name": "Bar & Grill"
            }, 
            {
              "id": "149803325077018", 
              "name": "American Restaurant"
            }
          ], 
          "location": {
            "city": "Toledo", 
            "zip": "43613", 
            "country": "United States", 
            "longitude": -83.595941323000005, 
            "state": "OH", 
            "street": "2114  W. Alexis", 
            "latitude": 41.721641986199998
          }
        }, 
        {
          "category": "Bar", 
          "name": "Magdalenas Bar & Grill", 
          "id": "158746110887468", 
          "category_list": [
            {
              "id": "110290705711626", 
              "name": "Bar"
            }
          ], 
          "location": {
            "city": "Toledo", 
            "zip": "43613-2212", 
            "country": "United States", 
            "longitude": -83.592390553399994, 
            "state": "OH", 
            "street": "1955 West Alexis Road", 
            "latitude": 41.721083292199999
          }
        }, 
        {
          "category": "Local business", 
          "name": "O'riley's Sports Bar & Grill", 
          "id": "116352221726894", 
          "category_list": [
            {
              "id": "133436743388217", 
              "name": "Arts & Entertainment"
            }, 
            {
              "id": "110290705711626", 
              "name": "Bar"
            }, 
            {
              "id": "273819889375819", 
              "name": "Restaurant"
            }
          ], 
          "location": {
            "city": "Toledo", 
            "zip": "43613-2212", 
            "country": "United States", 
            "longitude": -83.592421999999999, 
            "state": "OH", 
            "street": "1955 W Alexis Rd", 
            "latitude": 41.720325000000003
          }
        }, 
        {
          "category": "Restaurant/cafe", 
          "name": "Alexis' Gyros + Grill", 
          "id": "436032183143753", 
          "category_list": [
            {
              "id": "224426430990363", 
              "name": "Food Truck"
            }, 
            {
              "id": "144722595590046", 
              "name": "Greek Restaurant"
            }
          ], 
          "location": {
            "city": "Beeville", 
            "zip": "78102", 
            "country": "United States", 
            "longitude": -97.752735000000001, 
            "state": "TX", 
            "street": "249 West Carter Street Beeville, Texas", 
            "latitude": 28.406537
          }
        }, 
        {
          "category": "Bar", 
          "name": "Alexis Place", 
          "id": "563511607023868", 
          "category_list": [
            {
              "id": "233804719972590", 
              "name": "Bar & Grill"
            }
          ], 
          "location": {
            "city": "Miami", 
            "zip": "33015", 
            "country": "United States", 
            "longitude": -80.224100000000007, 
            "state": "FL", 
            "street": "9700 NW 113ST", 
            "latitude": 25.787700000000001
          }
        }
      ]
    }
  }, 
  {
    "business_name": "Back In Motion Family Chiropractic", 
    "business_id": "1JWia6qssew3OgpAbt5s5A", 
    "fb_pages": {
      "paging": {
        "next": "https://graph.facebook.com/search?type=place&access_token=229546593895315|yPLlHqq6YvDLIH4nL0kjJtIFSlU&limit=5000&offset=5000&__after_id=168758413138939"
      }, 
      "data": [
        {
          "category": "Local business", 
          "name": "Back in Motion Family Chiropractic", 
          "id": "116544531692957", 
          "category_list": [
            {
              "id": "192781160749720", 
              "name": "Chiropractor"
            }
          ], 
          "location": {
            "city": "Hurst", 
            "zip": "76054", 
            "country": "United States", 
            "longitude": -97.167507597799997, 
            "state": "TX", 
            "street": "104 Grapevine Hwy. #400", 
            "latitude": 32.871560711500003
          }
        }, 
        {
          "category": "Local business", 
          "name": "Back In Motion Family Chiropractic", 
          "id": "168758413138939", 
          "category_list": [
            {
              "id": "192781160749720", 
              "name": "Chiropractor"
            }, 
            {
              "id": "228143393877753", 
              "name": "Medical Center"
            }
          ], 
          "location": {
            "city": "Chandler", 
            "zip": "85224-3553", 
            "country": "United States", 
            "longitude": -111.884514, 
            "state": "AZ", 
            "street": "2440 W Ray Rd Ste 1", 
            "latitude": 33.320650999999998
          }
        }
      ]
    }
  }, 
  {
    "business_name": "SOL Mexican Cocina", 
    "business_id": "nFo_63pTr-4ZhakuaRFOCA", 
    "fb_pages": {
      "paging": {
        "next": "https://graph.facebook.com/search?type=place&access_token=229546593895315|yPLlHqq6YvDLIH4nL0kjJtIFSlU&limit=5000&offset=5000&__after_id=117104401709955"
      }, 
      "data": [
        {
          "category": "Food/beverages", 
          "name": "SOL Cocina", 
          "id": "93499187016", 
          "category_list": [
            {
              "id": "199377230079198", 
              "name": "Mexican Restaurant"
            }
          ], 
          "location": {
            "city": "Newport Beach", 
            "zip": "92660", 
            "country": "United States", 
            "longitude": -117.90150076277, 
            "state": "CA", 
            "street": "251 E. Coast Highway", 
            "latitude": 33.615879132800998
          }
        }, 
        {
          "category": "Local business", 
          "name": "SOL Cocina", 
          "id": "244231912335891", 
          "category_list": [
            {
              "id": "199377230079198", 
              "name": "Mexican Restaurant"
            }
          ], 
          "location": {
            "city": "Scottsdale", 
            "zip": "85260", 
            "country": "United States", 
            "longitude": -111.92439906536001, 
            "state": "AZ", 
            "street": "15323 North Scottsdale Road", 
            "latitude": 33.625501599811997
          }
        }, 
        {
          "category": "Restaurant/cafe", 
          "name": "Cocina del sol", 
          "id": "109053505831560", 
          "category_list": [
            {
              "id": "199377230079198", 
              "name": "Mexican Restaurant"
            }
          ], 
          "location": {
            "city": "Frenchtown", 
            "zip": "08825", 
            "country": "United States", 
            "longitude": -75.062703631226, 
            "state": "NJ", 
            "street": "10 bridge st", 
            "latitude": 40.526231682974
          }
        }, 
        {
          "category": "Restaurant/cafe", 
          "name": "H\u00edjole - Cocina Mexicana", 
          "id": "477924265607644", 
          "category_list": [
            {
              "id": "199377230079198", 
              "name": "Mexican Restaurant"
            }
          ], 
          "location": {
            "city": "Bayamon", 
            "zip": "00961", 
            "country": "Puerto Rico", 
            "longitude": -66.160246032092999, 
            "street": "Plaza Del Sol: 2da planta, edificio Bonanza", 
            "latitude": 18.405959728102001
          }
        }, 
        {
          "category": "Local business", 
          "name": "La Cocina Del Sol", 
          "id": "116521385039169", 
          "category_list": [
            {
              "id": "199377230079198", 
              "name": "Mexican Restaurant"
            }
          ], 
          "location": {
            "city": "Crozet", 
            "zip": "22932", 
            "country": "United States", 
            "longitude": -78.701422456369002, 
            "state": "VA", 
            "street": "1200 Crozet Ave", 
            "latitude": 38.068912711365002
          }
        }, 
        {
          "category": "Restaurant/cafe", 
          "name": "La Cocina del Sol", 
          "id": "117104401709955", 
          "category_list": [
            {
              "id": "199377230079198", 
              "name": "Mexican Restaurant"
            }
          ], 
          "location": {
            "city": "Crozet", 
            "zip": "22932", 
            "country": "United States", 
            "longitude": -78.495470461500005, 
            "state": "VA", 
            "street": "", 
            "latitude": 38.067083223499999
          }
        }
      ]
    }
  }, 
  {
    "business_name": "RA Sushi Bar Restaurant", 
    "business_id": "7_zL7NX_rDFwhbLp98PwZg", 
    "fb_pages": {
      "paging": {
        "next": "https://graph.facebook.com/search?type=place&access_token=229546593895315|yPLlHqq6YvDLIH4nL0kjJtIFSlU&limit=5000&offset=5000&__after_id=137307153003059"
      }, 
      "data": [
        {
          "category": "Local business", 
          "name": "RA Sushi Bar Restaurant", 
          "id": "120286447984171", 
          "category_list": [
            {
              "id": "134501539950711", 
              "name": "Sushi Restaurant"
            }
          ], 
          "location": {
            "city": "Mesa", 
            "zip": "85204-7376", 
            "country": "United States", 
            "longitude": -111.75498141346, 
            "state": "AZ", 
            "street": "1652 South Val Vista Drive, Suite 101", 
            "latitude": 33.385253355652999
          }
        }, 
        {
          "category": "Local business", 
          "name": "RA Sushi Bar Restaurant", 
          "id": "112353048820183", 
          "category_list": [
            {
              "id": "134501539950711", 
              "name": "Sushi Restaurant"
            }, 
            {
              "id": "110290705711626", 
              "name": "Bar"
            }
          ], 
          "location": {
            "city": "Scottsdale", 
            "zip": "85251", 
            "country": "United States", 
            "longitude": -111.92590960982, 
            "state": "AZ", 
            "street": "7012 E. Greenway Pkwy. Suite 100      ", 
            "latitude": 33.492049154329003
          }
        }, 
        {
          "category": "Restaurant/cafe", 
          "name": "RA Sushi Bar Restaurant - Tucson", 
          "id": "172232366569", 
          "category_list": [
            {
              "id": "174201535963762", 
              "name": "Asian Fusion Restaurant"
            }, 
            {
              "id": "134501539950711", 
              "name": "Sushi Restaurant"
            }
          ], 
          "location": {
            "city": "Tucson", 
            "zip": "85718", 
            "country": "United States", 
            "longitude": -110.92876743402, 
            "state": "AZ", 
            "street": "2905 E Skyline Dr. #289", 
            "latitude": 32.325193408571998
          }
        }, 
        {
          "category": "Restaurant/cafe", 
          "name": "RA Sushi Bar Restaurant Torrance", 
          "id": "24732279846", 
          "category_list": [
            {
              "id": "134501539950711", 
              "name": "Sushi Restaurant"
            }
          ], 
          "location": {
            "city": "Torrance", 
            "zip": "90503", 
            "country": "United States", 
            "longitude": -118.34755284854, 
            "state": "CA", 
            "street": "3525 Carson Street Suite 161", 
            "latitude": 33.833246928949997
          }
        }, 
        {
          "category": "Restaurant/cafe", 
          "name": "RA Sushi Bar Restaurant San Diego", 
          "id": "59357595103", 
          "category_list": [
            {
              "id": "134501539950711", 
              "name": "Sushi Restaurant"
            }
          ], 
          "location": {
            "city": "San Diego", 
            "zip": "92101", 
            "country": "United States", 
            "longitude": -117.16053782433001, 
            "state": "CA", 
            "street": "474 Broadway", 
            "latitude": 32.715750184084001
          }
        }, 
        {
          "category": "Restaurant/cafe", 
          "name": "RA Sushi Bar Restaurant-Las Vegas", 
          "id": "30998395241", 
          "category_list": [
            {
              "id": "134501539950711", 
              "name": "Sushi Restaurant"
            }
          ], 
          "location": {
            "city": "Las Vegas", 
            "zip": "89109", 
            "country": "United States", 
            "longitude": -115.16840994028, 
            "state": "NV", 
            "street": "3200 Las Vegas Blvd South (On the Las Vegas Strip, Inside Fashion Show Mall)", 
            "latitude": 36.127028544466
          }
        }, 
        {
          "category": "Restaurant/cafe", 
          "name": "RA Sushi Bar Restaurant Corona", 
          "id": "26258137238", 
          "category_list": [
            {
              "id": "134501539950711", 
              "name": "Sushi Restaurant"
            }
          ], 
          "location": {
            "city": "Corona", 
            "zip": "92883", 
            "country": "United States", 
            "longitude": -117.50836795227001, 
            "state": "CA", 
            "street": "2785 Cabot Drive Suite 7-101", 
            "latitude": 33.813714764243997
          }
        }, 
        {
          "category": "Local business", 
          "name": "Ra Sushi\u2022Bar\u2022Restaurant", 
          "id": "148288441894494", 
          "category_list": [
            {
              "id": "134501539950711", 
              "name": "Sushi Restaurant"
            }
          ], 
          "location": {
            "city": "Pembroke Pines", 
            "zip": "33027", 
            "country": "United States", 
            "longitude": -80.336507344089, 
            "state": "FL", 
            "street": "", 
            "latitude": 26.006268139894999
          }
        }, 
        {
          "category": "Local business", 
          "name": "Ra Sushi Bar", 
          "id": "494210383966816", 
          "category_list": [
            {
              "id": "134501539950711", 
              "name": "Sushi Restaurant"
            }
          ], 
          "location": {
            "city": "Houston", 
            "zip": "77027", 
            "country": "United States", 
            "longitude": -95.443850131163998, 
            "state": "TX", 
            "street": "3908 Westheimer Rd", 
            "latitude": 29.742088034843
          }
        }, 
        {
          "category": "Restaurant/cafe", 
          "name": "RA Sushi Baltimore", 
          "id": "18558569090", 
          "category_list": [
            {
              "id": "110290705711626", 
              "name": "Bar"
            }, 
            {
              "id": "134501539950711", 
              "name": "Sushi Restaurant"
            }
          ], 
          "location": {
            "city": "Baltimore", 
            "zip": "21231", 
            "country": "United States", 
            "longitude": -76.597608768084001, 
            "state": "MD", 
            "street": "1390 Lancaster Street", 
            "latitude": 39.282384432404001
          }
        }, 
        {
          "category": "Local business", 
          "name": "Ra Sushi Bar & Restaurant!", 
          "id": "184502104969987", 
          "category_list": [
            {
              "id": "163300367054197", 
              "name": "Seafood Restaurant"
            }, 
            {
              "id": "134501539950711", 
              "name": "Sushi Restaurant"
            }
          ], 
          "location": {
            "city": "Atlanta", 
            "zip": "30309", 
            "country": "United States", 
            "longitude": -84.384182447599997, 
            "state": "GA", 
            "street": "", 
            "latitude": 33.7835637162
          }
        }, 
        {
          "category": "Local business", 
          "name": "RA Sushi Bar, The District", 
          "id": "100699813355260", 
          "category_list": [
            {
              "id": "134501539950711", 
              "name": "Sushi Restaurant"
            }, 
            {
              "id": "110290705711626", 
              "name": "Bar"
            }
          ], 
          "location": {
            "city": "Tustin", 
            "zip": "92606", 
            "country": "United States", 
            "longitude": -117.82750585127, 
            "state": "CA", 
            "street": "", 
            "latitude": 33.698305708649997
          }
        }, 
        {
          "category": "Local business", 
          "name": "RA Sushi Bar", 
          "id": "150143435033841", 
          "category_list": [
            {
              "id": "134501539950711", 
              "name": "Sushi Restaurant"
            }
          ], 
          "location": {
            "city": "Tempe", 
            "zip": "85281", 
            "country": "United States", 
            "longitude": -111.939926837, 
            "state": "AZ", 
            "street": "", 
            "latitude": 33.426118308500001
          }
        }, 
        {
          "category": "Local business", 
          "name": "RA Sushi Bar", 
          "id": "199806656799361", 
          "category_list": [
            {
              "id": "134501539950711", 
              "name": "Sushi Restaurant"
            }
          ], 
          "location": {
            "city": "Los Serranos", 
            "zip": "91709", 
            "country": "United States", 
            "longitude": -117.728943868, 
            "state": "CA", 
            "street": "", 
            "latitude": 34.000577746399998
          }
        }, 
        {
          "category": "Local business", 
          "name": "Ra Sushi Bar", 
          "id": "163779187026091", 
          "category_list": [
            {
              "id": "174201535963762", 
              "name": "Asian Fusion Restaurant"
            }, 
            {
              "id": "134501539950711", 
              "name": "Sushi Restaurant"
            }
          ], 
          "location": {
            "city": "Lombard", 
            "zip": "", 
            "country": "United States", 
            "longitude": -88.026666747299998, 
            "state": "IL", 
            "street": "", 
            "latitude": 41.842752186600002
          }
        }, 
        {
          "category": "Local business", 
          "name": "RA sushi bar", 
          "id": "214325355248165", 
          "category_list": [
            {
              "id": "134501539950711", 
              "name": "Sushi Restaurant"
            }
          ], 
          "location": {
            "city": "Dallas", 
            "zip": "", 
            "country": "United States", 
            "longitude": -96.828708671300006, 
            "state": "TX", 
            "street": "", 
            "latitude": 33.016849154399999
          }
        }, 
        {
          "category": "Local business", 
          "name": "Ra Sushi Bar", 
          "id": "137307153003059", 
          "category_list": [
            {
              "id": "134501539950711", 
              "name": "Sushi Restaurant"
            }
          ], 
          "location": {
            "city": "Hollywood", 
            "zip": "", 
            "country": "United States", 
            "longitude": -80.211299327399999, 
            "state": "FL", 
            "street": "", 
            "latitude": 26.0101204654
          }
        }
      ]
    }
  }, 
  {
    "business_name": "Court House Cafe", 
    "business_id": "9s4xL0qiZ93BLz5XTNWxXQ", 
    "fb_pages": {
      "paging": {
        "next": "https://graph.facebook.com/search?type=place&access_token=229546593895315|yPLlHqq6YvDLIH4nL0kjJtIFSlU&limit=5000&offset=5000&__after_id=211161625589977"
      }, 
      "data": [
        {
          "category": "Restaurant/cafe", 
          "name": "Court House cafe Normanville", 
          "id": "146949852019669", 
          "category_list": [
            {
              "id": "192661127431931", 
              "name": "Wine Bar"
            }, 
            {
              "id": "192108214153222", 
              "name": "Breakfast & Brunch Restaurant"
            }
          ], 
          "location": {
            "city": "Normanville", 
            "zip": "5204", 
            "country": "Australia", 
            "longitude": 138.31765073559001, 
            "state": "SA", 
            "street": "52 Main St", 
            "latitude": -35.446464910419003
          }
        }, 
        {
          "category": "Local business", 
          "name": "Court House Cafe", 
          "id": "139606752812504", 
          "category_list": [
            {
              "id": "197871390225897", 
              "name": "Cafe"
            }, 
            {
              "id": "188662441155211", 
              "name": "Community & Government"
            }
          ], 
          "location": {
            "city": "Geelong", 
            "zip": "", 
            "country": "Australia", 
            "longitude": 144.35752466400001, 
            "state": "VIC", 
            "street": "", 
            "latitude": -38.147565958100003
          }
        }, 
        {
          "category": "Local business", 
          "name": "J's Corner Cafe and Buffet", 
          "id": "359272730835546", 
          "category_list": [
            {
              "id": "197871390225897", 
              "name": "Cafe"
            }
          ], 
          "location": {
            "city": "Washington Court House", 
            "zip": "43160", 
            "country": "United States", 
            "longitude": -83.479734727700006, 
            "state": "OH", 
            "street": "Us Highway 35", 
            "latitude": 39.548800444400001
          }
        }, 
        {
          "category": "Restaurant/cafe", 
          "name": "Court House Cafe", 
          "id": "162654116281", 
          "category_list": [
            {
              "id": "149803325077018", 
              "name": "American Restaurant"
            }
          ], 
          "location": {
            "city": "Chesapeake", 
            "zip": "23322", 
            "country": "United States", 
            "longitude": -76.238850726500004, 
            "state": "VA", 
            "street": "350 S Battlefield Blvd", 
            "latitude": 36.712146770300002
          }
        }, 
        {
          "category": "Restaurant/cafe", 
          "name": "Court House Cafe", 
          "id": "108022072550867", 
          "category_list": [
            {
              "id": "273819889375819", 
              "name": "Restaurant"
            }
          ], 
          "location": {
            "city": "Cleveland", 
            "zip": "30528", 
            "country": "United States", 
            "longitude": -83.762061093081002, 
            "state": "GA", 
            "street": "36 Kytle Street", 
            "latitude": 34.5965226414
          }
        }, 
        {
          "category": "Restaurant/cafe", 
          "name": "Court House Cafe", 
          "id": "187462529954", 
          "category_list": [
            {
              "id": "273819889375819", 
              "name": "Restaurant"
            }
          ], 
          "location": {
            "city": "Racine", 
            "zip": "53403", 
            "country": "United States", 
            "longitude": -87.785392999999999, 
            "state": "WI", 
            "street": "740 College Ave", 
            "latitude": 42.724781
          }
        }, 
        {
          "category": "Local business", 
          "name": "Court House Cafe", 
          "id": "121627107847927", 
          "category_list": [
            {
              "id": "197871390225897", 
              "name": "Cafe"
            }
          ], 
          "location": {
            "city": "Springfield", 
            "zip": "37172-2405", 
            "country": "United States", 
            "longitude": -86.885666000000001, 
            "state": "TN", 
            "street": "118 6th Ave W", 
            "latitude": 36.508518000000002
          }
        }, 
        {
          "category": "Local business", 
          "name": "Court House Cafe", 
          "id": "111608188876960", 
          "category_list": [
            {
              "id": "197871390225897", 
              "name": "Cafe"
            }, 
            {
              "id": "188662441155211", 
              "name": "Community & Government"
            }
          ], 
          "location": {
            "city": "Norwalk", 
            "zip": "06854-1634", 
            "country": "United States", 
            "longitude": -73.450294, 
            "state": "CT", 
            "street": "188 Richards Ave", 
            "latitude": 41.102615
          }
        }, 
        {
          "category": "Local business", 
          "name": "Court House Cafe", 
          "id": "111781308858670", 
          "category_list": [
            {
              "id": "197871390225897", 
              "name": "Cafe"
            }
          ], 
          "location": {
            "city": "Leesburg", 
            "zip": "20176-2828", 
            "country": "United States", 
            "longitude": -77.563438000000005, 
            "state": "VA", 
            "street": "18 E Market St", 
            "latitude": 39.115704000000001
          }
        }, 
        {
          "category": "Local business", 
          "name": "Court House Cafe'", 
          "id": "115434618479493", 
          "category_list": [
            {
              "id": "197871390225897", 
              "name": "Cafe"
            }, 
            {
              "id": "188662441155211", 
              "name": "Community & Government"
            }
          ], 
          "location": {
            "city": "Chicago", 
            "zip": "60604-1702", 
            "country": "United States", 
            "longitude": -87.629153000000002, 
            "state": "IL", 
            "street": "219 S Dearborn St", 
            "latitude": 41.879178000000003
          }
        }, 
        {
          "category": "Local business", 
          "name": "Court House Cafe", 
          "id": "115830631771493", 
          "category_list": [
            {
              "id": "197871390225897", 
              "name": "Cafe"
            }
          ], 
          "location": {
            "city": "Woodbury", 
            "zip": "08096-4602", 
            "country": "United States", 
            "longitude": -75.153277000000003, 
            "state": "NJ", 
            "street": "1 N Broad St", 
            "latitude": 39.838275000000003
          }
        }, 
        {
          "category": "Local business", 
          "name": "Court House Cafe", 
          "id": "116078231746387", 
          "category_list": [
            {
              "id": "197871390225897", 
              "name": "Cafe"
            }
          ], 
          "location": {
            "city": "Saint Augustine", 
            "zip": "32084-8687", 
            "country": "United States", 
            "longitude": -81.337699999999998, 
            "state": "FL", 
            "street": "4030 Lewis Speedway", 
            "latitude": 29.937408000000001
          }
        }, 
        {
          "category": "Local business", 
          "name": "Court House Cafe", 
          "id": "121622854514521", 
          "category_list": [
            {
              "id": "197871390225897", 
              "name": "Cafe"
            }
          ], 
          "location": {
            "city": "Cleveland", 
            "zip": "44113-1863", 
            "country": "United States", 
            "longitude": -81.697821000000005, 
            "state": "OH", 
            "street": "801 W Superior Ave Lbby", 
            "latitude": 41.496307000000002
          }
        }, 
        {
          "category": "Restaurant/cafe", 
          "name": "Court House Cafe", 
          "id": "354964964646179", 
          "category_list": [
            {
              "id": "273819889375819", 
              "name": "Restaurant"
            }
          ], 
          "location": {
            "city": "Hobart", 
            "zip": "7000", 
            "country": "Australia", 
            "longitude": 147.32966379109001, 
            "state": "TAS", 
            "street": "19 Liverpool Street", 
            "latitude": -42.879028750448001
          }
        }, 
        {
          "category": "Local business", 
          "name": "Woody's Cafe", 
          "id": "120461197970768", 
          "category_list": [
            {
              "id": "197871390225897", 
              "name": "Cafe"
            }, 
            {
              "id": "110290705711626", 
              "name": "Bar"
            }
          ], 
          "location": {
            "city": "Washington Court House", 
            "zip": "43160-1332", 
            "country": "United States", 
            "longitude": -83.441261724064006, 
            "state": "OH", 
            "street": "222 N Main St", 
            "latitude": 39.537357850219003
          }
        }, 
        {
          "category": "Restaurant/cafe", 
          "name": "The Rusty Keg Tavern", 
          "id": "203142286391726", 
          "category_list": [
            {
              "id": "188296324525457", 
              "name": "Sandwich Shop"
            }, 
            {
              "id": "187425207958280", 
              "name": "Burger Restaurant"
            }, 
            {
              "id": "149803325077018", 
              "name": "American Restaurant"
            }
          ], 
          "location": {
            "city": "Washington Court House", 
            "zip": "43160", 
            "country": "United States", 
            "longitude": -83.422138212600004, 
            "state": "OH", 
            "street": "1801 Columbus Ave.", 
            "latitude": 39.5510012847
          }
        }, 
        {
          "category": "Restaurant/cafe", 
          "name": "Bellevue Tavern", 
          "id": "59622556414", 
          "category_list": [
            {
              "id": "163300367054197", 
              "name": "Seafood Restaurant"
            }, 
            {
              "id": "149803325077018", 
              "name": "American Restaurant"
            }, 
            {
              "id": "233804719972590", 
              "name": "Bar & Grill"
            }
          ], 
          "location": {
            "city": "Cape May Court House", 
            "zip": "08210", 
            "country": "United States", 
            "longitude": -74.824282315833003, 
            "state": "NJ", 
            "street": "9 S. Main St", 
            "latitude": 39.082146048292003
          }
        }, 
        {
          "category": "Restaurant/cafe", 
          "name": "Avalon Links Restaurant", 
          "id": "272604220487", 
          "category_list": [
            {
              "id": "192831537402299", 
              "name": "Family Style Restaurant"
            }
          ], 
          "location": {
            "city": "Cape May Court House", 
            "zip": "08210", 
            "country": "United States", 
            "longitude": -74.792625315275004, 
            "state": "NJ", 
            "street": "1510 N Rt 9", 
            "latitude": 39.118384728168998
          }
        }, 
        {
          "category": "Restaurant/cafe", 
          "name": "Streetside 62", 
          "id": "200725290091637", 
          "category_list": [
            {
              "id": "165679780146824", 
              "name": "Food & Restaurant"
            }
          ], 
          "location": {
            "city": "Washington Court House", 
            "zip": "43160", 
            "country": "United States", 
            "longitude": -83.419909550300005, 
            "state": "OH", 
            "street": "2007 Columbus Avenue", 
            "latitude": 39.552866758100002
          }
        }, 
        {
          "category": "Local business", 
          "name": "Court House Cafe & Market", 
          "id": "117835408243205", 
          "category_list": [
            {
              "id": "197871390225897", 
              "name": "Cafe"
            }
          ], 
          "location": {
            "city": "Naples", 
            "zip": "34112-3813", 
            "country": "United States", 
            "longitude": -81.766820999999993, 
            "state": "FL", 
            "street": "1716 Airport Rd S", 
            "latitude": 26.137494
          }
        }, 
        {
          "category": "Restaurant/cafe", 
          "name": "Donatos Washington Court House", 
          "id": "156690764383134", 
          "category_list": [
            {
              "id": "180256082015845", 
              "name": "Pizza Place"
            }
          ], 
          "location": {
            "city": "Washington Court House", 
            "zip": "43160", 
            "country": "United States", 
            "longitude": -83.427657999999994, 
            "state": "OH", 
            "street": "1211 Columbus Avenue", 
            "latitude": 39.545952
          }
        }, 
        {
          "category": "Restaurant/cafe", 
          "name": "Atkinson's Tavern", 
          "id": "109933515699767", 
          "category_list": [
            {
              "id": "273819889375819", 
              "name": "Restaurant"
            }
          ], 
          "location": {
            "city": "Cape May Court House", 
            "zip": "08210", 
            "country": "United States", 
            "longitude": -74.832353501057, 
            "state": "NJ", 
            "street": "1010 RT9 South", 
            "latitude": 39.065870674948002
          }
        }, 
        {
          "category": "Local business", 
          "name": "The Court House Cafe Catering & Confections", 
          "id": "105585956175903", 
          "category_list": [
            {
              "id": "197871390225897", 
              "name": "Cafe"
            }
          ], 
          "location": {
            "city": "Monroeville", 
            "zip": "36460-1807", 
            "country": "United States", 
            "longitude": -87.325546000000003, 
            "state": "AL", 
            "street": "27 W Claiborne St", 
            "latitude": 31.526364999999998
          }
        }, 
        {
          "category": "Restaurant/cafe", 
          "name": "Horney's Barbeque", 
          "id": "189841774482217", 
          "category_list": [
            {
              "id": "273819889375819", 
              "name": "Restaurant"
            }
          ], 
          "location": {
            "city": "Washington Court House", 
            "zip": "43160", 
            "country": "United States", 
            "longitude": -83.457308687999998, 
            "state": "OH", 
            "street": "1270 US RT 22 NW", 
            "latitude": 39.531045182
          }
        }, 
        {
          "category": "Local business", 
          "name": "The Court House Cafe", 
          "id": "117888918236770", 
          "category_list": [
            {
              "id": "197871390225897", 
              "name": "Cafe"
            }
          ], 
          "location": {
            "city": "Waxahachie", 
            "zip": "75165-3717", 
            "country": "United States", 
            "longitude": -96.846898662506007, 
            "state": "TX", 
            "street": "115 E Franklin St", 
            "latitude": 32.384796745804998
          }
        }, 
        {
          "category": "Local business", 
          "name": "Martha's Court House Cafe", 
          "id": "222897064407139", 
          "category_list": [
            {
              "id": "197871390225897", 
              "name": "Cafe"
            }
          ], 
          "location": {
            "city": "Miami", 
            "zip": "33142", 
            "country": "United States", 
            "longitude": -80.239990000000006, 
            "state": "FL", 
            "street": "", 
            "latitude": 25.809069999999998
          }
        }, 
        {
          "category": "Restaurant/cafe", 
          "name": "The Willow Restaurant", 
          "id": "272937539399044", 
          "category_list": [
            {
              "id": "149803325077018", 
              "name": "American Restaurant"
            }
          ], 
          "location": {
            "city": "Washington Court House", 
            "zip": "43160", 
            "country": "United States", 
            "longitude": -83.422312783508005, 
            "state": "OH", 
            "street": "203 Glenn Ave.", 
            "latitude": 39.549850415900003
          }
        }, 
        {
          "category": "Restaurant/cafe", 
          "name": "Main Street Cafe.CMCH", 
          "id": "157669060941318", 
          "category_list": [
            {
              "id": "193831710644458", 
              "name": "Italian Restaurant"
            }, 
            {
              "id": "168976549819329", 
              "name": "French Restaurant"
            }, 
            {
              "id": "163300367054197", 
              "name": "Seafood Restaurant"
            }
          ], 
          "location": {
            "city": "Cape May Court House", 
            "zip": "08210", 
            "country": "United States", 
            "longitude": -74.821884999999995, 
            "state": "NJ", 
            "street": "104 N Main Street ", 
            "latitude": 39.084417999999999
          }
        }, 
        {
          "category": "Restaurant/cafe", 
          "name": "The Clock House Cafe", 
          "id": "143943532342469", 
          "category_list": [
            {
              "id": "197871390225897", 
              "name": "Cafe"
            }
          ], 
          "location": {
            "city": "Deal", 
            "zip": "CT14 7AF", 
            "country": "United Kingdom", 
            "longitude": 1.4028387771199999, 
            "state": "", 
            "street": "15 South Court", 
            "latitude": 51.222949369399998
          }
        }, 
        {
          "category": "Food/grocery", 
          "name": "Court House Caf\u00e9 Mossy", 
          "id": "561679150591457", 
          "category_list": [
            {
              "id": "150108431712141", 
              "name": "Food & Grocery"
            }
          ], 
          "location": {
            "city": "Moss Vale", 
            "zip": "2577", 
            "country": "Australia", 
            "longitude": 150.37113558589999, 
            "state": "NSW", 
            "street": "348 - 354 Argyle St", 
            "latitude": -34.550003245634997
          }
        }, 
        {
          "category": "Restaurant/cafe", 
          "name": "Juniors Crabs & Seafood", 
          "id": "111404282233890", 
          "category_list": [
            {
              "id": "163300367054197", 
              "name": "Seafood Restaurant"
            }
          ], 
          "location": {
            "city": "Cape May Court House", 
            "zip": "08210-2524", 
            "country": "United States", 
            "longitude": -74.895279922100002, 
            "state": "NJ", 
            "street": "228 S Delsea Dr", 
            "latitude": 39.0731825513
          }
        }, 
        {
          "category": "Restaurant/cafe", 
          "name": "The Court House Diner", 
          "id": "100285076743671", 
          "category_list": [
            {
              "id": "273819889375819", 
              "name": "Restaurant"
            }
          ], 
          "location": {
            "city": "Cape May Court House", 
            "zip": "08210", 
            "country": "United States", 
            "longitude": -74.818871056299997, 
            "state": "NJ", 
            "street": "218 North Main Street", 
            "latitude": 39.087087973400003
          }
        }, 
        {
          "category": "Restaurant/cafe", 
          "name": "El Dorado Mexican Restaurant/ Washington Court House Location", 
          "id": "402878163154771", 
          "category_list": [
            {
              "id": "199377230079198", 
              "name": "Mexican Restaurant"
            }
          ], 
          "location": {
            "city": "Washington Court House", 
            "zip": "43160", 
            "country": "United States", 
            "longitude": -83.422578000000001, 
            "state": "OH", 
            "street": "220 Washington Square", 
            "latitude": 39.548236000000003
          }
        }, 
        {
          "category": "Local business", 
          "name": "Court Street Cafe", 
          "id": "116271161730960", 
          "category_list": [
            {
              "id": "197871390225897", 
              "name": "Cafe"
            }
          ], 
          "location": {
            "city": "Washington Court House", 
            "zip": "43160-1302", 
            "country": "United States", 
            "longitude": -83.438250999999994, 
            "state": "OH", 
            "street": "240 E Court St", 
            "latitude": 39.536717000000003
          }
        }, 
        {
          "category": "Restaurant/cafe", 
          "name": "Court House Pizza", 
          "id": "309302097163", 
          "category_list": [
            {
              "id": "149803325077018", 
              "name": "American Restaurant"
            }, 
            {
              "id": "193831710644458", 
              "name": "Italian Restaurant"
            }, 
            {
              "id": "188296324525457", 
              "name": "Sandwich Shop"
            }
          ], 
          "location": {
            "city": "Cape May Court House", 
            "zip": "08210", 
            "country": "United States", 
            "longitude": -74.825103245199998, 
            "state": "NJ", 
            "street": "205 South Main Street", 
            "latitude": 39.080055010099997
          }
        }, 
        {
          "category": "Restaurant/cafe", 
          "name": "Allen's Giovanni's", 
          "id": "570647236339155", 
          "category_list": [
            {
              "id": "273819889375819", 
              "name": "Restaurant"
            }
          ], 
          "location": {
            "city": "Washington Court House", 
            "zip": "43160", 
            "country": "United States", 
            "longitude": -83.441338000000002, 
            "state": "OH", 
            "street": "215 W. Court Street", 
            "latitude": 39.534531000000001
          }
        }, 
        {
          "category": "Local business", 
          "name": "Steve's Cafe 47", 
          "id": "126702687379549", 
          "category_list": [
            {
              "id": "197871390225897", 
              "name": "Cafe"
            }
          ], 
          "location": {
            "city": "Cape May Court House", 
            "zip": "08210", 
            "country": "United States", 
            "longitude": -74.892237469820998, 
            "state": "NJ", 
            "street": "", 
            "latitude": 39.078194796788999
          }
        }, 
        {
          "category": "Local business", 
          "name": "Court House Coffee Bar", 
          "id": "116325451728088", 
          "category_list": [
            {
              "id": "197871390225897", 
              "name": "Cafe"
            }
          ], 
          "location": {
            "city": "Langdon", 
            "zip": "58249-2457", 
            "country": "United States", 
            "longitude": -98.368020999999999, 
            "state": "ND", 
            "street": "901 3rd St", 
            "latitude": 48.761299999999999
          }
        }, 
        {
          "category": "Restaurant/cafe", 
          "name": "The Court Room Cafe Bar", 
          "id": "220914964734407", 
          "category_list": [
            {
              "id": "201035296584114", 
              "name": "Internet Cafe"
            }, 
            {
              "id": "211155112228091", 
              "name": "Event Venue"
            }
          ], 
          "location": {
            "city": "Bradford", 
            "zip": "BD1 4PS", 
            "country": "United Kingdom", 
            "longitude": -1.754, 
            "state": "", 
            "street": "Malik House, Manor Row", 
            "latitude": 53.792000000000002
          }
        }, 
        {
          "category": "Restaurant/cafe", 
          "name": "Mimmo's Italian Restaurant", 
          "id": "432872433479812", 
          "category_list": [
            {
              "id": "273819889375819", 
              "name": "Restaurant"
            }
          ], 
          "location": {
            "city": "Charlotte Court House", 
            "zip": "23923", 
            "country": "United States", 
            "longitude": -78.655518999999998, 
            "state": "VA", 
            "street": "102 David Bruce Avenue", 
            "latitude": 37.055410999999999
          }
        }, 
        {
          "category": "Restaurant/cafe", 
          "name": "Pat and Kevin's On The Square", 
          "id": "369211523136648", 
          "category_list": [
            {
              "id": "273819889375819", 
              "name": "Restaurant"
            }
          ], 
          "location": {
            "city": "Goderich", 
            "zip": "", 
            "country": "Canada", 
            "longitude": -81.711907761399999, 
            "state": "ON", 
            "street": "68 Court House Square", 
            "latitude": 43.742459902299998
          }
        }, 
        {
          "category": "Restaurant/cafe", 
          "name": "Upper Room Cafe", 
          "id": "152745978092500", 
          "category_list": [
            {
              "id": "149803325077018", 
              "name": "American Restaurant"
            }, 
            {
              "id": "156757354384541", 
              "name": "Soul Food Restaurant"
            }, 
            {
              "id": "188296324525457", 
              "name": "Sandwich Shop"
            }
          ], 
          "location": {
            "city": "Washington Court House", 
            "zip": "43160", 
            "country": "United States", 
            "longitude": -83.416579999999996, 
            "state": "OH", 
            "street": "525 Glenn Ave. (above Grace Community Church)", 
            "latitude": 39.546790999999999
          }
        }, 
        {
          "category": "Restaurant/cafe", 
          "name": "Franklin's Franks", 
          "id": "587817461275510", 
          "category_list": [
            {
              "id": "273819889375819", 
              "name": "Restaurant"
            }
          ], 
          "location": {
            "city": "Amelia Court House", 
            "zip": "23002", 
            "country": "United States", 
            "longitude": -77.958855377600003, 
            "state": "VA", 
            "street": "10151 Superior Way", 
            "latitude": 37.357671330700001
          }
        }, 
        {
          "category": "Local business", 
          "name": "Arkansas House & Boardwalk Cafe", 
          "id": "156706334350335", 
          "category_list": [
            {
              "id": "197871390225897", 
              "name": "Cafe"
            }
          ], 
          "location": {
            "city": "Jasper", 
            "zip": "72641", 
            "country": "United States", 
            "longitude": -93.186502000000004, 
            "state": "AR", 
            "street": "215 East Court Street  ", 
            "latitude": 36.008361000000001
          }
        }, 
        {
          "category": "Restaurant/cafe", 
          "name": "Amarillo Grill", 
          "id": "285342514902873", 
          "category_list": [
            {
              "id": "212369748779358", 
              "name": "Tex-Mex Restaurant"
            }
          ], 
          "location": {
            "city": "Amelia Court House", 
            "zip": "23002", 
            "country": "United States", 
            "longitude": -77.981019005310003, 
            "state": "VA", 
            "street": "8999 Virginia st", 
            "latitude": 37.342937652091997
          }
        }, 
        {
          "category": "Restaurant/cafe", 
          "name": "Roll House", 
          "id": "233176316855110", 
          "category_list": [
            {
              "id": "197871390225897", 
              "name": "Cafe"
            }, 
            {
              "id": "110290705711626", 
              "name": "Bar"
            }
          ], 
          "location": {
            "city": "Houston", 
            "zip": "77007", 
            "country": "United States", 
            "longitude": -95.391194999999996, 
            "state": "TX", 
            "street": "3003 Memorial Court #1332", 
            "latitude": 29.76454
          }
        }, 
        {
          "category": "Local business", 
          "name": "Corner Cafe", 
          "id": "116539071703509", 
          "category_list": [
            {
              "id": "197871390225897", 
              "name": "Cafe"
            }
          ], 
          "location": {
            "city": "Cape May Court House", 
            "zip": "08210", 
            "country": "United States", 
            "longitude": -74.850962199099996, 
            "state": "NJ", 
            "street": "2 N Wildwood Blvd", 
            "latitude": 39.045735859899999
          }
        }, 
        {
          "category": "Restaurant/cafe", 
          "name": "Hatcher Dining And Catering", 
          "id": "201484796585873", 
          "category_list": [
            {
              "id": "273819889375819", 
              "name": "Restaurant"
            }
          ], 
          "location": {
            "city": "Amelia Court House", 
            "zip": "23002", 
            "country": "United States", 
            "longitude": -77.978095999999994, 
            "state": "VA", 
            "street": "16420 Court St.", 
            "latitude": 37.342754999999997
          }
        }, 
        {
          "category": "Restaurant/cafe", 
          "name": "Annie Ruby's Cafe", 
          "id": "515918781782767", 
          "category_list": [
            {
              "id": "149803325077018", 
              "name": "American Restaurant"
            }, 
            {
              "id": "197871390225897", 
              "name": "Cafe"
            }
          ], 
          "location": {
            "city": "Burkesville", 
            "zip": "42717", 
            "country": "United States", 
            "longitude": -85.370802219300003, 
            "state": "KY", 
            "street": "204 Court House Square", 
            "latitude": 36.7900459926
          }
        }, 
        {
          "category": "Restaurant/cafe", 
          "name": "Amore' Pizzeria", 
          "id": "295440126854", 
          "category_list": [
            {
              "id": "273819889375819", 
              "name": "Restaurant"
            }
          ], 
          "location": {
            "city": "Washington Court House", 
            "zip": "43160", 
            "country": "United States", 
            "longitude": -83.459800999999999, 
            "state": "OH", 
            "street": "1428 US 22 NW", 
            "latitude": 39.530182000000003
          }
        }, 
        {
          "category": "Restaurant/cafe", 
          "name": "Molino's Takeout Restaurant", 
          "id": "119316354799242", 
          "category_list": [
            {
              "id": "155358844524028", 
              "name": "Gluten-Free Restaurant"
            }
          ], 
          "location": {
            "city": "Cape May Court House", 
            "zip": "08204 (Across from WaWa)", 
            "country": "United States", 
            "longitude": -74.826141000000007, 
            "state": "NJ", 
            "street": "219 South Main Street (Route 9)", 
            "latitude": 39.078522
          }
        }, 
        {
          "category": "Restaurant/cafe", 
          "name": "The Purple Turtle Cafe & Bakery", 
          "id": "155033354747", 
          "category_list": [
            {
              "id": "273819889375819", 
              "name": "Restaurant"
            }
          ], 
          "location": {
            "city": "Washington Court House", 
            "zip": "43160", 
            "country": "United States", 
            "longitude": -83.437652999999997, 
            "state": "OH", 
            "street": "249 E. Court Street", 
            "latitude": 39.537041000000002
          }
        }, 
        {
          "category": "Restaurant/cafe", 
          "name": "Glick's Corner Cafe and Deli", 
          "id": "449834648386558", 
          "category_list": [
            {
              "id": "273819889375819", 
              "name": "Restaurant"
            }
          ], 
          "location": {
            "city": "Cape May Court House", 
            "zip": "08210", 
            "country": "United States", 
            "longitude": -74.851440999999994, 
            "state": "NJ", 
            "street": "Routes 9 & 147", 
            "latitude": 39.045845
          }
        }, 
        {
          "category": "Restaurant/cafe", 
          "name": "Ice Cream Station", 
          "id": "512742115453097", 
          "category_list": [
            {
              "id": "200863816597800", 
              "name": "Ice Cream Parlor"
            }
          ], 
          "location": {
            "city": "Cape May Court House", 
            "zip": "08210", 
            "country": "United States", 
            "longitude": -74.831322, 
            "state": "NJ", 
            "street": "809 S Route 9 ", 
            "latitude": 39.068821
          }
        }, 
        {
          "category": "Restaurant/cafe", 
          "name": "Murasaki CMCH", 
          "id": "172298116166896", 
          "category_list": [
            {
              "id": "199035016778342", 
              "name": "Japanese Restaurant"
            }, 
            {
              "id": "198367566846946", 
              "name": "Steakhouse"
            }, 
            {
              "id": "179167895459033", 
              "name": "Thai Restaurant"
            }
          ], 
          "location": {
            "city": "Cape May Court House", 
            "zip": "08210", 
            "country": "United States", 
            "longitude": -74.819506725099998, 
            "state": "NJ", 
            "street": "13 court house south dennis rd", 
            "latitude": 39.089930957900002
          }
        }, 
        {
          "category": "Restaurant/cafe", 
          "name": "Busic's", 
          "id": "163994266994833", 
          "category_list": [
            {
              "id": "192108214153222", 
              "name": "Breakfast & Brunch Restaurant"
            }, 
            {
              "id": "149803325077018", 
              "name": "American Restaurant"
            }
          ], 
          "location": {
            "city": "Amelia Court House", 
            "zip": "23002", 
            "country": "United States", 
            "longitude": -77.976462999999995, 
            "state": "VA", 
            "street": "16401 Goodes Bridge Rd.", 
            "latitude": 37.346268000000002
          }
        }, 
        {
          "category": "Restaurant/cafe", 
          "name": "Weenies on Wheels", 
          "id": "544547755627120", 
          "category_list": [
            {
              "id": "207101895984270", 
              "name": "Hot Dog Stand"
            }
          ], 
          "location": {
            "city": "Lake City", 
            "zip": "32025", 
            "country": "United States", 
            "longitude": -82.635086000000001, 
            "state": "FL", 
            "street": "Across from Columbia  County Court House", 
            "latitude": 30.184495999999999
          }
        }, 
        {
          "category": "Restaurant/cafe", 
          "name": "J~Ottons Carib/Atlantic Grill", 
          "id": "85655453925", 
          "category_list": [
            {
              "id": "273819889375819", 
              "name": "Restaurant"
            }
          ], 
          "location": {
            "city": "Cape May Court House", 
            "zip": "08210", 
            "country": "United States", 
            "longitude": -74.823486000000003, 
            "state": "NJ", 
            "street": "16 S Main St", 
            "latitude": 39.081927999999998
          }
        }, 
        {
          "category": "Restaurant/cafe", 
          "name": "Tunneljack's Pizza", 
          "id": "128407153945606", 
          "category_list": [
            {
              "id": "180256082015845", 
              "name": "Pizza Place"
            }
          ], 
          "location": {
            "city": "Washington Court House", 
            "zip": "43160", 
            "country": "United States", 
            "longitude": -83.457381999999996, 
            "state": "OH", 
            "street": "1385 Leesburg Ave.", 
            "latitude": 39.524859999999997
          }
        }, 
        {
          "category": "Restaurant/cafe", 
          "name": "Ranchers Roast Beef", 
          "id": "10150112644345495", 
          "category_list": [
            {
              "id": "192803624072087", 
              "name": "Fast Food Restaurant"
            }
          ], 
          "location": {
            "city": "Washington Court House", 
            "zip": "43160", 
            "country": "United States", 
            "longitude": -83.426490999999999, 
            "state": "OH", 
            "street": "501 s elm st.", 
            "latitude": 39.542518999999999
          }
        }, 
        {
          "category": "Restaurant/cafe", 
          "name": "Padows Hams and Deli, Historic Chesterfield Courthouse", 
          "id": "311494117664", 
          "category_list": [
            {
              "id": "273819889375819", 
              "name": "Restaurant"
            }, 
            {
              "id": "150108431712141", 
              "name": "Food & Grocery"
            }
          ], 
          "location": {
            "city": "Chesterfield Court House", 
            "zip": "23832", 
            "country": "United States", 
            "longitude": -77.508517513100003, 
            "state": "VA", 
            "street": "7004 Commons Plaza", 
            "latitude": 37.375477426700002
          }
        }, 
        {
          "category": "Restaurant/cafe", 
          "name": "Mexi Ind Restaurant", 
          "id": "499415920112322", 
          "category_list": [
            {
              "id": "176007949109829", 
              "name": "Buffet Restaurant"
            }
          ], 
          "location": {
            "city": "Dhaka", 
            "zip": "1209", 
            "country": "Bangladesh", 
            "longitude": 90.3695110906, 
            "street": "Concord Royal Court, House 40(2nd Floor), Road 27(old), 16(new), Dhanmondi,", 
            "latitude": 23.7527690362
          }
        }, 
        {
          "category": "Local business", 
          "name": "Joemamas Coffee House Inc", 
          "id": "111672918868335", 
          "category_list": [
            {
              "id": "197871390225897", 
              "name": "Cafe"
            }, 
            {
              "id": "128673187201735", 
              "name": "Coffee Shop"
            }
          ], 
          "location": {
            "city": "Gallipolis", 
            "zip": "45631-1138", 
            "country": "United States", 
            "longitude": -82.206978000000007, 
            "state": "OH", 
            "street": "33 Court St", 
            "latitude": 38.806147000000003
          }
        }, 
        {
          "category": "Restaurant/cafe", 
          "name": "Hugits Steaks And Things", 
          "id": "130318917036585", 
          "category_list": [
            {
              "id": "192803624072087", 
              "name": "Fast Food Restaurant"
            }, 
            {
              "id": "188334264523313", 
              "name": "Deli"
            }, 
            {
              "id": "188296324525457", 
              "name": "Sandwich Shop"
            }
          ], 
          "location": {
            "city": "Cape May Court House", 
            "zip": "08210", 
            "country": "United States", 
            "longitude": -74.824438254300006, 
            "state": "NJ", 
            "street": "7 Mechanic St", 
            "latitude": 39.082526828299997
          }
        }, 
        {
          "category": "Restaurant/cafe", 
          "name": "Moto Demon Speed Shop / Cafe Moto", 
          "id": "515265068523315", 
          "category_list": [
            {
              "id": "150820404974203", 
              "name": "Motorcycles"
            }
          ], 
          "location": {
            "city": "Rotherham", 
            "zip": "S60 2HZ", 
            "country": "United Kingdom", 
            "longitude": -1.3554713999500001, 
            "state": "", 
            "street": "The Boiler House, Alma Court, Alma Road", 
            "latitude": 53.425912306999997
          }
        }, 
        {
          "category": "Restaurant/cafe", 
          "name": "Valentino's Cafe & Ice Cream Parlor", 
          "id": "229715573736664", 
          "category_list": [
            {
              "id": "187425207958280", 
              "name": "Burger Restaurant"
            }, 
            {
              "id": "149803325077018", 
              "name": "American Restaurant"
            }, 
            {
              "id": "197871390225897", 
              "name": "Cafe"
            }
          ], 
          "location": {
            "city": "Crown Point", 
            "zip": "46307", 
            "country": "United States", 
            "longitude": -87.365327843100005, 
            "state": "IN", 
            "street": "3 Old Court House Square ", 
            "latitude": 41.417617872000001
          }
        }, 
        {
          "category": "Restaurant/cafe", 
          "name": "Randy's Phenomenal Eats", 
          "id": "344404978971374", 
          "category_list": [
            {
              "id": "156757354384541", 
              "name": "Soul Food Restaurant"
            }, 
            {
              "id": "192831537402299", 
              "name": "Family Style Restaurant"
            }, 
            {
              "id": "110107385737667", 
              "name": "New American Restaurant"
            }
          ], 
          "location": {
            "city": "Hudson Falls", 
            "zip": "12839", 
            "country": "United States", 
            "longitude": -73.585415999999995, 
            "state": "NY", 
            "street": "122 Main street (old court house)", 
            "latitude": 43.300524000000003
          }
        }, 
        {
          "category": "Restaurant/cafe", 
          "name": "Park Row Market No. 1", 
          "id": "483416478357457", 
          "category_list": [
            {
              "id": "188334264523313", 
              "name": "Deli"
            }
          ], 
          "location": {
            "city": "Edgefield", 
            "zip": "29824", 
            "country": "United States", 
            "longitude": -81.929001, 
            "state": "SC", 
            "street": "108 Court House Square", 
            "latitude": 33.789321999999999
          }
        }, 
        {
          "category": "Local business", 
          "name": "Avalon Coffee Co", 
          "id": "120198771325320", 
          "category_list": [
            {
              "id": "197871390225897", 
              "name": "Cafe"
            }, 
            {
              "id": "128673187201735", 
              "name": "Coffee Shop"
            }
          ], 
          "location": {
            "city": "Cape May Court House", 
            "zip": "08210-2221", 
            "country": "United States", 
            "longitude": -74.824562386300002, 
            "state": "NJ", 
            "street": "9 Mechanic St", 
            "latitude": 39.082758276500002
          }
        }, 
        {
          "category": "Restaurant/cafe", 
          "name": "Rajdhani Fine Indian Cuisine", 
          "id": "170535169812225", 
          "category_list": [
            {
              "id": "129539913784760", 
              "name": "Indian Restaurant"
            }
          ], 
          "location": {
            "city": "Saffron Walden", 
            "zip": "CB10 1HG", 
            "country": "United Kingdom", 
            "longitude": 0.23964484587179, 
            "state": "", 
            "street": "Lime Tree House,Lime Tree Court", 
            "latitude": 52.022868830531998
          }
        }, 
        {
          "category": "Restaurant/cafe", 
          "name": "Coffee Culture", 
          "id": "137450022987837", 
          "category_list": [
            {
              "id": "273819889375819", 
              "name": "Restaurant"
            }
          ], 
          "location": {
            "city": "Goderich", 
            "zip": "N0M1L0", 
            "country": "Canada", 
            "longitude": -81.7118024416, 
            "state": "ON", 
            "street": "58 Court House Square", 
            "latitude": 43.742479939799999
          }
        }, 
        {
          "category": "Restaurant/cafe", 
          "name": "Martelly's Pizza", 
          "id": "155217447980712", 
          "category_list": [
            {
              "id": "180256082015845", 
              "name": "Pizza Place"
            }
          ], 
          "location": {
            "city": "Goderich", 
            "zip": "N7A2E9", 
            "country": "Canada", 
            "longitude": -81.711662169600004, 
            "state": "ON", 
            "street": "80 Court House Sq", 
            "latitude": 43.7424582895
          }
        }, 
        {
          "category": "Restaurant/cafe", 
          "name": "Great Asia Japanese Restaurant", 
          "id": "163449143717280", 
          "category_list": [
            {
              "id": "199035016778342", 
              "name": "Japanese Restaurant"
            }
          ], 
          "location": {
            "city": "Hong Kong", 
            "zip": "0000", 
            "country": "Hong Kong", 
            "longitude": 114.17396815131001, 
            "street": "2/F, Linway Court (Near Blue House), 69-71 Stone Nullah Lane", 
            "latitude": 22.274062025475999
          }
        }, 
        {
          "category": "Restaurant/cafe", 
          "name": "Big Mama's Hot Dogs", 
          "id": "252982838080079", 
          "category_list": [
            {
              "id": "192803624072087", 
              "name": "Fast Food Restaurant"
            }, 
            {
              "id": "149803325077018", 
              "name": "American Restaurant"
            }
          ], 
          "location": {
            "city": "Riverside", 
            "zip": "92501", 
            "country": "United States", 
            "longitude": -117.34892899, 
            "state": "CA", 
            "street": "4100 Main St.  Criminal Court House", 
            "latitude": 33.982384282600002
          }
        }, 
        {
          "category": "Restaurant/cafe", 
          "name": "Courthouse Cafe", 
          "id": "600046626692632", 
          "category_list": [
            {
              "id": "273819889375819", 
              "name": "Restaurant"
            }
          ], 
          "location": {
            "city": "Salinas", 
            "zip": "93901", 
            "country": "United States", 
            "longitude": -121.65672600000001, 
            "state": "CA", 
            "street": "42 W. Gabilan St.", 
            "latitude": 36.675497999999997
          }
        }, 
        {
          "category": "Restaurant/cafe", 
          "name": "Moe's Southwest Grill", 
          "id": "172319082850037", 
          "category_list": [
            {
              "id": "199377230079198", 
              "name": "Mexican Restaurant"
            }, 
            {
              "id": "143722605691025", 
              "name": "Southwestern Restaurant"
            }, 
            {
              "id": "192803624072087", 
              "name": "Fast Food Restaurant"
            }
          ], 
          "location": {
            "city": "Hartford", 
            "zip": "06103", 
            "country": "United States", 
            "longitude": -72.672548091199999, 
            "state": "CT", 
            "street": "30 State House Square,State House Square Food Court", 
            "latitude": 41.766793766399999
          }
        }, 
        {
          "category": "Local business", 
          "name": "Lena's Cafe (On Waymouth)", 
          "id": "219829951399282", 
          "category_list": [
            {
              "id": "197871390225897", 
              "name": "Cafe"
            }
          ], 
          "location": {
            "city": "Adelaide", 
            "zip": "5000", 
            "country": "Australia", 
            "longitude": 138.598989676, 
            "state": "SA", 
            "street": "Food Court, 11 Waymouth Street (CitiCentral Tower - ANZ House)", 
            "latitude": -34.925976049600003
          }
        }, 
        {
          "category": "Restaurant/cafe", 
          "name": "The Keystorm Pub", 
          "id": "211161625589977", 
          "category_list": [
            {
              "id": "273819889375819", 
              "name": "Restaurant"
            }
          ], 
          "location": {
            "city": "Brockville", 
            "zip": "K6V 4T1", 
            "country": "Canada", 
            "longitude": -75.684324462500001, 
            "state": "ON", 
            "street": "4 Court House Avenue", 
            "latitude": 44.589671894699997
          }
        }
      ]
    }
  }, 
  {
    "business_name": "Acura of Tempe", 
    "business_id": "5sJjWE6l4fpfO77A0QIcGg", 
    "fb_pages": {
      "paging": {
        "next": "https://graph.facebook.com/search?type=place&access_token=229546593895315|yPLlHqq6YvDLIH4nL0kjJtIFSlU&limit=5000&offset=5000&__after_id=135473929837367"
      }, 
      "data": [
        {
          "category": "Automotive", 
          "name": "Acura of Tempe", 
          "id": "278968557668", 
          "category_list": [
            {
              "id": "131962450204676", 
              "name": "Car Dealership"
            }, 
            {
              "id": "182575511780536", 
              "name": "Car Parts & Accessories"
            }
          ], 
          "location": {
            "city": "Tempe", 
            "zip": "85284", 
            "country": "United States", 
            "longitude": -111.9702488022, 
            "state": "AZ", 
            "street": "7800 S. Autoplex Loop", 
            "latitude": 33.346677433910997
          }
        }, 
        {
          "category": "Local business", 
          "name": "Basch Acura Service", 
          "id": "135473929837367", 
          "category_list": [
            {
              "id": "149998721725634", 
              "name": "Automotive Repair"
            }
          ], 
          "location": {
            "city": "Tempe", 
            "zip": "85280", 
            "country": "United States", 
            "longitude": -111.90551000000001, 
            "state": "AZ", 
            "street": "", 
            "latitude": 33.407580000000003
          }
        }
      ]
    }
  }, 
  {
    "business_name": "Edelweiss German Deli", 
    "business_id": "jw-etWMob2A07geTAVkgEw", 
    "fb_pages": {
      "paging": {
        "next": "https://graph.facebook.com/search?type=place&access_token=229546593895315|yPLlHqq6YvDLIH4nL0kjJtIFSlU&limit=5000&offset=5000&__after_id=194969197198786"
      }, 
      "data": [
        {
          "category": "Local business", 
          "name": "Edelweiss German Deli", 
          "id": "119603868049738", 
          "category_list": [
            {
              "id": "188334264523313", 
              "name": "Deli"
            }
          ], 
          "location": {
            "city": "Phoenix", 
            "zip": "85022-5158", 
            "country": "United States", 
            "longitude": -112.036072, 
            "state": "AZ", 
            "street": "13439 N Cave Creek Rd", 
            "latitude": 33.608545999999997
          }
        }, 
        {
          "category": "Restaurant/cafe", 
          "name": "Haus Edelweiss - German Restaurant and Deli", 
          "id": "194969197198786", 
          "category_list": [
            {
              "id": "188334264523313", 
              "name": "Deli"
            }, 
            {
              "id": "150217168372274", 
              "name": "German Restaurant"
            }
          ], 
          "location": {
            "city": "Greenville", 
            "zip": "29609", 
            "country": "United States", 
            "longitude": -82.373346433699993, 
            "state": "SC", 
            "street": "903 Wade Hampton BLVD", 
            "latitude": 34.871059926800001
          }
        }
      ]
    }
  }, 
  {
    "business_name": "Picazzo's Organic Italian Kitchen", 
    "business_id": "3jqOv6re-xPYOg7srmi7tg", 
    "fb_pages": {
      "paging": {
        "next": "https://graph.facebook.com/search?type=place&access_token=229546593895315|yPLlHqq6YvDLIH4nL0kjJtIFSlU&limit=5000&offset=5000&__after_id=456177214493874"
      }, 
      "data": [
        {
          "category": "Local business", 
          "name": "Picazzo's Organic Italian Kitchen", 
          "id": "107509682673162", 
          "category_list": [
            {
              "id": "180256082015845", 
              "name": "Pizza Place"
            }, 
            {
              "id": "193831710644458", 
              "name": "Italian Restaurant"
            }
          ], 
          "location": {
            "city": "Sedona", 
            "zip": "86336", 
            "country": "United States", 
            "longitude": -111.79240441261, 
            "state": "AZ", 
            "street": "1855 W State Route 89a", 
            "latitude": 34.863532257225998
          }
        }, 
        {
          "category": "Local business", 
          "name": "Picazzo's Organic Italian Kitchen", 
          "id": "145200205512873", 
          "category_list": [
            {
              "id": "180256082015845", 
              "name": "Pizza Place"
            }, 
            {
              "id": "193831710644458", 
              "name": "Italian Restaurant"
            }, 
            {
              "id": "155358844524028", 
              "name": "Gluten-Free Restaurant"
            }
          ], 
          "location": {
            "city": "Tempe", 
            "zip": "85284", 
            "country": "United States", 
            "longitude": -111.94451015948, 
            "state": "AZ", 
            "street": "", 
            "latitude": 33.335056255338998
          }
        }, 
        {
          "category": "Restaurant/cafe", 
          "name": "Picazzo's Organic Italian Kitchen - Surprise, AZ", 
          "id": "200218410015683", 
          "category_list": [
            {
              "id": "273819889375819", 
              "name": "Restaurant"
            }
          ], 
          "location": {
            "city": "Surprise", 
            "zip": "85378", 
            "country": "United States", 
            "longitude": -112.30401537324001, 
            "state": "AZ", 
            "street": "11340 W Bell Road Ste. 118A", 
            "latitude": 33.639870645125001
          }
        }, 
        {
          "category": "Local business", 
          "name": "Picazzo's Organic Italian Kitchen", 
          "id": "526362747462549", 
          "category_list": [
            {
              "id": "165679780146824", 
              "name": "Food & Restaurant"
            }
          ], 
          "location": {
            "city": "Scottsdale", 
            "zip": "85260", 
            "country": "United States", 
            "longitude": -111.92255131, 
            "state": "AZ", 
            "street": "7325 E Frank Lloyd Wright Blvd #101", 
            "latitude": 33.637114227399998
          }
        }, 
        {
          "category": "Local business", 
          "name": "Picazzo's Organic Italian Kitchen", 
          "id": "423230574475805", 
          "category_list": [
            {
              "id": "165679780146824", 
              "name": "Food & Restaurant"
            }
          ], 
          "location": {
            "city": "Flagstaff", 
            "zip": "86001", 
            "country": "United States", 
            "longitude": -111.66089027300001, 
            "state": "AZ", 
            "street": "1300 S. Milton Rd.", 
            "latitude": 35.187961222399998
          }
        }, 
        {
          "category": "Local business", 
          "name": "Picazzo's Organic Italian Kitchen", 
          "id": "456177214493874", 
          "category_list": [
            {
              "id": "165679780146824", 
              "name": "Food & Restaurant"
            }
          ], 
          "location": {
            "city": "Phoenix", 
            "zip": "85032", 
            "country": "United States", 
            "longitude": -111.97913303, 
            "state": "AZ", 
            "street": "4669 E Cactus Rd", 
            "latitude": 33.602824173899997
          }
        }
      ]
    }
  }
]