[
  {
    "business_name": "Wickenburg Country Club", 
    "business_id": "IFx7uG8_uAN1cJqMB9wyFw", 
    "fb_pages": {
      "paging": {
        "next": "https://graph.facebook.com/search?type=place&access_token=229546593895315|yPLlHqq6YvDLIH4nL0kjJtIFSlU&limit=5000&offset=5000&__after_id=446915748722489"
      }, 
      "data": [
        {
          "category": "Local business", 
          "name": "Wickenburg Country Club", 
          "id": "127031827355020", 
          "category_list": [
            {
              "id": "176059775772759", 
              "name": "Golf Course"
            }
          ], 
          "location": {
            "city": "Wickenburg", 
            "zip": "85390-3501", 
            "country": "United States", 
            "longitude": -112.76030941773, 
            "state": "AZ", 
            "street": "1420 N Country Club Dr", 
            "latitude": 33.975138173265996
          }
        }, 
        {
          "category": "Local business", 
          "name": "Country Club Park", 
          "id": "115295311830347", 
          "category_list": [
            {
              "id": "187004854667366", 
              "name": "Campground"
            }
          ], 
          "location": {
            "city": "Wickenburg", 
            "zip": "85390-3218", 
            "country": "United States", 
            "longitude": -112.768647, 
            "state": "AZ", 
            "street": "1855 W Wickenburg Way", 
            "latitude": 33.962063000000001
          }
        }, 
        {
          "category": "Real estate", 
          "name": "Double M Country Club Condos", 
          "id": "446915748722489", 
          "category_list": [
            {
              "id": "198327773511962", 
              "name": "Real Estate"
            }
          ], 
          "location": {
            "city": "Wickenburg", 
            "zip": "85390", 
            "country": "United States", 
            "longitude": -112.770743, 
            "state": "AZ", 
            "street": "1885 W. Loma Linda Drive", 
            "latitude": 33.964033000000001
          }
        }
      ]
    }
  }, 
  {
    "business_name": "Adventure Bicycle Company", 
    "business_id": "IbtOzy05IJu_X7UYtSONGg", 
    "fb_pages": {
      "paging": {
        "next": "https://graph.facebook.com/search?type=place&access_token=229546593895315|yPLlHqq6YvDLIH4nL0kjJtIFSlU&limit=5000&offset=5000&__after_id=1418860201666519"
      }, 
      "data": [
        {
          "category": "Local business", 
          "name": "Adventure Bicycle Company", 
          "id": "152909231401786", 
          "category_list": [
            {
              "id": "2500", 
              "name": "Local Business"
            }
          ], 
          "location": {
            "city": "Mesa", 
            "zip": "85204", 
            "country": "United States", 
            "longitude": -111.78374941600001, 
            "state": "AZ", 
            "street": "2336 East Baseline Road", 
            "latitude": 33.379351937400003
          }
        }, 
        {
          "category": "Local business", 
          "name": "Lighthorse Bicycle & Adventure Company", 
          "id": "537229196304798", 
          "category_list": [
            {
              "id": "194201147294761", 
              "name": "Mountain"
            }
          ], 
          "location": {
            "city": "Parks", 
            "zip": "86010", 
            "country": "United States", 
            "longitude": -111.959, 
            "state": "AZ", 
            "street": "PO Box 50804", 
            "latitude": 35.291400000000003
          }
        }, 
        {
          "category": "Travel/leisure", 
          "name": "Bhutan Mountain BIKE Adventure", 
          "id": "1418860201666519", 
          "category_list": [
            {
              "id": "189811544396762", 
              "name": "Tour Company"
            }
          ], 
          "location": {
            "city": "Thimphu", 
            "zip": "", 
            "country": "Bhutan", 
            "longitude": 89.599999999999994, 
            "state": "", 
            "street": "Wheels For Hills Bicycle Outlet", 
            "latitude": 27.4833
          }
        }
      ]
    }
  }, 
  {
    "business_name": "Suzie SuChi", 
    "business_id": "7KADJo5rdkV5MWxnWagfZg", 
    "fb_pages": {
      "data": []
    }
  }, 
  {
    "business_name": "Dentistry of Old Town Scottsdale", 
    "business_id": "SNyxwFx8i20SoDlN4dBS4Q", 
    "fb_pages": {
      "data": []
    }
  }, 
  {
    "business_name": "Par Exsalonce", 
    "business_id": "3398Ccw-mUHbzYcIToDi6g", 
    "fb_pages": {
      "paging": {
        "next": "https://graph.facebook.com/search?type=place&access_token=229546593895315|yPLlHqq6YvDLIH4nL0kjJtIFSlU&limit=5000&offset=5000&__after_id=259524097481691"
      }, 
      "data": [
        {
          "category": "Local business", 
          "name": "Par Exsalonce Salon and Day Spa, Scottsdale", 
          "id": "123728077651857", 
          "category_list": [
            {
              "id": "199236533423806", 
              "name": "Beauty Salon"
            }, 
            {
              "id": "145118935550090", 
              "name": "Medical & Health"
            }
          ], 
          "location": {
            "city": "Scottsdale", 
            "zip": "85255", 
            "country": "United States", 
            "longitude": -111.88899209982, 
            "state": "AZ", 
            "street": "20707 N. Pima Rd. ", 
            "latitude": 33.673707848764998
          }
        }, 
        {
          "category": "Spas/beauty/personal care", 
          "name": "Par Exsalonce - Zona Rosa", 
          "id": "111818008500", 
          "category_list": [
            {
              "id": "199236533423806", 
              "name": "Beauty Salon"
            }, 
            {
              "id": "146053955462002", 
              "name": "Esthethics"
            }
          ], 
          "location": {
            "city": "Kansas City", 
            "zip": "64153", 
            "country": "United States", 
            "longitude": -94.664482149478999, 
            "state": "MO", 
            "street": "8675 N. Stoddard Avenue", 
            "latitude": 39.251364821034002
          }
        }, 
        {
          "category": "Local business", 
          "name": "Par Exsalonce", 
          "id": "197137400310246", 
          "category_list": [
            {
              "id": "199236533423806", 
              "name": "Beauty Salon"
            }, 
            {
              "id": "169758603141095", 
              "name": "Barber Shop"
            }, 
            {
              "id": "144873802247220", 
              "name": "Cosmetics & Beauty Supply"
            }
          ], 
          "location": {
            "city": "Overland Park", 
            "zip": "66210", 
            "country": "United States", 
            "longitude": -94.7230157714, 
            "state": "KS", 
            "street": "", 
            "latitude": 38.927014355899999
          }
        }, 
        {
          "category": "Spas/beauty/personal care", 
          "name": "Par Exsalonce - Oak Park Mall", 
          "id": "83560335829", 
          "category_list": [
            {
              "id": "174177802634376", 
              "name": "Hair Salon"
            }, 
            {
              "id": "128905757179140", 
              "name": "Hair Removal"
            }
          ], 
          "location": {
            "city": "Overland Park", 
            "zip": "66212", 
            "country": "United States", 
            "longitude": -94.666514000000006, 
            "state": "KS", 
            "street": "Oak Park Mall", 
            "latitude": 38.853845
          }
        }, 
        {
          "category": "Spas/beauty/personal care", 
          "name": "Par Exsalonce Salon & Day Spa", 
          "id": "167575088786", 
          "category_list": [
            {
              "id": "199236533423806", 
              "name": "Beauty Salon"
            }, 
            {
              "id": "145118935550090", 
              "name": "Medical & Health"
            }
          ], 
          "location": {
            "city": "York", 
            "zip": "17402", 
            "country": "United States", 
            "longitude": -76.681618007599994, 
            "state": "PA", 
            "street": "2300 East Market Street", 
            "latitude": 39.972954422000001
          }
        }, 
        {
          "category": "Spas/beauty/personal care", 
          "name": "Par Exsalonce Cityscape Spa", 
          "id": "228645860623263", 
          "category_list": [
            {
              "id": "205950169432461", 
              "name": "Day Spa"
            }
          ], 
          "location": {
            "city": "Phoenix", 
            "zip": "85003", 
            "country": "United States", 
            "longitude": -112.073999, 
            "state": "AZ", 
            "street": "11 W Washington street", 
            "latitude": 33.448065
          }
        }, 
        {
          "category": "Spas/beauty/personal care", 
          "name": "Nails by Lisa", 
          "id": "259524097481691", 
          "category_list": [
            {
              "id": "139225689474222", 
              "name": "Spa, Beauty & Personal Care"
            }
          ], 
          "location": {
            "city": "Scottsdale", 
            "zip": "", 
            "country": "United States", 
            "longitude": -111.890308, 
            "state": "AZ", 
            "street": "", 
            "latitude": 33.672958999999999
          }
        }
      ]
    }
  }, 
  {
    "business_name": "Subs by Jim", 
    "business_id": "lwgBIboXZ4j9uuZthAvTEw", 
    "fb_pages": {
      "paging": {
        "next": "https://graph.facebook.com/search?type=place&access_token=229546593895315|yPLlHqq6YvDLIH4nL0kjJtIFSlU&limit=5000&offset=5000&__after_id=121357377875171"
      }, 
      "data": [
        {
          "category": "Local business", 
          "name": "Subs by Jim", 
          "id": "113282242028374", 
          "category_list": [
            {
              "id": "273819889375819", 
              "name": "Restaurant"
            }
          ], 
          "location": {
            "city": "Phoenix", 
            "zip": "85018-7527", 
            "country": "United States", 
            "longitude": -111.99406399999999, 
            "state": "AZ", 
            "street": "4041 E Thomas Rd", 
            "latitude": 33.479855000000001
          }
        }, 
        {
          "category": "Restaurant/cafe", 
          "name": "Big Jim's Famous Cheese Steaks, Subs & Cubans", 
          "id": "132861463424443", 
          "category_list": [
            {
              "id": "233804719972590", 
              "name": "Bar & Grill"
            }
          ], 
          "location": {
            "city": "Largo", 
            "zip": "33771", 
            "country": "United States", 
            "longitude": -82.767220703999996, 
            "state": "FL", 
            "street": "9218 Ulmerton Road", 
            "latitude": 27.8941662328
          }
        }, 
        {
          "category": "Local business", 
          "name": "Big Jim's Famous Subs", 
          "id": "171358576220776", 
          "category_list": [
            {
              "id": "180256082015845", 
              "name": "Pizza Place"
            }, 
            {
              "id": "188296324525457", 
              "name": "Sandwich Shop"
            }
          ], 
          "location": {
            "city": "Largo", 
            "zip": "33771", 
            "country": "United States", 
            "longitude": -82.767244267785003, 
            "state": "FL", 
            "street": "9220 Ulmerton Road", 
            "latitude": 27.894109353390999
          }
        }, 
        {
          "category": "Restaurant/cafe", 
          "name": "Jim's Original Subs & Pizza", 
          "id": "180527922091103", 
          "category_list": [
            {
              "id": "180256082015845", 
              "name": "Pizza Place"
            }, 
            {
              "id": "193831710644458", 
              "name": "Italian Restaurant"
            }, 
            {
              "id": "188296324525457", 
              "name": "Sandwich Shop"
            }
          ], 
          "location": {
            "city": "Lawrence", 
            "zip": "01843", 
            "country": "United States", 
            "longitude": -71.156599260194, 
            "state": "MA", 
            "street": "415 S. Broadway", 
            "latitude": 42.686094350379001
          }
        }, 
        {
          "category": "Restaurant/cafe", 
          "name": "Mister Jims Subs", 
          "id": "135840263123686", 
          "category_list": [
            {
              "id": "192108214153222", 
              "name": "Breakfast & Brunch Restaurant"
            }, 
            {
              "id": "188334264523313", 
              "name": "Deli"
            }, 
            {
              "id": "187425207958280", 
              "name": "Burger Restaurant"
            }
          ], 
          "location": {
            "city": "Chesapeake", 
            "zip": "23322", 
            "country": "United States", 
            "longitude": -76.238542955569997, 
            "state": "VA", 
            "street": "346 S. Battlefield Blvd", 
            "latitude": 36.712149911205003
          }
        }, 
        {
          "category": "Local business", 
          "name": "Jimmy's Pizza Pasta & Subs", 
          "id": "108125399229907", 
          "category_list": [
            {
              "id": "180256082015845", 
              "name": "Pizza Place"
            }, 
            {
              "id": "193831710644458", 
              "name": "Italian Restaurant"
            }, 
            {
              "id": "192831537402299", 
              "name": "Family Style Restaurant"
            }
          ], 
          "location": {
            "city": "Midlothian", 
            "zip": "76065-2945", 
            "country": "United States", 
            "longitude": -96.994684461473994, 
            "state": "TX", 
            "street": "202 W Main St", 
            "latitude": 32.482197117395998
          }
        }, 
        {
          "category": "Restaurant/cafe", 
          "name": "Jimmy's Superb Subs", 
          "id": "108914315831510", 
          "category_list": [
            {
              "id": "188296324525457", 
              "name": "Sandwich Shop"
            }, 
            {
              "id": "192831537402299", 
              "name": "Family Style Restaurant"
            }
          ], 
          "location": {
            "city": "Elk Grove", 
            "zip": "95758", 
            "country": "United States", 
            "longitude": -121.37053612602, 
            "state": "CA", 
            "street": "8259 Laguna Boulevard", 
            "latitude": 38.464936280871001
          }
        }, 
        {
          "category": "Local business", 
          "name": "Jimmy's Subs", 
          "id": "377790352236482", 
          "category_list": [
            {
              "id": "188296324525457", 
              "name": "Sandwich Shop"
            }
          ], 
          "location": {
            "city": "Chelmsford", 
            "zip": "01824", 
            "country": "United States", 
            "longitude": -71.346753246999995, 
            "state": "MA", 
            "street": "", 
            "latitude": 42.602275994999999
          }
        }, 
        {
          "category": "Local business", 
          "name": "Popa Jim's Pizza & Subs", 
          "id": "512055388806509", 
          "category_list": [
            {
              "id": "2500", 
              "name": "Local Business"
            }
          ], 
          "location": {
            "city": "Big Pine Key", 
            "zip": "", 
            "country": "United States", 
            "longitude": -81.357980999999995, 
            "state": "FL", 
            "street": "30348 Overseas Hwy", 
            "latitude": 24.669523000000002
          }
        }, 
        {
          "category": "Local business", 
          "name": "Tommys Subs", 
          "id": "146069272104776", 
          "category_list": [
            {
              "id": "273819889375819", 
              "name": "Restaurant"
            }
          ], 
          "location": {
            "city": "Jim Thorpe", 
            "zip": "18229", 
            "country": "United States", 
            "longitude": -75.739219000000006, 
            "state": "PA", 
            "street": "4 North Ave", 
            "latitude": 40.867849
          }
        }, 
        {
          "category": "Local business", 
          "name": "Jimmys Pizza & Subs", 
          "id": "113599495339671", 
          "category_list": [
            {
              "id": "180256082015845", 
              "name": "Pizza Place"
            }, 
            {
              "id": "188296324525457", 
              "name": "Sandwich Shop"
            }
          ], 
          "location": {
            "city": "Suffolk", 
            "zip": "23432-1117", 
            "country": "United States", 
            "longitude": -76.580036000000007, 
            "state": "VA", 
            "street": "108 Kings Hwy", 
            "latitude": 36.861691999999998
          }
        }, 
        {
          "category": "Local business", 
          "name": "Jimmy John's Gourmet Subs", 
          "id": "190696770982581", 
          "category_list": [
            {
              "id": "188296324525457", 
              "name": "Sandwich Shop"
            }
          ], 
          "location": {
            "city": "Sheridan", 
            "zip": "82801", 
            "country": "United States", 
            "longitude": -106.944206411, 
            "state": "WY", 
            "street": "", 
            "latitude": 44.774096785700003
          }
        }, 
        {
          "category": "Local business", 
          "name": "Big Jim's Coneys & Subs", 
          "id": "115590528501964", 
          "category_list": [
            {
              "id": "273819889375819", 
              "name": "Restaurant"
            }, 
            {
              "id": "200600219953504", 
              "name": "Shopping & Retail"
            }
          ], 
          "location": {
            "city": "Springfield", 
            "zip": "45503-3420", 
            "country": "United States", 
            "longitude": -83.778592857199996, 
            "state": "OH", 
            "street": "1928 Mitchell Blvd", 
            "latitude": 39.940682382699997
          }
        }, 
        {
          "category": "Restaurant/cafe", 
          "name": "Jimmy's Subs and Grill", 
          "id": "150274631681165", 
          "category_list": [
            {
              "id": "273819889375819", 
              "name": "Restaurant"
            }
          ], 
          "location": {
            "city": "Quincy", 
            "zip": "32351-2128", 
            "country": "United States", 
            "longitude": -84.593192999999999, 
            "state": "FL", 
            "street": "1310 W Jefferson St", 
            "latitude": 30.588166999999999
          }
        }, 
        {
          "category": "Restaurant/cafe", 
          "name": "Jimmy's Subs (una Adiccion Saludable)", 
          "id": "144386905664108", 
          "category_list": [
            {
              "id": "200742186618963", 
              "name": "Vegetarian & Vegan Restaurant"
            }, 
            {
              "id": "193831710644458", 
              "name": "Italian Restaurant"
            }, 
            {
              "id": "171485526232801", 
              "name": "Spanish Restaurant"
            }
          ], 
          "location": {
            "city": "Mexico City", 
            "zip": "07800", 
            "country": "Mexico", 
            "longitude": -99.128805263399997, 
            "state": "", 
            "street": "colonia industrial. calle : fundidora de monterrey #100 esq. con fama . cerca de el metro potrero. ", 
            "latitude": 19.473077570800001
          }
        }, 
        {
          "category": "Local business", 
          "name": "Jimmy's Pizza & Subs", 
          "id": "116300975064224", 
          "category_list": [
            {
              "id": "180256082015845", 
              "name": "Pizza Place"
            }
          ], 
          "location": {
            "city": "Worcester", 
            "zip": "01606-3038", 
            "country": "United States", 
            "longitude": -71.792997, 
            "state": "MA", 
            "street": "9 E Mountain St", 
            "latitude": 42.323841999999999
          }
        }, 
        {
          "category": "Local business", 
          "name": "Jimmys Pizza & Subs", 
          "id": "120789217936095", 
          "category_list": [
            {
              "id": "180256082015845", 
              "name": "Pizza Place"
            }
          ], 
          "location": {
            "city": "Medford", 
            "zip": "02155-6735", 
            "country": "United States", 
            "longitude": -71.134152, 
            "state": "MA", 
            "street": "509 High St", 
            "latitude": 42.421537999999998
          }
        }, 
        {
          "category": "Local business", 
          "name": "Jimmy's Pizza & Subs", 
          "id": "116618078362818", 
          "category_list": [
            {
              "id": "180256082015845", 
              "name": "Pizza Place"
            }
          ], 
          "location": {
            "city": "Smithfield", 
            "zip": "23430-3724", 
            "country": "United States", 
            "longitude": -76.674987999999999, 
            "state": "VA", 
            "street": "6143 Old Stage Hwy", 
            "latitude": 37.057231999999999
          }
        }, 
        {
          "category": "Local business", 
          "name": "Jimmy's Pizza Pasta & Subs", 
          "id": "111609405544690", 
          "category_list": [
            {
              "id": "193831710644458", 
              "name": "Italian Restaurant"
            }, 
            {
              "id": "180256082015845", 
              "name": "Pizza Place"
            }
          ], 
          "location": {
            "city": "Duncanville", 
            "zip": "75116-4582", 
            "country": "United States", 
            "longitude": -96.926472000000004, 
            "state": "TX", 
            "street": "111 S Cedar Ridge Dr Ste 133", 
            "latitude": 32.65081
          }
        }, 
        {
          "category": "Food/grocery", 
          "name": "Mr.Sub, Jim and Angie Mamais", 
          "id": "317253414974505", 
          "category_list": [
            {
              "id": "150108431712141", 
              "name": "Food & Grocery"
            }
          ], 
          "location": {
            "city": "Regina", 
            "zip": "S4N 6E1", 
            "country": "Canada", 
            "longitude": -104.582703482, 
            "state": "SK", 
            "street": "440 McDonald St, 4838 Dewdney and Royal", 
            "latitude": 50.472457912099998
          }
        }, 
        {
          "category": "Local business", 
          "name": "Jimmys Pizza Pasta & Subs", 
          "id": "108099389232320", 
          "category_list": [
            {
              "id": "180256082015845", 
              "name": "Pizza Place"
            }, 
            {
              "id": "193831710644458", 
              "name": "Italian Restaurant"
            }
          ], 
          "location": {
            "city": "Ennis", 
            "zip": "75119", 
            "country": "United States", 
            "longitude": -96.626660999999999, 
            "state": "TX", 
            "street": "110 E Ennis Ave", 
            "latitude": 32.328221999999997
          }
        }, 
        {
          "category": "Local business", 
          "name": "Jimmy Johns Goumet Subs", 
          "id": "167050763308570", 
          "category_list": [
            {
              "id": "188296324525457", 
              "name": "Sandwich Shop"
            }
          ], 
          "location": {
            "city": "Dixon", 
            "zip": "61021-3032", 
            "country": "United States", 
            "longitude": -89.484582000000003, 
            "state": "IL", 
            "street": "207 W 2nd St", 
            "latitude": 41.842334999999999
          }
        }, 
        {
          "category": "Local business", 
          "name": "Jimmy John's Subs", 
          "id": "173259262691522", 
          "category_list": [
            {
              "id": "188296324525457", 
              "name": "Sandwich Shop"
            }, 
            {
              "id": "150108431712141", 
              "name": "Food & Grocery"
            }
          ], 
          "location": {
            "city": "Houston", 
            "zip": "77401", 
            "country": "United States", 
            "longitude": -95.468625967400001, 
            "state": "TX", 
            "street": "", 
            "latitude": 29.707472086900001
          }
        }, 
        {
          "category": "Local business", 
          "name": "Captain Jimmy's Subs & Grill", 
          "id": "120894947923197", 
          "category_list": [
            {
              "id": "150534008338515", 
              "name": "Barbecue Restaurant"
            }
          ], 
          "location": {
            "city": "Medley", 
            "zip": "33178-1174", 
            "country": "United States", 
            "longitude": -80.359837884962005, 
            "state": "FL", 
            "street": "9960 NW 116th Way Ste 1", 
            "latitude": 25.875196756114001
          }
        }, 
        {
          "category": "Local business", 
          "name": "Jim's Sub Shop & Restaurant", 
          "id": "130623506968986", 
          "category_list": [
            {
              "id": "188296324525457", 
              "name": "Sandwich Shop"
            }
          ], 
          "location": {
            "city": "Kingsville", 
            "zip": "N9Y1A2", 
            "country": "Canada", 
            "longitude": -82.738821448099998, 
            "state": "ON", 
            "street": "20 Main St E", 
            "latitude": 42.0379618236
          }
        }, 
        {
          "category": "Local business", 
          "name": "Little Jimmys Pizza & Sub", 
          "id": "337576746365207", 
          "category_list": [
            {
              "id": "167954166588517", 
              "name": "Diner"
            }
          ], 
          "location": {
            "city": "Newport News", 
            "zip": "23605", 
            "country": "United States", 
            "longitude": -76.441050438600001, 
            "state": "VA", 
            "street": "Newmarket Dr N", 
            "latitude": 37.020143928400003
          }
        }, 
        {
          "category": "Local business", 
          "name": "Jimmy John's Sub Shop", 
          "id": "115945385101269", 
          "category_list": [
            {
              "id": "188296324525457", 
              "name": "Sandwich Shop"
            }
          ], 
          "location": {
            "city": "Hudsonville", 
            "zip": "49426-8800", 
            "country": "United States", 
            "longitude": -85.851631999999995, 
            "state": "MI", 
            "street": "6490 28th Ave", 
            "latitude": 42.887265999999997
          }
        }, 
        {
          "category": "Local business", 
          "name": "Jimmies Pizza & Sub", 
          "id": "116316345060245", 
          "category_list": [
            {
              "id": "180256082015845", 
              "name": "Pizza Place"
            }
          ], 
          "location": {
            "city": "McConnellsburg", 
            "zip": "17233-1507", 
            "country": "United States", 
            "longitude": -77.990368000000004, 
            "state": "PA", 
            "street": "717 Lincoln Way E", 
            "latitude": 39.929476999999999
          }
        }, 
        {
          "category": "Local business", 
          "name": "Jimmy John's Sub Shop", 
          "id": "111685492204005", 
          "category_list": [
            {
              "id": "188296324525457", 
              "name": "Sandwich Shop"
            }
          ], 
          "location": {
            "city": "Fairview Heights", 
            "zip": "62208-3454", 
            "country": "United States", 
            "longitude": -89.984350130600006, 
            "state": "IL", 
            "street": "5200 N Illinois St Ste 106", 
            "latitude": 38.579277784600002
          }
        }, 
        {
          "category": "Local business", 
          "name": "Jimmy John Sub Shop", 
          "id": "121357377875171", 
          "category_list": [
            {
              "id": "188296324525457", 
              "name": "Sandwich Shop"
            }
          ], 
          "location": {
            "city": "Bay City", 
            "zip": "48708-5717", 
            "country": "United States", 
            "longitude": -83.887909022000002, 
            "state": "MI", 
            "street": "719 Washington Ave", 
            "latitude": 43.5978201279
          }
        }
      ]
    }
  }, 
  {
    "business_name": "Char's Has the Blues", 
    "business_id": "ybXlbfOjrKDdz5NoC-G9Gw", 
    "fb_pages": {
      "paging": {
        "next": "https://graph.facebook.com/search?type=place&access_token=229546593895315|yPLlHqq6YvDLIH4nL0kjJtIFSlU&limit=5000&offset=5000&__after_id=127669747282910"
      }, 
      "data": [
        {
          "category": "Bar", 
          "name": "Char's Has The Blues", 
          "id": "127669747282910", 
          "category_list": [
            {
              "id": "133436743388217", 
              "name": "Arts & Entertainment"
            }, 
            {
              "id": "110290705711626", 
              "name": "Bar"
            }
          ], 
          "location": {
            "city": "Phoenix", 
            "zip": "85013", 
            "country": "United States", 
            "longitude": -112.08217462172, 
            "state": "AZ", 
            "street": "4631 N. 7th Avenue", 
            "latitude": 33.504970715205999
          }
        }
      ]
    }
  }, 
  {
    "business_name": "Bonnie's Barkery", 
    "business_id": "JW1M3UOIopAA4C2y0Xt0wQ", 
    "fb_pages": {
      "paging": {
        "next": "https://graph.facebook.com/search?type=place&access_token=229546593895315|yPLlHqq6YvDLIH4nL0kjJtIFSlU&limit=5000&offset=5000&__after_id=288900083321"
      }, 
      "data": [
        {
          "category": "Pet services", 
          "name": "Bonnie's Barkery", 
          "id": "288900083321", 
          "category_list": [
            {
              "id": "188573091164316", 
              "name": "Pet Store"
            }
          ], 
          "location": {
            "city": "Cave Creek", 
            "zip": "85331", 
            "country": "United States", 
            "longitude": -111.992771, 
            "state": "AZ", 
            "street": "29455 N Cave Creek Rd #108", 
            "latitude": 33.751764999999999
          }
        }
      ]
    }
  }, 
  {
    "business_name": "Days Inn-Phoenix Airport", 
    "business_id": "4_W9x0O-lFBg8yZF4DjUvQ", 
    "fb_pages": {
      "paging": {
        "next": "https://graph.facebook.com/search?type=place&access_token=229546593895315|yPLlHqq6YvDLIH4nL0kjJtIFSlU&limit=5000&offset=5000&__after_id=289597467838871"
      }, 
      "data": [
        {
          "category": "Local business", 
          "name": "Days Inn Airport", 
          "id": "129045487175993", 
          "category_list": [
            {
              "id": "164243073639257", 
              "name": "Hotel"
            }, 
            {
              "id": "128966563840349", 
              "name": "Airport"
            }
          ], 
          "location": {
            "city": "Phoenix", 
            "zip": "85008", 
            "country": "United States", 
            "longitude": -112.018511328, 
            "state": "AZ", 
            "street": "", 
            "latitude": 33.451745837799997
          }
        }, 
        {
          "category": "Hotel", 
          "name": "Days Inn Atlanta Airport South", 
          "id": "289597467838871", 
          "category_list": [
            {
              "id": "164243073639257", 
              "name": "Hotel"
            }
          ], 
          "location": {
            "city": "College Park", 
            "zip": "30349", 
            "country": "United States", 
            "longitude": -84.439323000000002, 
            "state": "GA", 
            "street": "1540 Phoenix Blvd", 
            "latitude": 33.614094000000001
          }
        }
      ]
    }
  }, 
  {
    "business_name": "Native New Yorker", 
    "business_id": "lNagDCZhArcztrgkYnP7Nw", 
    "fb_pages": {
      "paging": {
        "next": "https://graph.facebook.com/search?type=place&access_token=229546593895315|yPLlHqq6YvDLIH4nL0kjJtIFSlU&limit=5000&offset=5000&__after_id=116387665131883"
      }, 
      "data": [
        {
          "category": "Restaurant/cafe", 
          "name": "Native New Yorker-Glendale", 
          "id": "110661752297907", 
          "category_list": [
            {
              "id": "188296324525457", 
              "name": "Sandwich Shop"
            }, 
            {
              "id": "180256082015845", 
              "name": "Pizza Place"
            }, 
            {
              "id": "110107385737667", 
              "name": "New American Restaurant"
            }
          ], 
          "location": {
            "city": "Glendale", 
            "zip": "85305", 
            "country": "United States", 
            "longitude": -112.26331298808999, 
            "state": "AZ", 
            "street": "7273 N 95th Ave", 
            "latitude": 33.540633084329997
          }
        }, 
        {
          "category": "Restaurant/cafe", 
          "name": "Native New Yorker", 
          "id": "421384757901599", 
          "category_list": [
            {
              "id": "273819889375819", 
              "name": "Restaurant"
            }
          ], 
          "location": {
            "city": "Queen Creek", 
            "zip": "85142", 
            "country": "United States", 
            "longitude": -111.58340741457999, 
            "state": "AZ", 
            "street": "1750 West Hunt Highway", 
            "latitude": 33.180840139456002
          }
        }, 
        {
          "category": "Restaurant/cafe", 
          "name": "Native New Yorker Gilbert Germann", 
          "id": "158534870857394", 
          "category_list": [
            {
              "id": "110107385737667", 
              "name": "New American Restaurant"
            }, 
            {
              "id": "188296324525457", 
              "name": "Sandwich Shop"
            }, 
            {
              "id": "187425207958280", 
              "name": "Burger Restaurant"
            }
          ], 
          "location": {
            "city": "Chandler", 
            "zip": "85286", 
            "country": "United States", 
            "longitude": -111.79026773541, 
            "state": "AZ", 
            "street": "2110 S Gilbert Rd", 
            "latitude": 33.276245666290997
          }
        }, 
        {
          "category": "Restaurant/cafe", 
          "name": "Native New Yorker (Gilbert & 60 Fwy)", 
          "id": "103650113014272", 
          "category_list": [
            {
              "id": "197767133603296", 
              "name": "Chicken Wings"
            }, 
            {
              "id": "180256082015845", 
              "name": "Pizza Place"
            }, 
            {
              "id": "188296324525457", 
              "name": "Sandwich Shop"
            }
          ], 
          "location": {
            "city": "Mesa", 
            "zip": "85204-6007", 
            "country": "United States", 
            "longitude": -111.78666337004, 
            "state": "AZ", 
            "street": "1559 S Gilbert Road", 
            "latitude": 33.387904335671003
          }
        }, 
        {
          "category": "Restaurant/cafe", 
          "name": "Native New Yorker Signal Butte and Baseline", 
          "id": "129562027068757", 
          "category_list": [
            {
              "id": "184460441595855", 
              "name": "Sports Bar"
            }, 
            {
              "id": "187425207958280", 
              "name": "Burger Restaurant"
            }, 
            {
              "id": "180256082015845", 
              "name": "Pizza Place"
            }
          ], 
          "location": {
            "city": "Mesa", 
            "zip": "85209", 
            "country": "United States", 
            "longitude": -111.59892880901999, 
            "state": "AZ", 
            "street": "1947 S. Signal Butte", 
            "latitude": 33.379592742253998
          }
        }, 
        {
          "category": "Local business", 
          "name": "Native New Yorker Laveen", 
          "id": "198509120195809", 
          "category_list": [
            {
              "id": "273819889375819", 
              "name": "Restaurant"
            }
          ], 
          "location": {
            "city": "Laveen", 
            "zip": "85339", 
            "country": "United States", 
            "longitude": -112.16669802926999, 
            "state": "AZ", 
            "street": "5020 W Baseline Rd Ste 123", 
            "latitude": 33.378934567748999
          }
        }, 
        {
          "category": "Local business", 
          "name": "Native New Yorker (Dobson/Guadalupe)", 
          "id": "157611470921280", 
          "category_list": [
            {
              "id": "192831537402299", 
              "name": "Family Style Restaurant"
            }
          ], 
          "location": {
            "city": "Mesa", 
            "zip": "85202", 
            "country": "United States", 
            "longitude": -111.87392372009, 
            "state": "AZ", 
            "street": "1837 W. Guadalupe", 
            "latitude": 33.363766716293
          }
        }, 
        {
          "category": "Local business", 
          "name": "Native New Yorker", 
          "id": "193040280725983", 
          "category_list": [
            {
              "id": "197767133603296", 
              "name": "Chicken Wings"
            }
          ], 
          "location": {
            "city": "Avondale", 
            "zip": "85392", 
            "country": "United States", 
            "longitude": -112.28012399092, 
            "state": "AZ", 
            "street": "", 
            "latitude": 33.465982105164997
          }
        }, 
        {
          "category": "Restaurant/cafe", 
          "name": "Native New Yorker - Ray Rd. Ahwatukee", 
          "id": "129869133727759", 
          "category_list": [
            {
              "id": "192831537402299", 
              "name": "Family Style Restaurant"
            }
          ], 
          "location": {
            "city": "Phoenix", 
            "zip": "85044", 
            "country": "United States", 
            "longitude": -111.97568158489, 
            "state": "AZ", 
            "street": "5030 E. Ray Rd. ", 
            "latitude": 33.321718739212997
          }
        }, 
        {
          "category": "Restaurant/cafe", 
          "name": "Native New Yorker Tucson", 
          "id": "122172084495849", 
          "category_list": [
            {
              "id": "273819889375819", 
              "name": "Restaurant"
            }
          ], 
          "location": {
            "city": "Marana", 
            "zip": "85743", 
            "country": "United States", 
            "longitude": -111.09521405528, 
            "state": "AZ", 
            "street": "8225 N Courtney Page Way #115", 
            "latitude": 32.356130471199997
          }
        }, 
        {
          "category": "Restaurant/cafe", 
          "name": "Native New Yorker Power & Ray", 
          "id": "140165622663516", 
          "category_list": [
            {
              "id": "192831537402299", 
              "name": "Family Style Restaurant"
            }, 
            {
              "id": "193831710644458", 
              "name": "Italian Restaurant"
            }, 
            {
              "id": "188296324525457", 
              "name": "Sandwich Shop"
            }
          ], 
          "location": {
            "city": "Gilbert", 
            "zip": "85234", 
            "country": "United States", 
            "longitude": -111.68747917944999, 
            "state": "AZ", 
            "street": "4972 S Power", 
            "latitude": 33.325986427459
          }
        }, 
        {
          "category": "Restaurant/cafe", 
          "name": "Native New Yorker Flagstaff", 
          "id": "319041474828533", 
          "category_list": [
            {
              "id": "233804719972590", 
              "name": "Bar & Grill"
            }, 
            {
              "id": "197767133603296", 
              "name": "Chicken Wings"
            }, 
            {
              "id": "188296324525457", 
              "name": "Sandwich Shop"
            }
          ], 
          "location": {
            "city": "Flagstaff", 
            "zip": "86001", 
            "country": "United States", 
            "longitude": -111.66091468992001, 
            "state": "AZ", 
            "street": "1900 S Milton Rd", 
            "latitude": 35.181010021817002
          }
        }, 
        {
          "category": "Restaurant/cafe", 
          "name": "Tempe Native New Yorker", 
          "id": "344174719263", 
          "category_list": [
            {
              "id": "192831537402299", 
              "name": "Family Style Restaurant"
            }
          ], 
          "location": {
            "city": "Tempe", 
            "zip": "85282", 
            "country": "United States", 
            "longitude": -111.91728184446001, 
            "state": "AZ", 
            "street": "1301 East Broadway Rd", 
            "latitude": 33.407327134890998
          }
        }, 
        {
          "category": "Restaurant/cafe", 
          "name": "Native New Yorker Maricopa", 
          "id": "108504389205704", 
          "category_list": [
            {
              "id": "149803325077018", 
              "name": "American Restaurant"
            }, 
            {
              "id": "188296324525457", 
              "name": "Sandwich Shop"
            }, 
            {
              "id": "187425207958280", 
              "name": "Burger Restaurant"
            }
          ], 
          "location": {
            "city": "Maricopa", 
            "zip": "85239", 
            "country": "United States", 
            "longitude": -112.04619654442, 
            "state": "AZ", 
            "street": "21164 North John Wayne Parkway", 
            "latitude": 33.072165796900002
          }
        }, 
        {
          "category": "Restaurant/cafe", 
          "name": "Native New Yorker Bell Road", 
          "id": "118117118204271", 
          "category_list": [
            {
              "id": "273819889375819", 
              "name": "Restaurant"
            }
          ], 
          "location": {
            "city": "Phoenix", 
            "zip": "85053-3063", 
            "country": "United States", 
            "longitude": -112.11911875430999, 
            "state": "AZ", 
            "street": "2740 W Bell Rd", 
            "latitude": 33.640362485795997
          }
        }, 
        {
          "category": "Restaurant/cafe", 
          "name": "Native New Yorker Tucson - Speedway", 
          "id": "422319987805652", 
          "category_list": [
            {
              "id": "273819889375819", 
              "name": "Restaurant"
            }
          ], 
          "location": {
            "city": "Tucson", 
            "zip": "85716", 
            "country": "United States", 
            "longitude": -110.92660531206, 
            "state": "AZ", 
            "street": "3100 East Speedway Blvd", 
            "latitude": 32.235918748271999
          }
        }, 
        {
          "category": "Restaurant/cafe", 
          "name": "Native New Yorker Casa Grande", 
          "id": "434488026593171", 
          "category_list": [
            {
              "id": "273819889375819", 
              "name": "Restaurant"
            }
          ], 
          "location": {
            "city": "Casa Grande", 
            "zip": "85122", 
            "country": "United States", 
            "longitude": -111.75756074731, 
            "state": "AZ", 
            "street": "665 North Pinal Ave", 
            "latitude": 32.879102843059002
          }
        }, 
        {
          "category": "Restaurant/cafe", 
          "name": "Native New Yorker Queen Creek and Alma School", 
          "id": "133080140042964", 
          "category_list": [
            {
              "id": "192831537402299", 
              "name": "Family Style Restaurant"
            }
          ], 
          "location": {
            "city": "Chandler", 
            "zip": "85286", 
            "country": "United States", 
            "longitude": -111.8579786836, 
            "state": "AZ", 
            "street": "2885 S. Alma School Road", 
            "latitude": 33.264084201072002
          }
        }, 
        {
          "category": "Restaurant/cafe", 
          "name": "Native New Yorker Show Low", 
          "id": "173233362725950", 
          "category_list": [
            {
              "id": "192831537402299", 
              "name": "Family Style Restaurant"
            }, 
            {
              "id": "133436743388217", 
              "name": "Arts & Entertainment"
            }
          ], 
          "location": {
            "city": "Show Low", 
            "zip": "85901", 
            "country": "United States", 
            "longitude": -110.04702782421001, 
            "state": "AZ", 
            "street": "391 Deuce of Clubs #A", 
            "latitude": 34.247498714453997
          }
        }, 
        {
          "category": "Restaurant/cafe", 
          "name": "Native New Yorker Arrowhead", 
          "id": "369191533168346", 
          "category_list": [
            {
              "id": "273819889375819", 
              "name": "Restaurant"
            }
          ], 
          "location": {
            "city": "Glendale", 
            "zip": "85308", 
            "country": "United States", 
            "longitude": -112.21658590139999, 
            "state": "AZ", 
            "street": "7322 West Bell Road", 
            "latitude": 33.638649982242001
          }
        }, 
        {
          "category": "Restaurant/cafe", 
          "name": "Native New Yorker Buckeye", 
          "id": "523655644316697", 
          "category_list": [
            {
              "id": "273819889375819", 
              "name": "Restaurant"
            }
          ], 
          "location": {
            "city": "Buckeye", 
            "zip": "85326", 
            "country": "United States", 
            "longitude": -112.55489169882, 
            "state": "AZ", 
            "street": "457 South Watson Road", 
            "latitude": 33.442963622793002
          }
        }, 
        {
          "category": "Restaurant/cafe", 
          "name": "Native New Yorker Ahwatukee Foothills", 
          "id": "192361230817300", 
          "category_list": [
            {
              "id": "188296324525457", 
              "name": "Sandwich Shop"
            }, 
            {
              "id": "180256082015845", 
              "name": "Pizza Place"
            }, 
            {
              "id": "149803325077018", 
              "name": "American Restaurant"
            }
          ], 
          "location": {
            "city": "Phoenix", 
            "zip": "85048-6275", 
            "country": "United States", 
            "longitude": -112.05417141123, 
            "state": "AZ", 
            "street": "1339 E Chandler Blvd", 
            "latitude": 33.304321938586
          }
        }, 
        {
          "category": "Restaurant/cafe", 
          "name": "Native New Yorker I17 & Dunlap", 
          "id": "548236458520042", 
          "category_list": [
            {
              "id": "273819889375819", 
              "name": "Restaurant"
            }
          ], 
          "location": {
            "city": "Phoenix", 
            "zip": "85021", 
            "country": "United States", 
            "longitude": -112.11626453843, 
            "state": "AZ", 
            "street": "10004 North 26th Drive", 
            "latitude": 33.576946496768997
          }
        }, 
        {
          "category": "Restaurant/cafe", 
          "name": "Native New Yorker Highlands Ranch", 
          "id": "214364958702568", 
          "category_list": [
            {
              "id": "273819889375819", 
              "name": "Restaurant"
            }
          ], 
          "location": {
            "city": "Highlands Ranch", 
            "zip": "80129", 
            "country": "United States", 
            "longitude": -104.98750450806, 
            "state": "CO", 
            "street": "35 West Springer Drive", 
            "latitude": 39.561091146137002
          }
        }, 
        {
          "category": "Local business", 
          "name": "Native New Yorker", 
          "id": "100138380081265", 
          "category_list": [
            {
              "id": "273819889375819", 
              "name": "Restaurant"
            }
          ], 
          "location": {
            "latitude": 33.153410166699999, 
            "street": "", 
            "zip": "", 
            "longitude": -111.556139942
          }
        }, 
        {
          "category": "Local business", 
          "name": "Native New Yorker", 
          "id": "208432199221494", 
          "category_list": [
            {
              "id": "273819889375819", 
              "name": "Restaurant"
            }
          ], 
          "location": {
            "latitude": 47.0322067898, 
            "street": "", 
            "zip": "98503", 
            "longitude": -122.76187776099999
          }
        }, 
        {
          "category": "Local business", 
          "name": "Native New Yorker", 
          "id": "115796931848204", 
          "category_list": [
            {
              "id": "273819889375819", 
              "name": "Restaurant"
            }
          ], 
          "location": {
            "city": "Goodyear", 
            "zip": "85338", 
            "country": "United States", 
            "longitude": -112.403710492, 
            "state": "AZ", 
            "street": "", 
            "latitude": 33.441332973800002
          }
        }, 
        {
          "category": "Local business", 
          "name": "The Native New Yorker", 
          "id": "230490207060884", 
          "category_list": [
            {
              "id": "273819889375819", 
              "name": "Restaurant"
            }
          ], 
          "location": {
            "city": "Lacey", 
            "zip": "98503", 
            "country": "United States", 
            "longitude": -122.826383181, 
            "state": "WA", 
            "street": "", 
            "latitude": 47.0374104984
          }
        }, 
        {
          "category": "Local business", 
          "name": "Native New Yorker", 
          "id": "170214119691556", 
          "category_list": [
            {
              "id": "192831537402299", 
              "name": "Family Style Restaurant"
            }
          ], 
          "location": {
            "city": "Phoenix", 
            "zip": "", 
            "country": "United States", 
            "longitude": -112.07162682400001, 
            "state": "AZ", 
            "street": "", 
            "latitude": 33.509293150700003
          }
        }, 
        {
          "category": "Local business", 
          "name": "Native New Yorker", 
          "id": "154135474640004", 
          "category_list": [
            {
              "id": "192831537402299", 
              "name": "Family Style Restaurant"
            }
          ], 
          "location": {
            "city": "Queen Creek", 
            "zip": "85142", 
            "country": "United States", 
            "longitude": -111.644985074, 
            "state": "AZ", 
            "street": "", 
            "latitude": 33.2426465323
          }
        }, 
        {
          "category": "Local business", 
          "name": "Native New Yorker", 
          "id": "121124437956441", 
          "category_list": [
            {
              "id": "192831537402299", 
              "name": "Family Style Restaurant"
            }
          ], 
          "location": {
            "city": "Chandler", 
            "zip": "85249", 
            "country": "United States", 
            "longitude": -111.86708977399999, 
            "state": "AZ", 
            "street": "", 
            "latitude": 33.395637035599997
          }
        }, 
        {
          "category": "Local business", 
          "name": "Native New Yorker", 
          "id": "443487119066059", 
          "category_list": [
            {
              "id": "233804719972590", 
              "name": "Bar & Grill"
            }
          ], 
          "location": {
            "city": "Maricopa", 
            "zip": "852MX", 
            "country": "United States", 
            "longitude": -111.99817422, 
            "state": "AZ", 
            "street": "Maricopa Rd", 
            "latitude": 33.190833759999997
          }
        }, 
        {
          "category": "Local business", 
          "name": "Native New Yorker", 
          "id": "105596226197104", 
          "category_list": [
            {
              "id": "273819889375819", 
              "name": "Restaurant"
            }
          ], 
          "location": {
            "city": "New River", 
            "zip": "85086", 
            "country": "United States", 
            "longitude": -112.145939, 
            "state": "AZ", 
            "street": "", 
            "latitude": 33.863779999999998
          }
        }, 
        {
          "category": "Local business", 
          "name": "Native New Yorker", 
          "id": "111692355536368", 
          "category_list": [
            {
              "id": "180256082015845", 
              "name": "Pizza Place"
            }
          ], 
          "location": {
            "city": "Scottsdale", 
            "zip": "85258-5402", 
            "country": "United States", 
            "longitude": -111.88621500000001, 
            "state": "AZ", 
            "street": "9030 E Via Linda", 
            "latitude": 33.569710000000001
          }
        }, 
        {
          "category": "Local business", 
          "name": "Native New Yorker", 
          "id": "133880430008389", 
          "category_list": [
            {
              "id": "273819889375819", 
              "name": "Restaurant"
            }
          ], 
          "location": {
            "city": "Buckeye", 
            "zip": "", 
            "country": "United States", 
            "longitude": -112.57091356700001, 
            "state": "AZ", 
            "street": "", 
            "latitude": 33.374710083300002
          }
        }, 
        {
          "category": "Local business", 
          "name": "Native New Yorker", 
          "id": "202584743150991", 
          "category_list": [
            {
              "id": "2500", 
              "name": "Local Business"
            }
          ], 
          "location": {
            "city": "Surprise", 
            "zip": "85374", 
            "country": "United States", 
            "longitude": -112.3953509, 
            "state": "AZ", 
            "street": "", 
            "latitude": 33.632617799999998
          }
        }, 
        {
          "category": "Local business", 
          "name": "Native New Yorker", 
          "id": "217766001620772", 
          "category_list": [
            {
              "id": "273819889375819", 
              "name": "Restaurant"
            }
          ], 
          "location": {
            "city": "Avondale", 
            "zip": "85323", 
            "country": "United States", 
            "longitude": -112.323770868, 
            "state": "AZ", 
            "street": "", 
            "latitude": 33.4619689122
          }
        }, 
        {
          "category": "Local business", 
          "name": "Native New Yorker", 
          "id": "158889727492389", 
          "category_list": [
            {
              "id": "192831537402299", 
              "name": "Family Style Restaurant"
            }
          ], 
          "location": {
            "city": "Phoenix", 
            "zip": "85035", 
            "country": "United States", 
            "longitude": -112.20331998499999, 
            "state": "AZ", 
            "street": "", 
            "latitude": 33.464769970100001
          }
        }, 
        {
          "category": "Local business", 
          "name": "Native New Yorker on 51st & Baseline", 
          "id": "223983530970058", 
          "category_list": [
            {
              "id": "2500", 
              "name": "Local Business"
            }
          ], 
          "location": {
            "city": "Phoenix", 
            "zip": "85041", 
            "country": "United States", 
            "longitude": -112.104908968, 
            "state": "AZ", 
            "street": "", 
            "latitude": 33.3889960371
          }
        }, 
        {
          "category": "Tours/sightseeing", 
          "name": "Native New Yorker Sightseeing Tours", 
          "id": "242222302536316", 
          "category_list": [
            {
              "id": "124861974254366", 
              "name": "Tours & Sightseeing"
            }
          ], 
          "location": {
            "city": "New York", 
            "zip": "10035", 
            "country": "United States", 
            "longitude": -73.940337999999997, 
            "state": "NY", 
            "street": "1976 Madison Ave ", 
            "latitude": 40.806705000000001
          }
        }, 
        {
          "category": "Local business", 
          "name": "Az 49Er Empire Sundays At Native New Yorker", 
          "id": "116387665131883", 
          "category_list": [
            {
              "id": "2500", 
              "name": "Local Business"
            }
          ], 
          "location": {
            "city": "Phoenix", 
            "zip": "85044", 
            "country": "United States", 
            "longitude": -111.97569625200001, 
            "state": "AZ", 
            "street": "", 
            "latitude": 33.321767230500001
          }
        }
      ]
    }
  }
]