[
  {
    "business_name": "Hogi Yogi", 
    "business_id": "1q3_gaDp_rIASuCFK_NVGg", 
    "fb_pages": {
      "paging": {
        "next": "https://graph.facebook.com/search?type=place&access_token=229546593895315|yPLlHqq6YvDLIH4nL0kjJtIFSlU&limit=5000&offset=5000&__after_id=156953467678650"
      }, 
      "data": [
        {
          "category": "Restaurant/cafe", 
          "name": "Hogi Yogi Springville", 
          "id": "245399135550082", 
          "category_list": [
            {
              "id": "273819889375819", 
              "name": "Restaurant"
            }
          ], 
          "location": {
            "city": "Springville", 
            "zip": "84663", 
            "country": "United States", 
            "longitude": -111.610435, 
            "state": "UT", 
            "street": "295 South Main Street", 
            "latitude": 40.162649000000002
          }
        }, 
        {
          "category": "Restaurant/cafe", 
          "name": "Hogi Yogi of Redlands", 
          "id": "115438235148681", 
          "category_list": [
            {
              "id": "188334264523313", 
              "name": "Deli"
            }, 
            {
              "id": "149803325077018", 
              "name": "American Restaurant"
            }
          ], 
          "location": {
            "city": "Redlands", 
            "zip": "92373-5275", 
            "country": "United States", 
            "longitude": -117.177123674, 
            "state": "CA", 
            "street": "501 E Citrus Ave Ste D", 
            "latitude": 34.0557141699
          }
        }, 
        {
          "category": "Restaurant/cafe", 
          "name": "Hogi Yogi", 
          "id": "20408154725", 
          "category_list": [
            {
              "id": "273819889375819", 
              "name": "Restaurant"
            }
          ], 
          "location": {
            "city": "Rexburg", 
            "zip": "83440", 
            "country": "United States", 
            "longitude": -111.78704, 
            "state": "ID", 
            "street": "110 west 4th south", 
            "latitude": 43.817968
          }
        }, 
        {
          "category": "Local business", 
          "name": "Hogi Yogi", 
          "id": "102234759819429", 
          "category_list": [
            {
              "id": "149803325077018", 
              "name": "American Restaurant"
            }
          ], 
          "location": {
            "city": "Ogden", 
            "zip": "84405-3509", 
            "country": "United States", 
            "longitude": -111.983892, 
            "state": "UT", 
            "street": "4139 Riverdale Rd", 
            "latitude": 41.188245000000002
          }
        }, 
        {
          "category": "Local business", 
          "name": "Hogi Yogi", 
          "id": "108175452557642", 
          "category_list": [
            {
              "id": "149803325077018", 
              "name": "American Restaurant"
            }, 
            {
              "id": "188334264523313", 
              "name": "Deli"
            }
          ], 
          "location": {
            "city": "Salt Lake City", 
            "zip": "84102-2904", 
            "country": "United States", 
            "longitude": -111.86750000000001, 
            "state": "UT", 
            "street": "820 E 400 S", 
            "latitude": 40.760238999999999
          }
        }, 
        {
          "category": "Local business", 
          "name": "Hogi Yogi", 
          "id": "109596449077144", 
          "category_list": [
            {
              "id": "149803325077018", 
              "name": "American Restaurant"
            }
          ], 
          "location": {
            "city": "Orem", 
            "zip": "84058-5417", 
            "country": "United States", 
            "longitude": -111.69443699999999, 
            "state": "UT", 
            "street": "73 S State St", 
            "latitude": 40.296272000000002
          }
        }, 
        {
          "category": "Local business", 
          "name": "Hogi Yogi", 
          "id": "111546972219344", 
          "category_list": [
            {
              "id": "149803325077018", 
              "name": "American Restaurant"
            }
          ], 
          "location": {
            "city": "Pleasant Grove", 
            "zip": "84062-3615", 
            "country": "United States", 
            "longitude": -111.736672, 
            "state": "UT", 
            "street": "278 E State Rd", 
            "latitude": 40.355851000000001
          }
        }, 
        {
          "category": "Local business", 
          "name": "Hogi Yogi", 
          "id": "113471848686176", 
          "category_list": [
            {
              "id": "149803325077018", 
              "name": "American Restaurant"
            }
          ], 
          "location": {
            "city": "Spanish Fork", 
            "zip": "84660", 
            "country": "United States", 
            "longitude": -111.654535, 
            "state": "UT", 
            "street": "504 N Main St", 
            "latitude": 40.116472000000002
          }
        }, 
        {
          "category": "Local business", 
          "name": "Hogi Yogi", 
          "id": "113951855295967", 
          "category_list": [
            {
              "id": "149803325077018", 
              "name": "American Restaurant"
            }
          ], 
          "location": {
            "city": "Delta", 
            "zip": "84624-9261", 
            "country": "United States", 
            "longitude": -112.578856, 
            "state": "UT", 
            "street": "189 W Main St", 
            "latitude": 39.351947000000003
          }
        }, 
        {
          "category": "Local business", 
          "name": "Hogi Yogi", 
          "id": "120153321376314", 
          "category_list": [
            {
              "id": "149803325077018", 
              "name": "American Restaurant"
            }
          ], 
          "location": {
            "city": "Cedar City", 
            "zip": "84720-3465", 
            "country": "United States", 
            "longitude": -113.063146, 
            "state": "UT", 
            "street": "565 S Main St", 
            "latitude": 37.666573999999997
          }
        }, 
        {
          "category": "Local business", 
          "name": "Hogi Yogi", 
          "id": "121710761175819", 
          "category_list": [
            {
              "id": "149803325077018", 
              "name": "American Restaurant"
            }
          ], 
          "location": {
            "city": "Provo", 
            "zip": "84601-5944", 
            "country": "United States", 
            "longitude": -111.657158, 
            "state": "UT", 
            "street": "1235 S University Ave", 
            "latitude": 40.217354
          }
        }, 
        {
          "category": "Local business", 
          "name": "Hogi Yogi", 
          "id": "135657079817895", 
          "category_list": [
            {
              "id": "149803325077018", 
              "name": "American Restaurant"
            }
          ], 
          "location": {
            "city": "Orem", 
            "zip": "84058-3833", 
            "country": "United States", 
            "longitude": -111.726439, 
            "state": "UT", 
            "street": "1270 W 1130 S", 
            "latitude": 40.277051999999998
          }
        }, 
        {
          "category": "Local business", 
          "name": "Hogi Yogi", 
          "id": "153527671325252", 
          "category_list": [
            {
              "id": "149803325077018", 
              "name": "American Restaurant"
            }
          ], 
          "location": {
            "city": "Provo", 
            "zip": "", 
            "country": "United States", 
            "longitude": -111.657972659, 
            "state": "UT", 
            "street": "", 
            "latitude": 40.250506113
          }
        }, 
        {
          "category": "Local business", 
          "name": "Hogi-Yogi/Teriyaki Stix", 
          "id": "112670618796879", 
          "category_list": [
            {
              "id": "149803325077018", 
              "name": "American Restaurant"
            }
          ], 
          "location": {
            "city": "Salt Lake City", 
            "zip": "84101", 
            "country": "United States", 
            "longitude": -111.901988, 
            "state": "UT", 
            "street": "375 West 200 South Suite 300", 
            "latitude": 40.764581999999997
          }
        }, 
        {
          "category": "Local business", 
          "name": "Hogi Yogi Teriyaki Stix", 
          "id": "104911656219505", 
          "category_list": [
            {
              "id": "149803325077018", 
              "name": "American Restaurant"
            }, 
            {
              "id": "199035016778342", 
              "name": "Japanese Restaurant"
            }
          ], 
          "location": {
            "city": "South Jordan", 
            "zip": "84095-8524", 
            "country": "United States", 
            "longitude": -111.908536, 
            "state": "UT", 
            "street": "671 W South Jordan Pkwy", 
            "latitude": 40.558709
          }
        }, 
        {
          "category": "Local business", 
          "name": "Hogi Yogi & Teriyaki Stix", 
          "id": "111601055547256", 
          "category_list": [
            {
              "id": "149803325077018", 
              "name": "American Restaurant"
            }, 
            {
              "id": "199035016778342", 
              "name": "Japanese Restaurant"
            }
          ], 
          "location": {
            "city": "Orem", 
            "zip": "84057-2541", 
            "country": "United States", 
            "longitude": -111.709053, 
            "state": "UT", 
            "street": "1667 N State St", 
            "latitude": 40.327652
          }
        }, 
        {
          "category": "Local business", 
          "name": "Hogi-Yogi of Layton", 
          "id": "117408834944663", 
          "category_list": [
            {
              "id": "149803325077018", 
              "name": "American Restaurant"
            }
          ], 
          "location": {
            "city": "Layton", 
            "zip": "84041-4047", 
            "country": "United States", 
            "longitude": -111.973, 
            "state": "UT", 
            "street": "2112 N Hill Field Rd", 
            "latitude": 41.090983999999999
          }
        }, 
        {
          "category": "Local business", 
          "name": "Hogi Yogi of Riverton", 
          "id": "120606184617785", 
          "category_list": [
            {
              "id": "149803325077018", 
              "name": "American Restaurant"
            }
          ], 
          "location": {
            "city": "Riverton", 
            "zip": "84065-7039", 
            "country": "United States", 
            "longitude": -111.933628, 
            "state": "UT", 
            "street": "1481 W 12600 S", 
            "latitude": 40.521859999999997
          }
        }, 
        {
          "category": "Local business", 
          "name": "Hogi Yogi of Bountiful", 
          "id": "120646897947341", 
          "category_list": [
            {
              "id": "149803325077018", 
              "name": "American Restaurant"
            }
          ], 
          "location": {
            "city": "Bountiful", 
            "zip": "84010-7233", 
            "country": "United States", 
            "longitude": -111.886984, 
            "state": "UT", 
            "street": "273 W 500 S", 
            "latitude": 40.884120000000003
          }
        }, 
        {
          "category": "Local business", 
          "name": "Hogi Yogi-Teriyaki Stix", 
          "id": "122501771094039", 
          "category_list": [
            {
              "id": "149803325077018", 
              "name": "American Restaurant"
            }
          ], 
          "location": {
            "city": "Boulder City", 
            "zip": "89005-1825", 
            "country": "United States", 
            "longitude": -114.84509300000001, 
            "state": "NV", 
            "street": "1010 Nevada Hwy", 
            "latitude": 35.975265999999998
          }
        }, 
        {
          "category": "Local business", 
          "name": "Hogi Yogi 71", 
          "id": "134615009923889", 
          "category_list": [
            {
              "id": "149803325077018", 
              "name": "American Restaurant"
            }
          ], 
          "location": {
            "city": "Nephi", 
            "zip": "84648-2033", 
            "country": "United States", 
            "longitude": -111.839862, 
            "state": "UT", 
            "street": "2025 S Main St", 
            "latitude": 39.678500999999997
          }
        }, 
        {
          "category": "Local business", 
          "name": "Hogy Yogi", 
          "id": "156953467678650", 
          "category_list": [
            {
              "id": "162264673824073", 
              "name": "Specialty Grocery Store"
            }, 
            {
              "id": "149803325077018", 
              "name": "American Restaurant"
            }
          ], 
          "location": {
            "city": "Moab", 
            "zip": "84532-2511", 
            "country": "United States", 
            "longitude": -109.55110000000001, 
            "state": "UT", 
            "street": "396 S Main St", 
            "latitude": 38.566999000000003
          }
        }
      ]
    }
  }, 
  {
    "business_name": "Hilton Phoenix East", 
    "business_id": "iZqO52AeTq6lnn4kn6T-OQ", 
    "fb_pages": {
      "paging": {
        "next": "https://graph.facebook.com/search?type=place&access_token=229546593895315|yPLlHqq6YvDLIH4nL0kjJtIFSlU&limit=5000&offset=5000&__after_id=103752533429"
      }, 
      "data": [
        {
          "category": "Hotel", 
          "name": "Hilton Phoenix/Mesa", 
          "id": "16063440853", 
          "category_list": [
            {
              "id": "164243073639257", 
              "name": "Hotel"
            }, 
            {
              "id": "210261102322291", 
              "name": "Meeting Room"
            }, 
            {
              "id": "191173027579272", 
              "name": "Wedding Planning"
            }
          ], 
          "location": {
            "city": "Mesa", 
            "zip": "85210-4923", 
            "country": "United States", 
            "longitude": -111.85380305013, 
            "state": "AZ", 
            "street": "1011 West Holmes Avenue ", 
            "latitude": 33.38736881322
          }
        }, 
        {
          "category": "Hotel", 
          "name": "Hilton Phoenix Suites", 
          "id": "160122050726792", 
          "category_list": [
            {
              "id": "164243073639257", 
              "name": "Hotel"
            }
          ], 
          "location": {
            "city": "Phoenix", 
            "zip": "85012", 
            "country": "United States", 
            "longitude": -112.07230223806999, 
            "state": "AZ", 
            "street": "10 East Thomas Road", 
            "latitude": 33.480733296292001
          }
        }, 
        {
          "category": "Hotel", 
          "name": "Hilton Garden Inn Phoenix Airport North", 
          "id": "103752533429", 
          "category_list": [
            {
              "id": "164243073639257", 
              "name": "Hotel"
            }
          ], 
          "location": {
            "city": "Phoenix", 
            "zip": "85008", 
            "country": "United States", 
            "longitude": -111.9973969577, 
            "state": "AZ", 
            "street": "3838 East Van Buren Street", 
            "latitude": 33.451577734547001
          }
        }
      ]
    }
  }, 
  {
    "business_name": "Barrio Queen", 
    "business_id": "bOB11LVavtN9PWTNwR52Tw", 
    "fb_pages": {
      "paging": {
        "next": "https://graph.facebook.com/search?type=place&access_token=229546593895315|yPLlHqq6YvDLIH4nL0kjJtIFSlU&limit=5000&offset=5000&__after_id=490326197719206"
      }, 
      "data": [
        {
          "category": "Restaurant/cafe", 
          "name": "Barrio Queen Tequileria", 
          "id": "169370326458495", 
          "category_list": [
            {
              "id": "199377230079198", 
              "name": "Mexican Restaurant"
            }, 
            {
              "id": "110290705711626", 
              "name": "Bar"
            }
          ], 
          "location": {
            "city": "Scottsdale", 
            "zip": "85251", 
            "country": "United States", 
            "longitude": -111.92818130764, 
            "state": "AZ", 
            "street": "7114 E Stetson Dr Ste 105 ", 
            "latitude": 33.498803499266003
          }
        }, 
        {
          "category": "Local business", 
          "name": "Barrio Queen Comida Atoda Madre", 
          "id": "161007064004967", 
          "category_list": [
            {
              "id": "2500", 
              "name": "Local Business"
            }
          ], 
          "location": {
            "city": "Scottsdale", 
            "zip": "85251", 
            "country": "United States", 
            "longitude": -111.928185755, 
            "state": "AZ", 
            "street": "", 
            "latitude": 33.498925501999999
          }
        }, 
        {
          "category": "Bar", 
          "name": "QUEEN TASHA", 
          "id": "138278083050090", 
          "category_list": [
            {
              "id": "110290705711626", 
              "name": "Bar"
            }
          ], 
          "location": {
            "city": "Jujuy", 
            "zip": "4600", 
            "country": "Argentina", 
            "longitude": -65.5, 
            "state": "", 
            "street": "YAPAN468 BARRIO CHIJRA", 
            "latitude": -23.75
          }
        }, 
        {
          "category": "Local business", 
          "name": "Queen Lobster", 
          "id": "490326197719206", 
          "category_list": [
            {
              "id": "189811544396762", 
              "name": "Tour Company"
            }
          ], 
          "location": {
            "city": "Laguna de Perlas", 
            "zip": "", 
            "country": "Nicaragua", 
            "longitude": -83.666700000000006, 
            "street": "200mtrs. norte del muelle municipal, barrio ivan Dixon.", 
            "latitude": 12.35
          }
        }
      ]
    }
  }, 
  {
    "business_name": "Yogurt Builderz", 
    "business_id": "jEkaxdgLxUCf4jtUnCPVWg", 
    "fb_pages": {
      "paging": {
        "next": "https://graph.facebook.com/search?type=place&access_token=229546593895315|yPLlHqq6YvDLIH4nL0kjJtIFSlU&limit=5000&offset=5000&__after_id=119616709406"
      }, 
      "data": [
        {
          "category": "Company", 
          "name": "Yogurt Builderz", 
          "id": "119616709406", 
          "category_list": [
            {
              "id": "2200", 
              "name": "Company"
            }
          ], 
          "location": {
            "city": "Scottsdale", 
            "zip": "85254", 
            "country": "United States", 
            "longitude": -111.92658793635, 
            "state": "AZ", 
            "street": "14202 N. Scottsdale Rd. # 167", 
            "latitude": 33.615236162350001
          }
        }
      ]
    }
  }, 
  {
    "business_name": "Francisco's Brick Pizza & Pitas", 
    "business_id": "CUISGDqI5ZRIGXH9EgpFMw", 
    "fb_pages": {
      "paging": {
        "next": "https://graph.facebook.com/search?type=place&access_token=229546593895315|yPLlHqq6YvDLIH4nL0kjJtIFSlU&limit=5000&offset=5000&__after_id=350588438364438"
      }, 
      "data": [
        {
          "category": "Restaurant/cafe", 
          "name": "Francisco's Brick Pizza & Pita's", 
          "id": "156114417846456", 
          "category_list": [
            {
              "id": "180256082015845", 
              "name": "Pizza Place"
            }, 
            {
              "id": "193831710644458", 
              "name": "Italian Restaurant"
            }, 
            {
              "id": "144722595590046", 
              "name": "Greek Restaurant"
            }
          ], 
          "location": {
            "city": "Gilbert", 
            "zip": "85296", 
            "country": "United States", 
            "longitude": -111.78919034899999, 
            "state": "AZ", 
            "street": "3765 S. Gilbert Rd. Ste 103", 
            "latitude": 33.281484836399997
          }
        }, 
        {
          "category": "Local business", 
          "name": "Francisco's Brick Oven Pizza", 
          "id": "350588438364438", 
          "category_list": [
            {
              "id": "180256082015845", 
              "name": "Pizza Place"
            }
          ], 
          "location": {
            "city": "Gilbert", 
            "zip": "", 
            "country": "United States", 
            "longitude": -111.788764, 
            "state": "AZ", 
            "street": "", 
            "latitude": 33.281686305999997
          }
        }
      ]
    }
  }, 
  {
    "business_name": "Julio's Too", 
    "business_id": "mBDhy9j4qwKRnf4h8UQnrQ", 
    "fb_pages": {
      "paging": {
        "next": "https://graph.facebook.com/search?type=place&access_token=229546593895315|yPLlHqq6YvDLIH4nL0kjJtIFSlU&limit=5000&offset=5000&__after_id=615980898430584"
      }, 
      "data": [
        {
          "category": "Local business", 
          "name": "Julio's Too", 
          "id": "111270422239878", 
          "category_list": [
            {
              "id": "199377230079198", 
              "name": "Mexican Restaurant"
            }
          ], 
          "location": {
            "city": "Mesa", 
            "zip": "85204-7310", 
            "country": "United States", 
            "longitude": -111.75341032646, 
            "state": "AZ", 
            "street": "1935 South Val Vista Drive", 
            "latitude": 33.381362561266002
          }
        }, 
        {
          "category": "Local business", 
          "name": "Julio's Too", 
          "id": "109701015733122", 
          "category_list": [
            {
              "id": "199377230079198", 
              "name": "Mexican Restaurant"
            }
          ], 
          "location": {
            "city": "Phoenix", 
            "zip": "85032-7710", 
            "country": "United States", 
            "longitude": -111.978899476, 
            "state": "AZ", 
            "street": "12631 N Tatum Blvd", 
            "latitude": 33.600751862300001
          }
        }, 
        {
          "category": "Local business", 
          "name": "Julio's Too Mexican Restaurants", 
          "id": "111579038882257", 
          "category_list": [
            {
              "id": "199377230079198", 
              "name": "Mexican Restaurant"
            }
          ], 
          "location": {
            "city": "Scottsdale", 
            "zip": "85251-3403", 
            "country": "United States", 
            "longitude": -111.92317688417999, 
            "state": "AZ", 
            "street": "7305 E Camelback Rd", 
            "latitude": 33.502051892895999
          }
        }, 
        {
          "category": "Local business", 
          "name": "Julio's asociacion ferretera-\"\"\"\"\"\"", 
          "id": "615980898430584", 
          "category_list": [
            {
              "id": "169026306477520", 
              "name": "Hardware & Tools Service"
            }
          ], 
          "location": {
            "city": "Cuernavaca", 
            "zip": "62573", 
            "country": "Mexico", 
            "longitude": -99.162946489673004, 
            "state": "", 
            "street": "", 
            "latitude": 18.908004795762999, 
            "located_in": 143862212412698
          }
        }
      ]
    }
  }, 
  {
    "business_name": "Tammie Coe Cakes", 
    "business_id": "iqLVYrsX25XUZqjRjvbYfg", 
    "fb_pages": {
      "paging": {
        "next": "https://graph.facebook.com/search?type=place&access_token=229546593895315|yPLlHqq6YvDLIH4nL0kjJtIFSlU&limit=5000&offset=5000&__after_id=593212534039554"
      }, 
      "data": [
        {
          "category": "Restaurant/cafe", 
          "name": "Tammie Coe Cakes and MJ Bread", 
          "id": "136897808444", 
          "category_list": [
            {
              "id": "187827497907070", 
              "name": "Bakery"
            }, 
            {
              "id": "187153754656815", 
              "name": "Dessert Restaurant"
            }, 
            {
              "id": "128673187201735", 
              "name": "Coffee Shop"
            }
          ], 
          "location": {
            "city": "Phoenix", 
            "zip": "85004", 
            "country": "United States", 
            "longitude": -112.06633362082, 
            "state": "AZ", 
            "street": "610 East Roosevelt ", 
            "latitude": 33.458808533331997
          }
        }, 
        {
          "category": "Local business", 
          "name": "Tammie Coe Cakes", 
          "id": "593212534039554", 
          "category_list": [
            {
              "id": "187827497907070", 
              "name": "Bakery"
            }
          ], 
          "location": {
            "city": "Phoenix", 
            "zip": "85034", 
            "country": "United States", 
            "longitude": -112.001924144, 
            "state": "AZ", 
            "street": "", 
            "latitude": 33.4375505386, 
            "located_in": 516921938383222
          }
        }
      ]
    }
  }, 
  {
    "business_name": "Desert Ridge Family Physicians", 
    "business_id": "NLaZGf9em6T-z7TSXUkxDw", 
    "fb_pages": {
      "paging": {
        "next": "https://graph.facebook.com/search?type=place&access_token=229546593895315|yPLlHqq6YvDLIH4nL0kjJtIFSlU&limit=5000&offset=5000&__after_id=180835768603632"
      }, 
      "data": [
        {
          "category": "Local business", 
          "name": "Desert Ridge Family Physicians", 
          "id": "180835768603632", 
          "category_list": [
            {
              "id": "188234584533149", 
              "name": "Doctor"
            }
          ], 
          "location": {
            "city": "Phoenix", 
            "zip": "85050", 
            "country": "United States", 
            "longitude": -111.97943904, 
            "state": "AZ", 
            "street": "", 
            "latitude": 33.675509917799999
          }
        }
      ]
    }
  }, 
  {
    "business_name": "T-Wyn's Nails", 
    "business_id": "jRZazIxas2ZyKnkFQgMKtA", 
    "fb_pages": {
      "paging": {
        "next": "https://graph.facebook.com/search?type=place&access_token=229546593895315|yPLlHqq6YvDLIH4nL0kjJtIFSlU&limit=5000&offset=5000&__after_id=185095478218603"
      }, 
      "data": [
        {
          "category": "Local business", 
          "name": "T-Wyn's Nails", 
          "id": "185095478218603", 
          "category_list": [
            {
              "id": "198516863494646", 
              "name": "Nail Salon"
            }
          ], 
          "location": {
            "city": "Scottsdale", 
            "zip": "85255", 
            "country": "United States", 
            "longitude": -111.855687706, 
            "state": "AZ", 
            "street": "", 
            "latitude": 33.627118626399998
          }
        }
      ]
    }
  }, 
  {
    "business_name": "C & J's Antiques & Garden", 
    "business_id": "FA_PQwYxwrJTsxZFpMmshw", 
    "fb_pages": {
      "paging": {
        "next": "https://graph.facebook.com/search?type=place&access_token=229546593895315|yPLlHqq6YvDLIH4nL0kjJtIFSlU&limit=5000&offset=5000&__after_id=283057568464486"
      }, 
      "data": [
        {
          "category": "Media/news/publishing", 
          "name": "ABS-CBNnews.com", 
          "id": "27254475167", 
          "category_list": [
            {
              "id": "169056916473899", 
              "name": "Broadcasting & Media Production"
            }
          ], 
          "location": {
            "city": "Quezon City", 
            "zip": "1108", 
            "country": "Philippines", 
            "longitude": 121.03712874603001, 
            "state": "", 
            "street": "Sgt. Esguerra Ave.", 
            "latitude": 14.63960250629
          }
        }, 
        {
          "category": "Retail and consumer merchandise", 
          "name": "C&A", 
          "id": "109345009145382", 
          "category_list": [
            {
              "id": "200600219953504", 
              "name": "Shopping & Retail"
            }
          ], 
          "location": {
            "latitude": 51.275864617400003, 
            "street": "", 
            "zip": "", 
            "longitude": 6.7854639858099999
          }
        }, 
        {
          "category": "Local business", 
          "name": "Real Madrid C.F Vs F.C Barcelona", 
          "id": "1413652412199723", 
          "category_list": [
            {
              "id": "2500", 
              "name": "Local Business"
            }
          ], 
          "location": {
            "city": "Barcelona", 
            "zip": "0000", 
            "country": "Spain", 
            "longitude": -3.6898307487955999, 
            "state": "", 
            "street": "", 
            "latitude": 40.404240508794999, 
            "located_in": 106504859386230
          }
        }, 
        {
          "category": "Movie theater", 
          "name": "Cin\u00e9polis", 
          "id": "212235555192", 
          "category_list": [
            {
              "id": "192511100766680", 
              "name": "Movie Theatre"
            }
          ], 
          "location": {
            "city": "Morelia", 
            "zip": "", 
            "country": "Mexico", 
            "longitude": -103.69690838398, 
            "state": "", 
            "street": "", 
            "latitude": 19.266821820353002
          }
        }, 
        {
          "category": "Local business", 
          "name": "El Clasico", 
          "id": "551696114905603", 
          "category_list": [
            {
              "id": "2500", 
              "name": "Local Business"
            }
          ], 
          "location": {
            "city": "Barcelona", 
            "zip": "000000", 
            "country": "Spain", 
            "longitude": -3.7516105626699998, 
            "state": "", 
            "street": "", 
            "latitude": 40.400359329200001, 
            "located_in": 113019615379046
          }
        }, 
        {
          "category": "Telecommunication", 
          "name": "Claro Per\u00fa", 
          "id": "89123326429", 
          "category_list": [
            {
              "id": "2253", 
              "name": "Telecommunication"
            }
          ], 
          "location": {
            "city": "Lima", 
            "zip": "Lima 11", 
            "country": "Peru", 
            "longitude": -77.015005895190001, 
            "state": "", 
            "street": "Av. Nicol\u00e1s Arriola 480 - Santa Catalina", 
            "latitude": -12.08586161943
          }
        }, 
        {
          "category": "Local business", 
          "name": "City News", 
          "id": "235005556660158", 
          "category_list": [
            {
              "id": "108366235907857", 
              "name": "Newspaper"
            }
          ], 
          "location": {
            "city": "Cairo", 
            "zip": "131141", 
            "country": "Egypt", 
            "longitude": 31.228899999999999, 
            "state": "", 
            "street": "2G asmaa fahmy", 
            "latitude": 30.0581
          }
        }, 
        {
          "category": "Local business", 
          "name": "Reda city16 \u4e36officielle \u4e36", 
          "id": "184178365107059", 
          "category_list": [
            {
              "id": "187133811318958", 
              "name": "Business Services"
            }
          ], 
          "location": {
            "city": "Paris", 
            "zip": "paris", 
            "country": "France", 
            "longitude": 7.1173020301300003, 
            "state": "", 
            "street": "191919", 
            "latitude": 35.8766448258
          }
        }, 
        {
          "category": "Local business", 
          "name": "Pet Care", 
          "id": "139123579472805", 
          "category_list": [
            {
              "id": "198503866828628", 
              "name": "Organization"
            }, 
            {
              "id": "162068413843305", 
              "name": "Veterinarian"
            }
          ], 
          "location": {
            "latitude": -23.607788411342, 
            "street": "", 
            "zip": "", 
            "longitude": -46.725413711761
          }
        }, 
        {
          "category": "Local business", 
          "name": "Best Cars", 
          "id": "1411633342404159", 
          "category_list": [
            {
              "id": "2500", 
              "name": "Local Business"
            }
          ], 
          "location": {
            "city": "Paris", 
            "zip": "92000", 
            "country": "France", 
            "longitude": 2.3508, 
            "state": "", 
            "street": "", 
            "latitude": 48.856699999999996
          }
        }, 
        {
          "category": "Outdoor gear/sporting goods", 
          "name": "Duck Commander", 
          "id": "8025798609", 
          "category_list": [
            {
              "id": "2231", 
              "name": "Outdoor Gear/Sporting Goods"
            }
          ], 
          "location": {
            "city": "West Monroe", 
            "zip": "71292", 
            "country": "United States", 
            "longitude": -92.158774942592004, 
            "state": "LA", 
            "street": "117 Kings Lane", 
            "latitude": 32.496903958583999
          }
        }, 
        {
          "category": "Airport", 
          "name": "Changi Airport", 
          "id": "113770598597", 
          "category_list": [
            {
              "id": "177950465654024", 
              "name": "Airport Terminal"
            }, 
            {
              "id": "148932728496725", 
              "name": "Public Places & Attractions"
            }, 
            {
              "id": "124947834245370", 
              "name": "Tourist Information"
            }
          ], 
          "location": {
            "city": "Singapore", 
            "zip": "819643", 
            "country": "Singapore", 
            "longitude": 103.99183034254, 
            "street": "75 Airport Boulevard", 
            "latitude": 1.361496061764
          }
        }, 
        {
          "category": "Movie theater", 
          "name": "Sport Cars", 
          "id": "712059422140385", 
          "category_list": [
            {
              "id": "192511100766680", 
              "name": "Movie Theatre"
            }
          ], 
          "location": {
            "city": "Tirana", 
            "zip": "1001", 
            "country": "Albania", 
            "longitude": 19.824510863593002, 
            "state": "", 
            "street": "", 
            "latitude": 41.330488652614001, 
            "located_in": 102191273155324
          }
        }, 
        {
          "category": "Telecommunication", 
          "name": "Claro Argentina", 
          "id": "253622671333956", 
          "category_list": [
            {
              "id": "210979565595898", 
              "name": "Mobile Phone Shop"
            }
          ], 
          "location": {
            "city": "Buenos Aires", 
            "zip": "1084", 
            "country": "Argentina", 
            "longitude": -58.378877095608999, 
            "state": "", 
            "street": "Av. de Mayo 878", 
            "latitude": -34.609236534003003
          }
        }, 
        {
          "category": "Non-governmental organization (ngo)", 
          "name": "C'est ta meuf ? - Non , C'est ma femme :$", 
          "id": "250650688421199", 
          "category_list": [
            {
              "id": "436846369665656", 
              "name": "Public Utility"
            }, 
            {
              "id": "224455390913969", 
              "name": "City"
            }, 
            {
              "id": "186004504854452", 
              "name": "Clubhouse"
            }
          ], 
          "location": {
            "city": "Saint-Denis", 
            "zip": "93200", 
            "country": "France", 
            "longitude": 2.3508, 
            "state": "", 
            "street": "", 
            "latitude": 48.856699999999996
          }
        }, 
        {
          "category": "Local business", 
          "name": "Miegypt.com", 
          "id": "237514173074580", 
          "category_list": [
            {
              "id": "2500", 
              "name": "Local Business"
            }
          ], 
          "location": {
            "city": "Cairo", 
            "zip": "", 
            "country": "Egypt", 
            "longitude": 35.981283456592998, 
            "state": "", 
            "street": "", 
            "latitude": 31.978061181318999
          }
        }, 
        {
          "category": "Local business", 
          "name": "Walmart M\u00e9xico", 
          "id": "116233558420020", 
          "category_list": [
            {
              "id": "128698093865240", 
              "name": "Outlet Store"
            }
          ], 
          "location": {
            "city": "Mexico City", 
            "zip": "C.P. 11220", 
            "country": "Mexico", 
            "longitude": -99.181732319600002, 
            "state": "", 
            "street": " Blvd. Manuel \u00c1vila Camacho 491", 
            "latitude": 19.444307919900002
          }
        }, 
        {
          "category": "Hospital/clinic", 
          "name": "\u0645\u0633\u062a\u0634\u0641\u0649 \u0623\u0646\u062f\u0644\u0633\u064a\u0629 \u0627\u0644\u0645\u0639\u0627\u062f\u0649", 
          "id": "268329546648311", 
          "category_list": [
            {
              "id": "133152263416981", 
              "name": "Hospital"
            }, 
            {
              "id": "180699075298665", 
              "name": "Hospitality Service"
            }, 
            {
              "id": "186546178044573", 
              "name": "Medical Lab"
            }
          ], 
          "location": {
            "city": "Cairo", 
            "zip": "", 
            "country": "Egypt", 
            "longitude": 43.276511900000003, 
            "state": "", 
            "street": "NEW MAADI , TAKSEM AL LASILKY 4G/6 - CAIRO Cairo, Egypt", 
            "latitude": 35.463105900000002
          }
        }, 
        {
          "category": "Local business", 
          "name": "\u0647\u0645\u0640\u0640\u0640\u0640\u0640\u0640\u0640\u0640\u0640\u0640\u0640\u0640\u0640\u0633\u0640\u0627\u062a", 
          "id": "618633158176118", 
          "category_list": [
            {
              "id": "2500", 
              "name": "Local Business"
            }
          ], 
          "location": {
            "city": "Cairo", 
            "zip": "", 
            "country": "Egypt", 
            "longitude": 31.236052732600001, 
            "state": "", 
            "street": "", 
            "latitude": 30.850132369299999, 
            "located_in": 102607193151165
          }
        }, 
        {
          "category": "Club", 
          "name": "Interesting Things", 
          "id": "609713125742301", 
          "category_list": [
            {
              "id": "2101", 
              "name": "Club"
            }
          ], 
          "location": {
            "city": "Madrid", 
            "zip": "28008", 
            "country": "Spain", 
            "longitude": -97.339757399999996, 
            "state": "", 
            "street": "C/ Ventura Rodriguez 7", 
            "latitude": 32.736524799999998
          }
        }, 
        {
          "category": "Bar", 
          "name": "Cute Relationship", 
          "id": "398130020316412", 
          "category_list": [
            {
              "id": "133436743388217", 
              "name": "Arts & Entertainment"
            }, 
            {
              "id": "110290705711626", 
              "name": "Bar"
            }
          ], 
          "location": {
            "city": "New York", 
            "zip": "", 
            "country": "United States", 
            "longitude": -2.2881371394999999, 
            "state": "NY", 
            "street": "NEW YORK", 
            "latitude": 53.463296636700001
          }
        }, 
        {
          "category": "Local business", 
          "name": "Info Foot Dz", 
          "id": "457370181051033", 
          "category_list": [
            {
              "id": "188662441155211", 
              "name": "Community & Government"
            }
          ], 
          "location": {
            "city": "Paris", 
            "zip": "", 
            "country": "France", 
            "longitude": 7.1173020301300003, 
            "state": "", 
            "street": "", 
            "latitude": 35.8766448258
          }
        }, 
        {
          "category": "Local business", 
          "name": "\u30fd\u0645\u0642\u062a\u0628\u0633\u0627\u062a \u0644\u0640\u0650 \u0623\u062d\u0645\u062f \u0627\u0644\u0634\u0642\u064a\u0631\u064a", 
          "id": "480095982107145", 
          "category_list": [
            {
              "id": "2500", 
              "name": "Local Business"
            }
          ], 
          "location": {
            "city": "Cairo", 
            "zip": "50000", 
            "country": "Egypt", 
            "longitude": 98.493880022400006, 
            "state": "", 
            "street": "", 
            "latitude": 25.014353056699999, 
            "located_in": 115351105145884
          }
        }, 
        {
          "category": "Movie theater", 
          "name": "\u064a\u0648\u0645\u0627 \u0645\u0627 \u0633\u0623\u0643\u0648\u0646 \u0643\u0645\u0627 \u0623\u062d\u0644\u0645 \u0623\u0646 \u0623\u0643\u0648\u0646", 
          "id": "452563488197934", 
          "category_list": [
            {
              "id": "110186619064706", 
              "name": "Comedy Club"
            }
          ], 
          "location": {
            "city": "Paris", 
            "zip": "00000", 
            "country": "France", 
            "longitude": 29.930946098, 
            "state": "", 
            "street": "Jordan", 
            "latitude": 31.199290899099999
          }
        }, 
        {
          "category": "Club", 
          "name": "\u0628\u0625\u062d\u0633\u0627\u0646\u064f\u0646\u0627 \u062a\u064e\u0633\u062a\u0642\u064a\u0645 \u0627\u0644\u062d\u064a\u064e\u0627\u0629 \u5f61", 
          "id": "235501083273457", 
          "category_list": [
            {
              "id": "2101", 
              "name": "Club"
            }
          ], 
          "location": {
            "city": "Amman", 
            "zip": "111111", 
            "country": "Jordan", 
            "longitude": 35.981283456592998, 
            "state": "", 
            "street": "", 
            "latitude": 31.978061181318999, 
            "located_in": 104883066213798
          }
        }, 
        {
          "category": "Arts/entertainment/nightlife", 
          "name": "7ob emtlak", 
          "id": "602013716500533", 
          "category_list": [
            {
              "id": "133436743388217", 
              "name": "Arts & Entertainment"
            }
          ], 
          "location": {
            "city": "New City", 
            "zip": "12345", 
            "country": "United States", 
            "longitude": -3.6942304827200001, 
            "state": "NY", 
            "street": "NEW CITY", 
            "latitude": 40.4050084657
          }
        }, 
        {
          "category": "Tv network", 
          "name": "Panorama TV", 
          "id": "471398336312069", 
          "category_list": [
            {
              "id": "1402", 
              "name": "TV Network"
            }
          ], 
          "location": {
            "city": "Cairo", 
            "zip": "", 
            "country": "Egypt", 
            "longitude": -3.6942304827100001, 
            "state": "", 
            "street": "", 
            "latitude": 40.4050084657
          }
        }, 
        {
          "category": "Concert venue", 
          "name": "Rock in Rio", 
          "id": "142258389139112", 
          "category_list": [
            {
              "id": "189483194405517", 
              "name": "Music Production"
            }, 
            {
              "id": "192119584190796", 
              "name": "Event"
            }, 
            {
              "id": "186825111351005", 
              "name": "Tourist Attraction"
            }
          ], 
          "location": {
            "city": "Rio de Janeiro", 
            "zip": "22780-160", 
            "country": "Brazil", 
            "longitude": -43.407518278034999, 
            "state": "", 
            "street": "Av. Salvador Allende, s/n", 
            "latitude": -22.980468677345002
          }
        }, 
        {
          "category": "Airport", 
          "name": "Iphone 6s\u3147", 
          "id": "547633581980079", 
          "category_list": [
            {
              "id": "139823692748565", 
              "name": "Computers & Electronics"
            }
          ], 
          "location": {
            "city": "New York", 
            "zip": "", 
            "country": "United States", 
            "longitude": -73.892075568500005, 
            "state": "NY", 
            "street": "", 
            "latitude": 40.746721797699998
          }
        }, 
        {
          "category": "Retail and consumer merchandise", 
          "name": "Lootore.com", 
          "id": "157453991130168", 
          "category_list": [
            {
              "id": "200046713342752", 
              "name": "Shopping Service"
            }, 
            {
              "id": "183205338384747", 
              "name": "Discount Store"
            }
          ], 
          "location": {
            "latitude": 28.199352232660001, 
            "zip": "110075", 
            "street": "", 
            "longitude": 77.090539480591005, 
            "located_in": 106517799384578
          }
        }, 
        {
          "category": "Media/news/publishing", 
          "name": "\ubc88 cairo cafe _ \u0627\u0633\u062a\u0631\u0627\u062d\u0629 \u0627\u0644\u0628\u0648\u0627\u0628\u0629", 
          "id": "229776157190379", 
          "category_list": [
            {
              "id": "200600219953504", 
              "name": "Shopping & Retail"
            }
          ], 
          "location": {
            "city": "Paris", 
            "zip": "", 
            "country": "France", 
            "longitude": 2.3627030307800001, 
            "state": "", 
            "street": "", 
            "latitude": 48.833899318999997
          }
        }, 
        {
          "category": "Local business", 
          "name": "\u318dSport Cars \u318d", 
          "id": "553864751367774", 
          "category_list": [
            {
              "id": "110290705711626", 
              "name": "Bar"
            }
          ], 
          "location": {
            "city": "Brooklyn", 
            "zip": "", 
            "country": "United States", 
            "longitude": -74.020240000000001, 
            "state": "NY", 
            "street": "1020 86th Street", 
            "latitude": 40.617708999999998
          }
        }, 
        {
          "category": "Organization", 
          "name": "Apple Company", 
          "id": "114347885248682", 
          "category_list": [
            {
              "id": "198503866828628", 
              "name": "Organization"
            }
          ], 
          "location": {
            "city": "Cupertino", 
            "zip": "95014", 
            "country": "United States", 
            "longitude": -122.03118000000001, 
            "state": "CA", 
            "street": "", 
            "latitude": 37.33182
          }
        }, 
        {
          "category": "Bar", 
          "name": "I Can't Stop Loving You", 
          "id": "169229249951869", 
          "category_list": [
            {
              "id": "218693881483234", 
              "name": "Pub"
            }
          ], 
          "location": {
            "city": "Paris", 
            "zip": "191919", 
            "country": "France", 
            "longitude": 102.627138211, 
            "state": "", 
            "street": "", 
            "latitude": 17.985371905299999
          }
        }, 
        {
          "category": "Local business", 
          "name": "Iker Casillas Lovers", 
          "id": "542963282463419", 
          "category_list": [
            {
              "id": "133436743388217", 
              "name": "Arts & Entertainment"
            }
          ], 
          "location": {
            "city": "London", 
            "zip": "London", 
            "country": "United Kingdom", 
            "longitude": -0.16128834242772999, 
            "state": "", 
            "street": "0000", 
            "latitude": 51.546705888535001
          }
        }, 
        {
          "category": "Company", 
          "name": "\u318dHusky Lovers\u318d", 
          "id": "1390450584530638", 
          "category_list": [
            {
              "id": "192511100766680", 
              "name": "Movie Theatre"
            }
          ], 
          "location": {
            "city": "Amman", 
            "zip": "0000", 
            "country": "Jordan", 
            "longitude": 19.821709773199998, 
            "state": "", 
            "street": "amman", 
            "latitude": 41.3383703756
          }
        }, 
        {
          "category": "Local business", 
          "name": "\u062d\u064a\u0627\u062a\u064a \u0643\u0644\u0640\u0647\u0627 \u0644\u0644\u0647", 
          "id": "618849094827350", 
          "category_list": [
            {
              "id": "2500", 
              "name": "Local Business"
            }
          ], 
          "location": {
            "city": "Cairo", 
            "zip": "50000", 
            "country": "Egypt", 
            "longitude": 35.981283456592998, 
            "state": "", 
            "street": "", 
            "latitude": 31.978061181318999
          }
        }, 
        {
          "category": "Retail and consumer merchandise", 
          "name": "DSW Designer Shoe Warehouse", 
          "id": "154617644305", 
          "category_list": [
            {
              "id": "109512302457693", 
              "name": "Shoe Store"
            }
          ], 
          "location": {
            "city": "Tigard", 
            "zip": "", 
            "country": "United States", 
            "longitude": -122.74815091452, 
            "state": "OR", 
            "street": "", 
            "latitude": 45.397797875715
          }
        }, 
        {
          "category": "Food/beverages", 
          "name": "KFC - Kentucky Fried Chicken", 
          "id": "7144906559", 
          "category_list": [
            {
              "id": "197767133603296", 
              "name": "Chicken Wings"
            }
          ], 
          "location": {
            "city": "Louisville", 
            "zip": "40213", 
            "country": "United States", 
            "longitude": -85.696050443531007, 
            "state": "KY", 
            "street": "1900 Colonel Sanders Lane", 
            "latitude": 38.197897412453997
          }
        }, 
        {
          "category": "Restaurant/cafe", 
          "name": "Outback Brasil", 
          "id": "149593841723519", 
          "category_list": [
            {
              "id": "273819889375819", 
              "name": "Restaurant"
            }
          ], 
          "location": {
            "city": "S\u00e3o Paulo", 
            "zip": "", 
            "country": "Brazil", 
            "longitude": -46.700719497965999, 
            "state": "", 
            "street": "", 
            "latitude": -23.621725807638999
          }
        }, 
        {
          "category": "Bar", 
          "name": "Ciumenta, eu? S\u00f3 de vez em sempre", 
          "id": "468258259957830", 
          "category_list": [
            {
              "id": "197289820310880", 
              "name": "Home"
            }
          ], 
          "location": {
            "city": "Jo\u00e3o Pessoa", 
            "zip": "58090-620", 
            "country": "Brazil", 
            "longitude": -34.927451900000001, 
            "state": "", 
            "street": "Rua Compositor Noel Rosa", 
            "latitude": -7.1261416000000004
          }
        }, 
        {
          "category": "Landmark", 
          "name": "Disney Channel", 
          "id": "104507152933747", 
          "category_list": [
            {
              "id": "209889829023118", 
              "name": "Landmark"
            }, 
            {
              "id": "176831012360626", 
              "name": "Professional Services"
            }
          ], 
          "location": {
            "city": "Burbank", 
            "zip": "91505", 
            "country": "United States", 
            "longitude": -118.341658, 
            "state": "CA", 
            "street": "", 
            "latitude": 34.153118999999997
          }
        }, 
        {
          "category": "Health/beauty", 
          "name": "Mode & Fashion", 
          "id": "192305097622640", 
          "category_list": [
            {
              "id": "179576078750378", 
              "name": "Fashion Designer"
            }
          ], 
          "location": {
            "city": "San Francisco", 
            "zip": "94123", 
            "country": "United States", 
            "longitude": 12.5108696323, 
            "state": "CA", 
            "street": "", 
            "latitude": 41.8084410596
          }
        }, 
        {
          "category": "Local business", 
          "name": "Dairy Queen", 
          "id": "15508591668", 
          "category_list": [
            {
              "id": "200863816597800", 
              "name": "Ice Cream Parlor"
            }, 
            {
              "id": "192803624072087", 
              "name": "Fast Food Restaurant"
            }
          ], 
          "location": {
            "city": "Edina", 
            "zip": "", 
            "country": "United States", 
            "longitude": -104.99637992936, 
            "state": "MN", 
            "street": "Fan Food Restaurant", 
            "latitude": 39.913324446051
          }
        }, 
        {
          "category": "Media/news/publishing", 
          "name": "\u0110\u1eebng ch\u1ebft v\u00ec thi\u1ebfu hi\u1ec3u bi\u1ebft", 
          "id": "195365183987108", 
          "category_list": [
            {
              "id": "133436743388217", 
              "name": "Arts & Entertainment"
            }
          ], 
          "location": {
            "city": "Amman", 
            "zip": "000000", 
            "country": "Jordan", 
            "longitude": 35.933300000000003, 
            "state": "", 
            "street": "jordan", 
            "latitude": 31.949999999999999
          }
        }, 
        {
          "category": "Media/news/publishing", 
          "name": "WWE", 
          "id": "7175346442", 
          "category_list": [
            {
              "id": "133436743388217", 
              "name": "Arts & Entertainment"
            }, 
            {
              "id": "124584130946507", 
              "name": "Sports Promoter"
            }, 
            {
              "id": "169056916473899", 
              "name": "Broadcasting & Media Production"
            }
          ], 
          "location": {
            "city": "Stamford", 
            "zip": "06902", 
            "country": "United States", 
            "longitude": -73.512090514472007, 
            "state": "CT", 
            "street": "1241 E. Main Street", 
            "latitude": 41.058677289969999
          }
        }, 
        {
          "category": "Retail and consumer merchandise", 
          "name": "Kohl's", 
          "id": "17648521247", 
          "category_list": [
            {
              "id": "344508555610070", 
              "name": "Department Store"
            }
          ], 
          "location": {
            "city": "Menomonee Falls", 
            "zip": "", 
            "country": "United States", 
            "longitude": -88.122841861948999, 
            "state": "WI", 
            "street": "", 
            "latitude": 43.121738455447002
          }
        }, 
        {
          "category": "Retail and consumer merchandise", 
          "name": "Keurig", 
          "id": "198333355974", 
          "category_list": [
            {
              "id": "2239", 
              "name": "Retail and Consumer Merchandise"
            }
          ], 
          "location": {
            "city": "Reading", 
            "zip": "01867", 
            "country": "United States", 
            "longitude": -71.094350689256004, 
            "state": "MA", 
            "street": "55 Walkers Brook Drive", 
            "latitude": 42.518342946429001
          }
        }, 
        {
          "category": "Retail and consumer merchandise", 
          "name": "Foot Locker", 
          "id": "67997232685", 
          "category_list": [
            {
              "id": "2239", 
              "name": "Retail and Consumer Merchandise"
            }
          ], 
          "location": {
            "city": "New York", 
            "zip": "", 
            "country": "United States", 
            "longitude": -73.988825960507995, 
            "state": "NY", 
            "street": "", 
            "latitude": 40.750173672677001
          }
        }, 
        {
          "category": "Club", 
          "name": "I Love You ", 
          "id": "548341025243242", 
          "category_list": [
            {
              "id": "2101", 
              "name": "Club"
            }
          ], 
          "location": {
            "city": "Jermuk", 
            "zip": "01020579246", 
            "country": "Armenia", 
            "longitude": 14.6449582, 
            "state": "", 
            "street": "", 
            "latitude": 40.742477704800002
          }
        }, 
        {
          "category": "Food/beverages", 
          "name": "Monster Energy", 
          "id": "11768835826", 
          "category_list": [
            {
              "id": "211799228831980", 
              "name": "Active Life"
            }
          ], 
          "location": {
            "city": "Corona", 
            "zip": "92879", 
            "country": "United States", 
            "longitude": -117.61547986938, 
            "state": "CA", 
            "street": "1 Monster Way", 
            "latitude": 33.889909056945001
          }
        }, 
        {
          "category": "Health/beauty", 
          "name": "Bath & Body Works", 
          "id": "135748000675", 
          "category_list": [
            {
              "id": "200600219953504", 
              "name": "Shopping & Retail"
            }, 
            {
              "id": "139225689474222", 
              "name": "Spa, Beauty & Personal Care"
            }
          ], 
          "location": {
            "city": "Reynoldsburg", 
            "zip": "43068", 
            "country": "United States", 
            "longitude": -82.775301154868004, 
            "state": "OH", 
            "street": "7 Limited Parkway", 
            "latitude": 39.982219154551998
          }
        }, 
        {
          "category": "Retail and consumer merchandise", 
          "name": "Academy Sports + Outdoors", 
          "id": "368446079376", 
          "category_list": [
            {
              "id": "186982054657561", 
              "name": "Sports & Recreation"
            }, 
            {
              "id": "165823830131654", 
              "name": "Sporting Goods Store"
            }
          ], 
          "location": {
            "city": "Katy", 
            "zip": "77449", 
            "country": "United States", 
            "longitude": -95.751483772277993, 
            "state": "TX", 
            "street": "1800 N. Mason Road", 
            "latitude": 29.798550672425002
          }
        }, 
        {
          "category": "Computers/technology", 
          "name": "WD", 
          "id": "86850570385", 
          "category_list": [
            {
              "id": "152142351517013", 
              "name": "Corporate Office"
            }
          ], 
          "location": {
            "city": "Irvine", 
            "zip": "92612", 
            "country": "United States", 
            "longitude": -117.84081655303, 
            "state": "CA", 
            "street": "3355 Michelson Drive, Suite 100 ", 
            "latitude": 33.673058061898999
          }
        }, 
        {
          "category": "Company", 
          "name": "T-Mobile", 
          "id": "108726828894", 
          "category_list": [
            {
              "id": "200600219953504", 
              "name": "Shopping & Retail"
            }
          ], 
          "location": {
            "city": "Bellevue", 
            "zip": "", 
            "country": "United States", 
            "longitude": -87.813477387099994, 
            "state": "WA", 
            "street": "", 
            "latitude": 42.024719635799997
          }
        }, 
        {
          "category": "Health/medical/pharmaceuticals", 
          "name": "\u0643\u0644 \u064a\u0648\u0645 \u0645\u0639\u0644\u0648\u0645\u0629 \u0637\u0628\u064a\u0629", 
          "id": "235730276873", 
          "category_list": [
            {
              "id": "145118935550090", 
              "name": "Medical & Health"
            }
          ], 
          "location": {
            "city": "Cairo", 
            "zip": "", 
            "country": "Egypt", 
            "longitude": 31.224350973511001, 
            "state": "", 
            "street": "Nasr City ", 
            "latitude": 30.059548605416001
          }
        }, 
        {
          "category": "Landmark", 
          "name": "McDonald's", 
          "id": "112280112117874", 
          "category_list": [
            {
              "id": "132069576863996", 
              "name": "Take Out Restaurant"
            }
          ], 
          "location": {
            "city": "Midwest City", 
            "zip": "", 
            "country": "United States", 
            "longitude": -117.2946, 
            "state": "OK", 
            "street": "", 
            "latitude": 34.125500000000002
          }
        }, 
        {
          "category": "Church/religious organization", 
          "name": "GodVine", 
          "id": "145138128859694", 
          "category_list": [
            {
              "id": "187714557925874", 
              "name": "Religious Organization"
            }
          ], 
          "location": {
            "city": "Richmond", 
            "zip": "", 
            "country": "United States", 
            "longitude": -77.459471600000001, 
            "state": "VA", 
            "street": "", 
            "latitude": 37.5379
          }
        }, 
        {
          "category": "Media/news/publishing", 
          "name": "Globo Esporte", 
          "id": "22344895408", 
          "category_list": [
            {
              "id": "189018581118681", 
              "name": "Sports Club"
            }
          ], 
          "location": {
            "city": "Rio de Janeiro", 
            "zip": "22460-900", 
            "country": "Brazil", 
            "longitude": -43.222157912999997, 
            "state": "", 
            "street": "Rua Von Martius 22, Jardim Bot\u00e2nico", 
            "latitude": -22.9651183842
          }
        }, 
        {
          "category": "Company", 
          "name": "Microsoft", 
          "id": "20528438720", 
          "category_list": [
            {
              "id": "2200", 
              "name": "Company"
            }
          ], 
          "location": {
            "city": "Redmond", 
            "zip": "", 
            "country": "United States", 
            "longitude": -122.13697775572, 
            "state": "WA", 
            "street": "", 
            "latitude": 47.642085631607003
          }
        }, 
        {
          "category": "Local business", 
          "name": "Cristiano Ronaldo & Lionel Messi", 
          "id": "422215051241172", 
          "category_list": [
            {
              "id": "2500", 
              "name": "Local Business"
            }
          ], 
          "location": {
            "city": "Amman", 
            "zip": "0000", 
            "country": "Jordan", 
            "longitude": 35.933300000000003, 
            "state": "", 
            "street": "jordan", 
            "latitude": 31.949999999999999
          }
        }, 
        {
          "category": "Retail and consumer merchandise", 
          "name": "Brandsclub", 
          "id": "138379445204", 
          "category_list": [
            {
              "id": "177721448951559", 
              "name": "Workplace & Office"
            }, 
            {
              "id": "128698093865240", 
              "name": "Outlet Store"
            }
          ], 
          "location": {
            "city": "S\u00e3o Paulo", 
            "zip": "01442-002", 
            "country": "Brazil", 
            "longitude": -46.693642501254999, 
            "state": "", 
            "street": "Alameda Gabriel Monteiro da Silva, 2866", 
            "latitude": -23.577696267602001
          }
        }, 
        {
          "category": "Community/government", 
          "name": "Extreme Videos", 
          "id": "1429668193913930", 
          "category_list": [
            {
              "id": "129417183848258", 
              "name": "Just For Fun"
            }
          ], 
          "location": {
            "city": "San Francisco", 
            "zip": "94123", 
            "country": "United States", 
            "longitude": -74.158593474699998, 
            "state": "CA", 
            "street": "", 
            "latitude": 40.8882878418
          }
        }, 
        {
          "category": "City", 
          "name": "Paradise, Nevada", 
          "id": "107894812567127", 
          "category_list": [
            {
              "id": "165679780146824", 
              "name": "Food & Restaurant"
            }, 
            {
              "id": "354275401259620", 
              "name": "Nightlife"
            }, 
            {
              "id": "224455390913969", 
              "name": "City"
            }
          ], 
          "location": {
            "city": "Las Vegas", 
            "zip": "89109", 
            "country": "United States", 
            "longitude": -74.152360000000002, 
            "state": "NV", 
            "street": "Paradise Town Board, 4775 McLeod", 
            "latitude": 41.080339000000002
          }
        }, 
        {
          "category": "Bar", 
          "name": "\u00c3\u0139\u1ed6\u0147\u1eb8 \u4e2d", 
          "id": "1392663734308675", 
          "category_list": [
            {
              "id": "178669642178193", 
              "name": "Social Services"
            }, 
            {
              "id": "197384240287028", 
              "name": "Art Gallery"
            }
          ], 
          "location": {
            "city": "Tianjin", 
            "zip": "Zi Jin Shan Road, He Xi", 
            "country": "China", 
            "longitude": -74.0076293029, 
            "state": "", 
            "street": "300074 ", 
            "latitude": 40.709057732799998
          }
        }, 
        {
          "category": "Local business", 
          "name": "Kota Batam", 
          "id": "130180450441952", 
          "category_list": [
            {
              "id": "224455390913969", 
              "name": "City"
            }, 
            {
              "id": "188662441155211", 
              "name": "Community & Government"
            }
          ], 
          "location": {
            "city": "Batam", 
            "zip": "29432", 
            "country": "Indonesia", 
            "longitude": 104.05547659598, 
            "state": "", 
            "street": "", 
            "latitude": 1.0278835554829
          }
        }, 
        {
          "category": "Company", 
          "name": "M\u00f4, vem c\u00e1 :3", 
          "id": "197438673774050", 
          "category_list": [
            {
              "id": "2200", 
              "name": "Company"
            }
          ], 
          "location": {
            "city": "Rio de Janeiro", 
            "zip": "21765280", 
            "country": "Brazil", 
            "longitude": -43.636638095626999, 
            "state": "", 
            "street": "Rio de Janeiro, 232", 
            "latitude": -22.892073427871001
          }
        }, 
        {
          "category": "Company", 
          "name": "Asyad real estate", 
          "id": "234763173350323", 
          "category_list": [
            {
              "id": "198327773511962", 
              "name": "Real Estate"
            }
          ], 
          "location": {
            "city": "Amman", 
            "zip": "11953 - 4632", 
            "country": "Jordan", 
            "longitude": 31.816666666667, 
            "state": "", 
            "street": "khlda-amer bin malek st.", 
            "latitude": 31.416666666666998
          }
        }, 
        {
          "category": "Local business", 
          "name": "\u0627\u0644\u062d\u0644\u0632\u0648\u0646\u0647 \u064a\u0627 \u0627\u0645\u0627 \u0627\u0644\u062d\u0644\u0632\u0648\u0646\u0647 \uc218", 
          "id": "483850681728937", 
          "category_list": [
            {
              "id": "110186619064706", 
              "name": "Comedy Club"
            }
          ], 
          "location": {
            "city": "Las Vegas", 
            "zip": "12345", 
            "country": "United States", 
            "longitude": 31.816666666667, 
            "state": "NV", 
            "street": "123th las vegaz", 
            "latitude": 31.416666666666998
          }
        }, 
        {
          "category": "Studio", 
          "name": "Radio Jawhara FM", 
          "id": "1482330958657687", 
          "category_list": [
            {
              "id": "198121916870488", 
              "name": "Radio & Communication Equipment"
            }
          ], 
          "location": {
            "city": "Paris", 
            "zip": "", 
            "country": "France", 
            "longitude": 2.43912, 
            "state": "", 
            "street": "", 
            "latitude": 48.844515000000001
          }
        }, 
        {
          "category": "University", 
          "name": "T\u1edb th\u00edch c\u1eadu 1 ch\u00fat th\u00f4i nh\u01b0ng \u0111\u1ee7 \u0111\u1ec3 c\u1eadu chi\u1ebfm 1 ph\u1ea7n l\u1edbn tr\u00e1i tim t\u1edb :X", 
          "id": "550887231663406", 
          "category_list": [
            {
              "id": "152880021441864", 
              "name": "Community Organization"
            }
          ], 
          "location": {
            "city": "Ho Chi Minh City", 
            "zip": "", 
            "country": "Vietnam", 
            "longitude": 106.69063517833, 
            "street": "251, Phan V\u0103n Tr\u1ecb, G\u00f2 V\u1ea5p, th\u00e0nh ph\u1ed1 H\u1ed3 Ch\u00ed Minh", 
            "latitude": 10.771082992410999
          }
        }, 
        {
          "category": "Bar", 
          "name": "Eu e voc\u00ea, casal perfeito", 
          "id": "233677816792566", 
          "category_list": [
            {
              "id": "110290705711626", 
              "name": "Bar"
            }
          ], 
          "location": {
            "city": "S\u00e3o Jos\u00e9 do Rio Pr\u00eato", 
            "zip": "15090-000", 
            "country": "Brazil", 
            "longitude": -49.400381043079001, 
            "state": "", 
            "street": "Av. Brg. Faria Lima,6363", 
            "latitude": -20.835722625424999
          }
        }, 
        {
          "category": "Bar", 
          "name": "Mulheres inteligentes", 
          "id": "360527974091637", 
          "category_list": [
            {
              "id": "144873802247220", 
              "name": "Cosmetics & Beauty Supply"
            }
          ], 
          "location": {
            "city": "S\u00e3o Gon\u00e7alo", 
            "zip": "24455530", 
            "country": "Brazil", 
            "longitude": -43.030854099999999, 
            "state": "", 
            "street": "Av Presidente Kennedy", 
            "latitude": -22.832553399999998
          }
        }, 
        {
          "category": "Local business", 
          "name": "nile.com", 
          "id": "1431972687016205", 
          "category_list": [
            {
              "id": "200600219953504", 
              "name": "Shopping & Retail"
            }
          ], 
          "location": {
            "city": "Giza", 
            "zip": "11511", 
            "country": "Egypt", 
            "longitude": 31.216666666666999, 
            "state": "", 
            "street": "", 
            "latitude": 30.016666666667, 
            "located_in": 114477788569282
          }
        }, 
        {
          "category": "Movie theater", 
          "name": "\u00c7\u00f6M\u00e8 B\u1eb5\u00c7k T\u00f6 M\u00e8", 
          "id": "326250810850160", 
          "category_list": [
            {
              "id": "192511100766680", 
              "name": "Movie Theatre"
            }
          ], 
          "location": {
            "city": "Amman", 
            "zip": "00000", 
            "country": "Jordan", 
            "longitude": 35.933300000000003, 
            "state": "", 
            "street": "amman", 
            "latitude": 31.949999999999999
          }
        }, 
        {
          "category": "Movie theater", 
          "name": "Aljazeera Sport News", 
          "id": "539170516169515", 
          "category_list": [
            {
              "id": "189018581118681", 
              "name": "Sports Club"
            }
          ], 
          "location": {
            "city": "Amman", 
            "zip": "0000000", 
            "country": "Jordan", 
            "longitude": 35.933300000000003, 
            "state": "", 
            "street": "JORDAN", 
            "latitude": 31.949999999999999
          }
        }, 
        {
          "category": "Media/news/publishing", 
          "name": "GMA News", 
          "id": "116724526976", 
          "category_list": [
            {
              "id": "169056916473899", 
              "name": "Broadcasting & Media Production"
            }
          ], 
          "location": {
            "city": "Quezon City", 
            "zip": "1101", 
            "country": "Philippines", 
            "longitude": 121.04405964474, 
            "state": "", 
            "street": "Newsroom, GMA Network Center, Timog Avenue, Diliman", 
            "latitude": 14.633215279930999
          }
        }, 
        {
          "category": "Business services", 
          "name": "Fashion Daily", 
          "id": "1403329549904143", 
          "category_list": [
            {
              "id": "110290705711626", 
              "name": "Bar"
            }
          ], 
          "location": {
            "city": "Chicago", 
            "zip": "60654", 
            "country": "United States", 
            "longitude": -87.629889000000006, 
            "state": "IL", 
            "street": "690 N Dearborn st", 
            "latitude": 41.894632999999999
          }
        }, 
        {
          "category": "Shopping/retail", 
          "name": "Mam\u00e3e passou a\u00e7\u00facar em mim", 
          "id": "358509897617247", 
          "category_list": [
            {
              "id": "192614304101075", 
              "name": "Children's Clothing Store"
            }
          ], 
          "location": {
            "city": "Rio Pardo", 
            "zip": "96640-000", 
            "country": "Brazil", 
            "longitude": -52.369460098045003, 
            "state": "", 
            "street": "Avenida Rio Branco 481 - Boa Vista", 
            "latitude": -29.976728863712999
          }
        }, 
        {
          "category": "Local business", 
          "name": "J'adore Aksesor", 
          "id": "562827700455795", 
          "category_list": [
            {
              "id": "128753240528981", 
              "name": "Women's Clothing Store"
            }
          ], 
          "location": {
            "city": "Tirana", 
            "zip": "", 
            "country": "Albania", 
            "longitude": 19.824510863593002, 
            "state": "", 
            "street": "Rruga Sami Frasheri", 
            "latitude": 41.330488652614001
          }
        }, 
        {
          "category": "Shopping/retail", 
          "name": "25 Park", 
          "id": "232395366778941", 
          "category_list": [
            {
              "id": "128753240528981", 
              "name": "Women's Clothing Store"
            }
          ], 
          "location": {
            "city": "New York", 
            "zip": "10021", 
            "country": "United States", 
            "longitude": -73.959655999999995, 
            "state": "NY", 
            "street": "1296 Third Ave ", 
            "latitude": 40.771610000000003
          }
        }, 
        {
          "category": "Company", 
          "name": "\ufe7eIndian Actors Fans Club", 
          "id": "178651615669530", 
          "category_list": [
            {
              "id": "2200", 
              "name": "Company"
            }
          ], 
          "location": {
            "city": "Paris", 
            "zip": "7500", 
            "country": "France", 
            "longitude": 2.43912, 
            "state": "", 
            "street": "paris", 
            "latitude": 48.844515000000001
          }
        }, 
        {
          "category": "Local business", 
          "name": "Best Videos & Amazing Photos", 
          "id": "651713594868970", 
          "category_list": [
            {
              "id": "2500", 
              "name": "Local Business"
            }
          ], 
          "location": {
            "city": "Cairo", 
            "zip": "11331", 
            "country": "Egypt", 
            "longitude": 29.9192, 
            "state": "", 
            "street": "masr w sodan", 
            "latitude": 31.1981
          }
        }, 
        {
          "category": "Computers/technology", 
          "name": "\u0642\u0637\u0627\u0639 \u0627\u0644\u062a\u062f\u0631\u064a\u0628 \u0628\u0646\u0642\u0627\u0628\u0629 \u0627\u0644\u062a\u062c\u0627\u0631\u064a\u064a\u0646 - Mcc Academy", 
          "id": "426137747512700", 
          "category_list": [
            {
              "id": "2255", 
              "name": "Computers/Technology"
            }
          ], 
          "location": {
            "city": "Giza", 
            "zip": "12655", 
            "country": "Egypt", 
            "longitude": -74.020240000000001, 
            "state": "", 
            "street": "\u0627\u0644\u0645\u0642\u0631 \u0627\u0644\u0631\u0626\u064a\u0633\u064a: 2 \u0623 \u0634\u0627\u0631\u0639 \u0627\u0644\u062f\u0643\u062a\u0648\u0631 \u0627\u0644\u0645\u062d\u0631\u0648\u0642\u064a \u0645\u0646 \u0627\u0644\u0628\u0637\u0644 \u0623\u062d\u0645\u062f \u0639\u0628\u062f \u0627\u0644\u0639\u0632\u064a\u0632 - \u0627\u0644\u0645\u0647\u0646\u062f\u0633\u064a\u0646 ", 
            "latitude": 40.617708999999998
          }
        }, 
        {
          "category": "Hotel", 
          "name": "Fc Barcelona com", 
          "id": "515857845123305", 
          "category_list": [
            {
              "id": "164243073639257", 
              "name": "Hotel"
            }
          ], 
          "location": {
            "city": "Rome", 
            "zip": "00118", 
            "country": "Italy", 
            "longitude": 106.878473214, 
            "state": "", 
            "street": "", 
            "latitude": -6.9648389444000003
          }
        }, 
        {
          "category": "Community/government", 
          "name": "\u10e6 \u0627\u0644\u0637\u0651\u064e\u064a\u0651\u0650\u0640\u0640\u0640\u0628\u064f\u0640\u0640\u0640\u0640\u0640\u0648\u0646\u064e \u0644\u0650\u0644\u0637\u0651\u064e\u0640\u0640\u0640\u0640\u064a\u0651\u0650\u0628\u064e\u0640\u0640\u0640\u0640\u0640\u0627\u062a\u0650  \u10e6", 
          "id": "466583406791877", 
          "category_list": [
            {
              "id": "115090141929327", 
              "name": "Park"
            }
          ], 
          "location": {
            "city": "Paris", 
            "zip": "750000", 
            "country": "France", 
            "longitude": 2.3508, 
            "state": "", 
            "street": "", 
            "latitude": 48.856699999999996
          }
        }, 
        {
          "category": "Company", 
          "name": "Dogs: The Woof Works", 
          "id": "82955505846", 
          "category_list": [
            {
              "id": "187133811318958", 
              "name": "Business Services"
            }
          ], 
          "location": {
            "city": "Vestal", 
            "zip": "13850", 
            "country": "United States", 
            "longitude": -75.957747999999995, 
            "state": "NY", 
            "street": "1705 Campus. Dr.", 
            "latitude": 42.064255000000003
          }
        }, 
        {
          "category": "Movie theater", 
          "name": "\u00a3ov\u20ac \u00a1s \u00a1n the a\u00a1r", 
          "id": "216298598543983", 
          "category_list": [
            {
              "id": "192511100766680", 
              "name": "Movie Theatre"
            }
          ], 
          "location": {
            "city": "Pensilvania", 
            "zip": "", 
            "country": "Colombia", 
            "longitude": 77.230000000000004, 
            "street": "", 
            "latitude": 28.609999999999999
          }
        }, 
        {
          "category": "Movie theater", 
          "name": "Oye :3 , Quee? , TeNecesitoJuntoAmi *-*", 
          "id": "110673362399420", 
          "category_list": [
            {
              "id": "192511100766680", 
              "name": "Movie Theatre"
            }
          ], 
          "location": {
            "city": "Culiac\u00e1n", 
            "zip": "80029", 
            "country": "Mexico", 
            "longitude": -73.143446299999994, 
            "state": "", 
            "street": "Culiacan Sinaloa Mexico", 
            "latitude": -36.848185970000003
          }
        }, 
        {
          "category": "Community/government", 
          "name": "\u0627\u0646\u0627\u0634\u064a\u062f \u0627\u0633\u0644\u0627\u0645\u064a\u0629\u30c3", 
          "id": "442437342523267", 
          "category_list": [
            {
              "id": "115090141929327", 
              "name": "Park"
            }
          ], 
          "location": {
            "city": "Paris", 
            "zip": "75008", 
            "country": "France", 
            "longitude": 2.3508, 
            "state": "", 
            "street": "", 
            "latitude": 48.856699999999996, 
            "located_in": 110774245616525
          }
        }, 
        {
          "category": "Church/religious organization", 
          "name": "Ultras Muhammad The Prophet", 
          "id": "178660789003091", 
          "category_list": [
            {
              "id": "187714557925874", 
              "name": "Religious Organization"
            }
          ], 
          "location": {
            "city": "Cairo", 
            "zip": "00000", 
            "country": "Egypt", 
            "longitude": 31.228899999999999, 
            "state": "", 
            "street": "cairo", 
            "latitude": 30.0581
          }
        }, 
        {
          "category": "Arts/entertainment/nightlife", 
          "name": "Truy\u00ea\u0323n Ng\u0103\u0301n Ti\u0300nh Y\u00eau", 
          "id": "182860595239801", 
          "category_list": [
            {
              "id": "152880021441864", 
              "name": "Community Organization"
            }
          ], 
          "location": {
            "city": "Ho Chi Minh City", 
            "zip": "7000", 
            "country": "Vietnam", 
            "longitude": 105.996639485, 
            "street": "", 
            "latitude": 21.206722001799999
          }
        }, 
        {
          "category": "Media/news/publishing", 
          "name": "\u0645\u0635\u0631 \u0627\u0644\u0627\u0646", 
          "id": "1408353442733925", 
          "category_list": [
            {
              "id": "108366235907857", 
              "name": "Newspaper"
            }
          ], 
          "location": {
            "city": "Cairo", 
            "zip": "000000000", 
            "country": "Egypt", 
            "longitude": -74.020240000000001, 
            "state": "", 
            "street": "", 
            "latitude": 40.617708999999998
          }
        }, 
        {
          "category": "Company", 
          "name": "Amazing videos", 
          "id": "151235601599321", 
          "category_list": [
            {
              "id": "197289820310880", 
              "name": "Home"
            }
          ], 
          "location": {
            "city": "Amman", 
            "zip": "8000000", 
            "country": "Jordan", 
            "longitude": 79.773764, 
            "state": "", 
            "street": "", 
            "latitude": 11.7993294, 
            "located_in": 106185066079121
          }
        }, 
        {
          "category": "Community organization", 
          "name": "Ultras Morsian", 
          "id": "140050319534957", 
          "category_list": [
            {
              "id": "152880021441864", 
              "name": "Community Organization"
            }
          ], 
          "location": {
            "city": "Cairo", 
            "zip": "11758", 
            "country": "Egypt", 
            "longitude": 31.234843656300001, 
            "state": "", 
            "street": "", 
            "latitude": 30.0573541065
          }
        }, 
        {
          "category": "Local business", 
          "name": "Suricate seboso", 
          "id": "255108341285168", 
          "category_list": [
            {
              "id": "133436743388217", 
              "name": "Arts & Entertainment"
            }
          ], 
          "location": {
            "city": "Fortaleza", 
            "zip": "60115-080", 
            "country": "Brazil", 
            "longitude": -38.515066531800002, 
            "state": "", 
            "street": "Rua bar\u00e3o de aracati, 1473", 
            "latitude": -3.79742354004
          }
        }, 
        {
          "category": "Company", 
          "name": "\u318dHusky Lovers\u318d", 
          "id": "674993169206912", 
          "category_list": [
            {
              "id": "188662441155211", 
              "name": "Community & Government"
            }
          ], 
          "location": {
            "city": "Amman", 
            "zip": "00000", 
            "country": "Jordan", 
            "longitude": 35.933300000000003, 
            "state": "", 
            "street": "amman", 
            "latitude": 31.949999999999999
          }
        }, 
        {
          "category": "Doctor", 
          "name": "The Vampire Diaries.", 
          "id": "646662932052411", 
          "category_list": [
            {
              "id": "1608", 
              "name": "Doctor"
            }
          ], 
          "location": {
            "city": "Pensilvania", 
            "zip": "", 
            "country": "Colombia", 
            "longitude": 17.930380530000001, 
            "street": "", 
            "latitude": 40.627722452926001
          }
        }, 
        {
          "category": "Book store", 
          "name": "Stella biricchina", 
          "id": "225541627606500", 
          "category_list": [
            {
              "id": "139745066094977", 
              "name": "Business Center"
            }
          ], 
          "location": {
            "city": "Bari", 
            "zip": "70122", 
            "country": "Italy", 
            "longitude": 16.868324037526001, 
            "state": "", 
            "street": "Via Scipione Crisanzio 16", 
            "latitude": 41.119722905282003
          }
        }, 
        {
          "category": "Engineering/construction", 
          "name": "Al Karmel General Maintenance Contracting ", 
          "id": "674691095898272", 
          "category_list": [
            {
              "id": "188569091163640", 
              "name": "Construction Service & Supply"
            }
          ], 
          "location": {
            "city": "`Ajman", 
            "zip": "12864", 
            "country": "United Arab Emirates", 
            "longitude": 55.132108431600003, 
            "state": "", 
            "street": "", 
            "latitude": 25.075487045900001
          }
        }, 
        {
          "category": "Company", 
          "name": "Pirulin", 
          "id": "291051134360061", 
          "category_list": [
            {
              "id": "2200", 
              "name": "Company"
            }
          ], 
          "location": {
            "city": "Caracas", 
            "zip": "", 
            "country": "Venezuela", 
            "longitude": 16.869868435669002, 
            "state": "", 
            "street": "", 
            "latitude": 41.123235076233001
          }
        }, 
        {
          "category": "Automotive", 
          "name": "Sp\u00e9cialit\u00e9 M\u00f4to Et v\u00d4iture alg\u00e9rienne \u30c4", 
          "id": "177937282407467", 
          "category_list": [
            {
              "id": "182575511780536", 
              "name": "Car Parts & Accessories"
            }
          ], 
          "location": {
            "city": "Algiers", 
            "zip": "", 
            "country": "Algeria", 
            "longitude": -2.6166700000000001, 
            "state": "", 
            "street": "", 
            "latitude": 57.333300000000001
          }
        }, 
        {
          "category": "Bar", 
          "name": "Eu amo o meu pai", 
          "id": "555163487900222", 
          "category_list": [
            {
              "id": "110290705711626", 
              "name": "Bar"
            }
          ], 
          "location": {
            "city": "Mogi das Cruzes", 
            "zip": "08773-520", 
            "country": "Brazil", 
            "longitude": -46.033299999999997, 
            "state": "", 
            "street": "Rua Delphino Greg\u00f3rio, 767", 
            "latitude": -23.583300000000001
          }
        }, 
        {
          "category": "Consulting/business services", 
          "name": "I Love Me", 
          "id": "382043585262917", 
          "category_list": [
            {
              "id": "2248", 
              "name": "Consulting/Business Services"
            }
          ], 
          "location": {
            "city": "Paris", 
            "zip": "75001", 
            "country": "France", 
            "longitude": 96.011536074899993, 
            "state": "", 
            "street": "paris", 
            "latitude": 5.2959509566499996
          }
        }, 
        {
          "category": "Spas/beauty/personal care", 
          "name": "Nail Art", 
          "id": "350128951735548", 
          "category_list": [
            {
              "id": "144873802247220", 
              "name": "Cosmetics & Beauty Supply"
            }
          ], 
          "location": {
            "city": "Santa Monica", 
            "zip": "90401", 
            "country": "United States", 
            "longitude": -118.48099999999999, 
            "state": "CA", 
            "street": "", 
            "latitude": 34.022100000000002
          }
        }, 
        {
          "category": "Company", 
          "name": "\u0643\u0646 \u0627\u0646\u064a\u0640\u0640\u064c\u0642", 
          "id": "217122145081580", 
          "category_list": [
            {
              "id": "108366235907857", 
              "name": "Newspaper"
            }
          ], 
          "location": {
            "city": "Amman", 
            "zip": "+962", 
            "country": "Jordan", 
            "longitude": 35.933300000000003, 
            "state": "", 
            "street": "Jordan", 
            "latitude": 31.949999999999999
          }
        }, 
        {
          "category": "Arts/entertainment/nightlife", 
          "name": "Mahmoud Frans Hair Dresser", 
          "id": "159139130954883", 
          "category_list": [
            {
              "id": "174177802634376", 
              "name": "Hair Salon"
            }
          ], 
          "location": {
            "city": "Cairo", 
            "zip": "11311", 
            "country": "Egypt", 
            "longitude": 31.331602100000001, 
            "state": "", 
            "street": "https://www.facebook.com/frans.cbr.1", 
            "latitude": 30.064739800000002
          }
        }, 
        {
          "category": "Spas/beauty/personal care", 
          "name": "Doce Pel\u00edcula", 
          "id": "308415159294823", 
          "category_list": [
            {
              "id": "176831012360626", 
              "name": "Professional Services"
            }
          ], 
          "location": {
            "city": "Pelotas", 
            "zip": "96072090", 
            "country": "Brazil", 
            "longitude": -53.367644919706002, 
            "state": "", 
            "street": "Rua Professor Rubens Gotuzzo Moreira  3050", 
            "latitude": -33.738282067421999
          }
        }, 
        {
          "category": "Local business", 
          "name": "\u0627\u0636\u062d\u0643 \u0648 \u0639\u062f\u064a\u0647\u0627 \u0627\u0644\u0646\u0627\u0633 \u0644\u0628\u0639\u0636\u064a\u0647\u0627", 
          "id": "1390251824548538", 
          "category_list": [
            {
              "id": "2500", 
              "name": "Local Business"
            }
          ], 
          "location": {
            "city": "Cairo", 
            "zip": "", 
            "country": "Egypt", 
            "longitude": 31.198600390999999, 
            "state": "", 
            "street": "", 
            "latitude": 30.054755844199999, 
            "located_in": 102607193151165
          }
        }, 
        {
          "category": "Bar", 
          "name": "\u062a\u0645\u0644\u064a \u0645\u0639\u0627\u0643", 
          "id": "220428924801072", 
          "category_list": [
            {
              "id": "110290705711626", 
              "name": "Bar"
            }
          ], 
          "location": {
            "city": "Cairo", 
            "zip": "12656", 
            "country": "Egypt", 
            "longitude": -74.019042999999996, 
            "state": "", 
            "street": "", 
            "latitude": 40.618416000000003
          }
        }, 
        {
          "category": "Company", 
          "name": "Eu te amo & mais nada \u5408", 
          "id": "573312356051874", 
          "category_list": [
            {
              "id": "124994474239211", 
              "name": "Amusement"
            }
          ], 
          "location": {
            "city": "Hong Kong", 
            "zip": "000000", 
            "country": "Hong Kong", 
            "longitude": -74.579615939999996, 
            "street": "", 
            "latitude": -8.4082776700000004, 
            "located_in": 431571086939612
          }
        }, 
        {
          "category": "Media/news/publishing", 
          "name": "\u062e\u0644\u064a\u0643 \u0645\u062a\u0627\u0628\u0639", 
          "id": "631662656877121", 
          "category_list": [
            {
              "id": "197289820310880", 
              "name": "Home"
            }
          ], 
          "location": {
            "city": "Cairo", 
            "zip": "", 
            "country": "Egypt", 
            "longitude": 29.9192, 
            "state": "", 
            "street": "", 
            "latitude": 31.1981
          }
        }, 
        {
          "category": "Hotel", 
          "name": "Rafael Rezende1", 
          "id": "162533987251594", 
          "category_list": [
            {
              "id": "164243073639257", 
              "name": "Hotel"
            }
          ], 
          "location": {
            "city": "Coelho da Rocha", 
            "zip": "25550590", 
            "country": "Brazil", 
            "longitude": -43.385520119890998, 
            "state": "", 
            "street": "Rua belkiss 121", 
            "latitude": -22.778242352882
          }
        }, 
        {
          "category": "Book store", 
          "name": "\u0645\u0645\u0627 \u0642\u0631\u0623\u062a", 
          "id": "174125659312142", 
          "category_list": [
            {
              "id": "197048876974331", 
              "name": "Book Store"
            }, 
            {
              "id": "169896676390222", 
              "name": "Library"
            }, 
            {
              "id": "187751327923426", 
              "name": "Educational Organization"
            }
          ], 
          "location": {
            "city": "Cairo", 
            "zip": "11711", 
            "country": "Egypt", 
            "longitude": 31.228899999999999, 
            "state": "", 
            "street": "maadi, cario, egypt ", 
            "latitude": 30.0581
          }
        }, 
        {
          "category": "Organization", 
          "name": "L\u03b9l\u03b9 \u10e6 \u0645\u0643\u0629 \u0627\u0644\u0645\u0643\u0631\u0645\u0629  \u10e6 \u03b9l\u03b9l", 
          "id": "1381489318738331", 
          "category_list": [
            {
              "id": "198503866828628", 
              "name": "Organization"
            }
          ], 
          "location": {
            "city": "Cairo", 
            "zip": "", 
            "country": "Egypt", 
            "longitude": 31.245095816799999, 
            "state": "", 
            "street": "", 
            "latitude": 30.061837787999998
          }
        }, 
        {
          "category": "Community organization", 
          "name": "Movimento Brasil Merece Mais", 
          "id": "725933127422930", 
          "category_list": [
            {
              "id": "152880021441864", 
              "name": "Community Organization"
            }
          ], 
          "location": {
            "city": "S\u00e3o Paulo", 
            "zip": "", 
            "country": "Brazil", 
            "longitude": -46.639190103200001, 
            "state": "", 
            "street": "", 
            "latitude": -23.5167686978
          }
        }, 
        {
          "category": "Spas/beauty/personal care", 
          "name": "Tamer dahab makeup artist", 
          "id": "251424751680642", 
          "category_list": [
            {
              "id": "139225689474222", 
              "name": "Spa, Beauty & Personal Care"
            }
          ], 
          "location": {
            "city": "Cairo", 
            "zip": "11211", 
            "country": "Egypt", 
            "longitude": 29.9192, 
            "state": "", 
            "street": "\u0628\u0631\u062c 3 \u0627\u0628\u0631\u0627\u062c \u0627\u0644\u0634\u0631\u0643\u0647 \u0627\u0644\u0633\u0639\u0648\u062f\u064a\u0647 \u0627\u0644\u0645\u0631\u064a\u0648\u0637\u064a\u0647 \u0627\u0644\u0647\u0631\u0645, dahabmakeup@yahoo.com", 
            "latitude": 31.1981
          }
        }, 
        {
          "category": "Club", 
          "name": "\u06a9\u0644\u0648\u067e \u062f\u062e\u062a\u0631 \u067e\u0633\u0631\u0647\u0627\u06cc \u0634\u06cc\u06a9 \u0628\u0627\u0644\u0627\u06cc 25 \u0633\u0627\u0644", 
          "id": "281426505315968", 
          "category_list": [
            {
              "id": "129417183848258", 
              "name": "Just For Fun"
            }, 
            {
              "id": "189018581118681", 
              "name": "Sports Club"
            }, 
            {
              "id": "133436743388217", 
              "name": "Arts & Entertainment"
            }
          ], 
          "location": {
            "city": "Tehran", 
            "zip": "", 
            "country": "Iran", 
            "longitude": 51.415746143600003, 
            "state": "", 
            "street": "", 
            "latitude": 35.639015897900002, 
            "located_in": 691164490908852
          }
        }, 
        {
          "category": "Arts/entertainment/nightlife", 
          "name": "\u30c3 \u0627\u0639\u0631\u0637 \u0648\u0633\u0644\u064a\u0646\u0622", 
          "id": "770542899639296", 
          "category_list": [
            {
              "id": "197871390225897", 
              "name": "Cafe"
            }
          ], 
          "location": {
            "city": "Qalqilyah", 
            "zip": "00972", 
            "country": "Palestine", 
            "longitude": 35.883742677546998, 
            "street": "amman-jordan/palestine", 
            "latitude": 31.963721816865
          }
        }, 
        {
          "category": "Club", 
          "name": "\u0627\u062d\u0641\u0638 \u0627\u0644\u0644\u0647 \u064a\u062d\u0641\u0638\u0643", 
          "id": "612722352122848", 
          "category_list": [
            {
              "id": "2101", 
              "name": "Club"
            }
          ], 
          "location": {
            "city": "Zarqa'", 
            "zip": "111111", 
            "country": "Jordan", 
            "longitude": 36.225606800000001, 
            "state": "", 
            "street": "", 
            "latitude": 32.087934500000003, 
            "located_in": 110576355635187
          }
        }, 
        {
          "category": "Local business", 
          "name": "\u062e\u0644\u064a\u0647\u0627", 
          "id": "499038466860397", 
          "category_list": [
            {
              "id": "110186619064706", 
              "name": "Comedy Club"
            }
          ], 
          "location": {
            "latitude": 31.949999999999999, 
            "street": "", 
            "zip": "", 
            "longitude": 35.933300000000003
          }
        }, 
        {
          "category": "Company", 
          "name": "Funny therapy\u7231", 
          "id": "1982402305232004", 
          "category_list": [
            {
              "id": "192511100766680", 
              "name": "Movie Theatre"
            }
          ], 
          "location": {
            "city": "Amman", 
            "zip": "0000", 
            "country": "Jordan", 
            "longitude": 27.081223654134, 
            "state": "", 
            "street": "amman", 
            "latitude": 38.395131931896998
          }
        }, 
        {
          "category": "Local business", 
          "name": "\u0623\u062e\u0628\u0627\u0631 \u0627\u0644\u0639\u0631\u0628", 
          "id": "376943235773553", 
          "category_list": [
            {
              "id": "197871390225897", 
              "name": "Cafe"
            }
          ], 
          "location": {
            "city": "Tangier", 
            "zip": "90000", 
            "country": "Morocco", 
            "longitude": -5.7999999999999998, 
            "state": "", 
            "street": "", 
            "latitude": 35.766666666667
          }
        }, 
        {
          "category": "Non-profit organization", 
          "name": "\u0627\u0644\u0644\u0647\u0645 \u0625\u062c\u0639\u0644 \u0623\u0628\u064a \u0631\u062c\u0644\u0627\u064b \u0645\u0646 \u0631\u062c\u0627\u0644 \u0623\u0647\u0644 \u0627\u0644\u062c\u0646\u0647", 
          "id": "1409562192611493", 
          "category_list": [
            {
              "id": "198503866828628", 
              "name": "Organization"
            }
          ], 
          "location": {
            "city": "Cairo", 
            "zip": "", 
            "country": "Egypt", 
            "longitude": 32.551664819999999, 
            "state": "", 
            "street": "", 
            "latitude": 29.966831559999999
          }
        }, 
        {
          "category": "Company", 
          "name": "Solo s\u00e9, Que Me-Gustas \u221e", 
          "id": "360986127381417", 
          "category_list": [
            {
              "id": "124994474239211", 
              "name": "Amusement"
            }
          ], 
          "location": {
            "city": "Ansan", 
            "zip": "", 
            "country": "South Korea", 
            "longitude": 103.842216902, 
            "state": "", 
            "street": "", 
            "latitude": 22.333907581399998
          }
        }, 
        {
          "category": "Local business", 
          "name": "I want a person who accidently come in my life and stays on a purpose.", 
          "id": "447228775382142", 
          "category_list": [
            {
              "id": "2500", 
              "name": "Local Business"
            }
          ], 
          "location": {
            "city": "Pensilvania", 
            "zip": "", 
            "country": "Colombia", 
            "longitude": 77.230000000000004, 
            "street": "", 
            "latitude": 28.609999999999999, 
            "located_in": 112679318820736
          }
        }, 
        {
          "category": "Local business", 
          "name": "Le petit \"Je T'aime\" dans l'oreille pendant un c\u00e2lin", 
          "id": "396750473788592", 
          "category_list": [
            {
              "id": "2500", 
              "name": "Local Business"
            }
          ], 
          "location": {
            "city": "Paris", 
            "zip": "0000", 
            "country": "France", 
            "longitude": 2.4603291, 
            "state": "", 
            "street": "zk00", 
            "latitude": 48.794528200000002
          }
        }, 
        {
          "category": "Non-profit organization", 
          "name": "\u0639\u0640\u0640\u0640\u0640\u0630 \u0631\u0623\u064b \u064a\u0640\u0640\u0640\u0627 \u062f\u0646\u0640\u0640\u0640\u064a\u0640\u0640\u0640\u0640\u0640\u0627 . \u0627\u0644\u0640\u0640\u0640\u0640\u0640\u062c\u0640\u0640\u0640\u0640\u0646\u0640\u0640\u0640\u0640\u0640\u0647 \u062a\u0640\u0640\u0640\u0646\u0640\u0640\u0640\u0627\u062f\u064a\u0640\u0640\u0640\u0640\u0640\u0646\u0640\u0640\u0640\u0640\u064a", 
          "id": "184733781716381", 
          "category_list": [
            {
              "id": "198503866828628", 
              "name": "Organization"
            }
          ], 
          "location": {
            "city": "Cairo", 
            "zip": "", 
            "country": "Egypt", 
            "longitude": 31.228899999999999, 
            "state": "", 
            "street": "", 
            "latitude": 30.0581
          }
        }, 
        {
          "category": "Retail and consumer merchandise", 
          "name": "Forever 21", 
          "id": "86746184549", 
          "category_list": [
            {
              "id": "2239", 
              "name": "Retail and Consumer Merchandise"
            }
          ], 
          "location": {
            "city": "Los Angeles", 
            "zip": "", 
            "country": "United States", 
            "longitude": 139.69956681233, 
            "state": "CA", 
            "street": "", 
            "latitude": 35.660306358785
          }
        }, 
        {
          "category": "Media/news/publishing", 
          "name": "\u0627\u0644\u0645\u0635\u0631\u064a \u0627\u0644\u064a\u0648\u0645", 
          "id": "280604969315", 
          "category_list": [
            {
              "id": "108366235907857", 
              "name": "Newspaper"
            }
          ], 
          "location": {
            "city": "Cairo", 
            "zip": "02020", 
            "country": "Egypt", 
            "longitude": 31.232655704999999, 
            "state": "", 
            "street": "49 \u0634\u0627\u0631\u0639 \u0627\u0644\u0645\u0628\u062a\u062f\u064a\u0627\u0646\u060c \u0645\u0646 \u0634\u0627\u0631\u0639 \u0627\u0644\u0642\u0635\u0631 \u0627\u0644\u0639\u064a\u0646\u064a", 
            "latitude": 30.036674704199999
          }
        }, 
        {
          "category": "Retail and consumer merchandise", 
          "name": "Lifestyle International", 
          "id": "318503670217", 
          "category_list": [
            {
              "id": "344508555610070", 
              "name": "Department Store"
            }
          ], 
          "location": {
            "city": "Bangalore", 
            "zip": "", 
            "country": "India", 
            "longitude": 77.614978881100001, 
            "state": "", 
            "street": "", 
            "latitude": 12.936304789499999
          }
        }, 
        {
          "category": "Health/beauty", 
          "name": "LUX", 
          "id": "140081102729564", 
          "category_list": [
            {
              "id": "139225689474222", 
              "name": "Spa, Beauty & Personal Care"
            }
          ], 
          "location": {
            "city": "Singapore", 
            "zip": "117439", 
            "country": "Singapore", 
            "longitude": 18.1202627302, 
            "street": "20 Pasir Panjang Road", 
            "latitude": 47.749023475400001
          }
        }, 
        {
          "category": "Shopping/retail", 
          "name": "Siam Paragon | \u0e2a\u0e22\u0e32\u0e21\u0e1e\u0e32\u0e23\u0e32\u0e01\u0e2d\u0e19", 
          "id": "137096719666941", 
          "category_list": [
            {
              "id": "109527622457518", 
              "name": "Shopping Mall"
            }, 
            {
              "id": "165679780146824", 
              "name": "Food & Restaurant"
            }
          ], 
          "location": {
            "city": "Bangkok", 
            "zip": "10330", 
            "country": "Thailand", 
            "longitude": 100.53392342878, 
            "state": "", 
            "street": "991 Rama 1 Road , Pathumwan", 
            "latitude": 13.746010615944
          }
        }, 
        {
          "category": "Non-profit organization", 
          "name": "National Association for Gun Rights", 
          "id": "111499100431", 
          "category_list": [
            {
              "id": "2603", 
              "name": "Non-Profit Organization"
            }
          ], 
          "location": {
            "city": "Aurora", 
            "zip": "", 
            "country": "United States", 
            "longitude": -104.823401074, 
            "state": "CO", 
            "street": "", 
            "latitude": 39.591739547099998
          }
        }, 
        {
          "category": "Company", 
          "name": "adidas", 
          "id": "179235812948", 
          "category_list": [
            {
              "id": "2200", 
              "name": "Company"
            }
          ], 
          "location": {
            "city": "Jakarta", 
            "zip": "", 
            "country": "Indonesia", 
            "longitude": 27.732379839899998, 
            "state": "", 
            "street": "", 
            "latitude": 38.089234100100001
          }
        }, 
        {
          "category": "Telecommunication", 
          "name": "TE Data", 
          "id": "90037898886", 
          "category_list": [
            {
              "id": "187215161312096", 
              "name": "Internet Service Provider"
            }
          ], 
          "location": {
            "city": "Cairo", 
            "zip": "12577", 
            "country": "Egypt", 
            "longitude": 31.209080341229001, 
            "state": "", 
            "street": "TE Data - Smart Village, Cairo, Egypt", 
            "latitude": 30.038598495559
          }
        }, 
        {
          "category": "Non-profit organization", 
          "name": "K\u00eanh Th\u00f4ng Tin-Gi\u1ea3i Tr\u00ed", 
          "id": "293937104052953", 
          "category_list": [
            {
              "id": "152880021441864", 
              "name": "Community Organization"
            }
          ], 
          "location": {
            "city": "Hanoi", 
            "zip": "1300", 
            "country": "Vietnam", 
            "longitude": 105.817616937, 
            "state": "", 
            "street": "Hanoi", 
            "latitude": 21.029301083
          }
        }, 
        {
          "category": "Non-governmental organization (ngo)", 
          "name": "\u0645\u0624\u0633\u0633\u0629 \u0645\u0633\u062a\u0634\u0641\u0649 \u0633\u0631\u0637\u0627\u0646 \u0627\u0644\u0627\u0637\u0641\u0627\u0644 57357", 
          "id": "127019927440517", 
          "category_list": [
            {
              "id": "2235", 
              "name": "Non-Governmental Organization (NGO)"
            }
          ], 
          "location": {
            "city": "Cairo", 
            "zip": "11441", 
            "country": "Egypt", 
            "longitude": 31.280636126600001, 
            "state": "", 
            "street": "1 Seket Al Emam Street \u2013 El-Madbah El-Kadeem Yard \u2013 El-Saida Zeinab", 
            "latitude": 30.0468530341
          }
        }, 
        {
          "category": "Outdoor gear/sporting goods", 
          "name": "Woodland", 
          "id": "201358371996", 
          "category_list": [
            {
              "id": "2231", 
              "name": "Outdoor Gear/Sporting Goods"
            }
          ], 
          "location": {
            "city": "Loretteville", 
            "zip": "G2A 1S3", 
            "country": "Canada", 
            "longitude": 28.316988500000001, 
            "state": "QC", 
            "street": "Rue Morissette", 
            "latitude": -25.8242346
          }
        }, 
        {
          "category": "Community organization", 
          "name": "Instintos del Corazon", 
          "id": "157312367701083", 
          "category_list": [
            {
              "id": "296862927058877", 
              "name": "Community Center"
            }
          ], 
          "location": {
            "city": "Los Olivos", 
            "zip": "0051", 
            "country": "Peru", 
            "longitude": 9.2076828332199998, 
            "state": "", 
            "street": "", 
            "latitude": 45.483896004100004
          }
        }, 
        {
          "category": "Media/news/publishing", 
          "name": "The Hindu", 
          "id": "163974433696568", 
          "category_list": [
            {
              "id": "108366235907857", 
              "name": "Newspaper"
            }
          ], 
          "location": {
            "city": "Chennai", 
            "zip": "600002", 
            "country": "India", 
            "longitude": -76.552590122500007, 
            "state": "", 
            "street": "859 & 860 Anna Salai", 
            "latitude": 3.4506153361899998
          }
        }, 
        {
          "category": "Tv network", 
          "name": "Food Network", 
          "id": "20534666726", 
          "category_list": [
            {
              "id": "1402", 
              "name": "TV Network"
            }
          ], 
          "location": {
            "city": "Clarksville", 
            "zip": "", 
            "country": "United States", 
            "longitude": -80.586801304100007, 
            "state": "TN", 
            "street": "", 
            "latitude": 40.940808939999997
          }
        }, 
        {
          "category": "Company", 
          "name": "\u697d\u5929\u5e02\u5834\uff08Rakuten, Inc.\uff09", 
          "id": "113926781984735", 
          "category_list": [
            {
              "id": "2200", 
              "name": "Company"
            }
          ], 
          "location": {
            "city": "Shinagawa-ku", 
            "zip": "142-0002", 
            "country": "Japan", 
            "longitude": 139.747715567, 
            "state": "Tokyo", 
            "street": "\u6771\u54c1\u5ddd4-12-3 \u54c1\u5ddd\u30b7\u30fc\u30b5\u30a4\u30c9\u697d\u5929\u30bf\u30ef\u30fc ", 
            "latitude": 35.609644162999999
          }
        }, 
        {
          "category": "Hospital/clinic", 
          "name": "Apollo Hospitals", 
          "id": "116772528383864", 
          "category_list": [
            {
              "id": "228143393877753", 
              "name": "Medical Center"
            }, 
            {
              "id": "133152263416981", 
              "name": "Hospital"
            }
          ], 
          "location": {
            "latitude": 12.896110692388, 
            "street": "", 
            "zip": "", 
            "longitude": 77.598310531001005
          }
        }, 
        {
          "category": "Media/news/publishing", 
          "name": "SuperSport Football", 
          "id": "129607710417781", 
          "category_list": [
            {
              "id": "192998244062607", 
              "name": "Sports Center"
            }
          ], 
          "location": {
            "city": "Ferndale", 
            "zip": "2123", 
            "country": "South Africa", 
            "longitude": 28.001276837485999, 
            "state": "", 
            "street": "137 Bram Fischer Drive", 
            "latitude": -26.102005364968001
          }
        }, 
        {
          "category": "Health/beauty", 
          "name": "Matrix Professional Haircare & Color", 
          "id": "187132594773382", 
          "category_list": [
            {
              "id": "2214", 
              "name": "Health/Beauty"
            }
          ], 
          "location": {
            "city": "New York", 
            "zip": "10017", 
            "country": "United States", 
            "longitude": -73.978531000000004, 
            "state": "NY", 
            "street": "575 5th Avenue", 
            "latitude": 40.756428
          }
        }, 
        {
          "category": "Non-profit organization", 
          "name": "Great White Shark Discovery Centre", 
          "id": "292236940915011", 
          "category_list": [
            {
              "id": "191523214199822", 
              "name": "Environmental Conservation"
            }
          ], 
          "location": {
            "city": "Port Lincoln", 
            "zip": "5606", 
            "country": "Australia", 
            "longitude": 135.88463637199999, 
            "state": "SA", 
            "street": "60 Tasman Terrace", 
            "latitude": -34.728295229099999
          }
        }, 
        {
          "category": "Food/beverages", 
          "name": "Gatorade", 
          "id": "63255458863", 
          "category_list": [
            {
              "id": "2252", 
              "name": "Food/Beverages"
            }
          ], 
          "location": {
            "city": "Chicago", 
            "zip": "", 
            "country": "United States", 
            "longitude": -87.641921896400007, 
            "state": "IL", 
            "street": "", 
            "latitude": 41.880777846900003
          }
        }, 
        {
          "category": "Media/news/publishing", 
          "name": "\u0645\u0635\u0631\u0627\u0648\u064a Masrawy", 
          "id": "120674707992667", 
          "category_list": [
            {
              "id": "108366235907857", 
              "name": "Newspaper"
            }
          ], 
          "location": {
            "city": "Cairo", 
            "zip": "11431", 
            "country": "Egypt", 
            "longitude": 31.250561520003998, 
            "state": "", 
            "street": "105 street", 
            "latitude": 29.966032998557001
          }
        }, 
        {
          "category": "Small business", 
          "name": "Olsi Tattoo", 
          "id": "535226086566668", 
          "category_list": [
            {
              "id": "188662441155211", 
              "name": "Community & Government"
            }
          ], 
          "location": {
            "city": "Tirana", 
            "zip": "1001", 
            "country": "Albania", 
            "longitude": 19.807259171199, 
            "state": "", 
            "street": "", 
            "latitude": 41.324184679885001
          }
        }, 
        {
          "category": "Local business", 
          "name": "Roma, Italia", 
          "id": "208686579172322", 
          "category_list": [
            {
              "id": "224455390913969", 
              "name": "City"
            }, 
            {
              "id": "197097220301977", 
              "name": "Historical Place"
            }
          ], 
          "location": {
            "city": "Rome", 
            "zip": "100", 
            "country": "Italy", 
            "longitude": 12.500514943465999, 
            "state": "", 
            "street": "", 
            "latitude": 41.898744187688997
          }
        }, 
        {
          "category": "Health/beauty", 
          "name": "Sou da Natura", 
          "id": "528168410552218", 
          "category_list": [
            {
              "id": "144873802247220", 
              "name": "Cosmetics & Beauty Supply"
            }, 
            {
              "id": "138322342904312", 
              "name": "Skin Care"
            }, 
            {
              "id": "191523214199822", 
              "name": "Environmental Conservation"
            }
          ], 
          "location": {
            "latitude": -23.313923837885, 
            "street": "Natura", 
            "zip": "", 
            "longitude": -46.856392079163001
          }
        }, 
        {
          "category": "Bar", 
          "name": "Feelings of Love usually hurt", 
          "id": "283057568464486", 
          "category_list": [
            {
              "id": "152880021441864", 
              "name": "Community Organization"
            }
          ], 
          "location": {
            "city": "Karachi", 
            "zip": "", 
            "country": "Pakistan", 
            "longitude": -0.17961109211699999, 
            "state": "", 
            "street": "", 
            "latitude": 51.519882928000001
          }
        }
      ]
    }
  }
]