[
  {
    "business_name": "103.9 The EDGE", 
    "business_id": "NK-ckRusCKLXdeCEb5jM4g", 
    "fb_pages": {
      "paging": {
        "next": "https://graph.facebook.com/search?type=place&access_token=229546593895315|yPLlHqq6YvDLIH4nL0kjJtIFSlU&limit=5000&offset=5000&__after_id=159743277391487"
      }, 
      "data": [
        {
          "category": "Restaurant/cafe", 
          "name": "Amanda's On The Edge", 
          "id": "397936760243364", 
          "category_list": [
            {
              "id": "273819889375819", 
              "name": "Restaurant"
            }
          ], 
          "location": {
            "city": "Pokolbin", 
            "zip": "2320", 
            "country": "Australia", 
            "longitude": 151.31939904199999, 
            "state": "NSW", 
            "street": "Windsor's Edge Vineyard, 1039 McDonalds Road", 
            "latitude": -32.721604133500001
          }
        }, 
        {
          "category": "Local business", 
          "name": "Edgewood Tire and Service Center", 
          "id": "151932414848188", 
          "category_list": [
            {
              "id": "149998721725634", 
              "name": "Automotive Repair"
            }
          ], 
          "location": {
            "city": "Edgewood", 
            "zip": "98371-1039", 
            "country": "United States", 
            "longitude": -122.29325900000001, 
            "state": "WA", 
            "street": "623 Meridian Ave E", 
            "latitude": 47.251640000000002
          }
        }, 
        {
          "category": "Local business", 
          "name": "Tj's Southern Gourmet", 
          "id": "159743277391487", 
          "category_list": [
            {
              "id": "273819889375819", 
              "name": "Restaurant"
            }
          ], 
          "location": {
            "city": "Edgewater", 
            "zip": "07020-1039", 
            "country": "United States", 
            "longitude": -73.990461999999994, 
            "state": "NJ", 
            "street": "703 Daibes Ct", 
            "latitude": 40.811385999999999
          }
        }
      ]
    }
  }, 
  {
    "business_name": "Zipps Sports Grill", 
    "business_id": "Hd6Kh_BcorPhCWVn6pMu4Q", 
    "fb_pages": {
      "paging": {
        "next": "https://graph.facebook.com/search?type=place&access_token=229546593895315|yPLlHqq6YvDLIH4nL0kjJtIFSlU&limit=5000&offset=5000&__after_id=396185853806530"
      }, 
      "data": [
        {
          "category": "Local business", 
          "name": "Zipps Sports Grill", 
          "id": "118908711456765", 
          "category_list": [
            {
              "id": "187425207958280", 
              "name": "Burger Restaurant"
            }, 
            {
              "id": "233804719972590", 
              "name": "Bar & Grill"
            }, 
            {
              "id": "184460441595855", 
              "name": "Sports Bar"
            }
          ], 
          "location": {
            "city": "Phoenix", 
            "zip": "85018", 
            "country": "United States", 
            "longitude": -111.91827581164, 
            "state": "AZ", 
            "street": "7551 E. Camelback Road", 
            "latitude": 33.502084204813997, 
            "located_in": 204427346267091
          }
        }, 
        {
          "category": "Local business", 
          "name": "Zipps Sports Grill", 
          "id": "208393889189582", 
          "category_list": [
            {
              "id": "184460441595855", 
              "name": "Sports Bar"
            }, 
            {
              "id": "149803325077018", 
              "name": "American Restaurant"
            }
          ], 
          "location": {
            "city": "Phoenix", 
            "zip": "85014", 
            "country": "United States", 
            "longitude": -112.04931413046999, 
            "state": "AZ", 
            "street": "1515 E. Bethany Home Road", 
            "latitude": 33.523055342245001
          }
        }, 
        {
          "category": "Local business", 
          "name": "Zipps Sports Grill", 
          "id": "122184937792304", 
          "category_list": [
            {
              "id": "184460441595855", 
              "name": "Sports Bar"
            }, 
            {
              "id": "233804719972590", 
              "name": "Bar & Grill"
            }
          ], 
          "location": {
            "city": "Chandler", 
            "zip": "85226-2479", 
            "country": "United States", 
            "longitude": -111.91043571809, 
            "state": "AZ", 
            "street": "3950 W Ray Rd Ste 5", 
            "latitude": 33.321373316767001
          }
        }, 
        {
          "category": "Local business", 
          "name": "Zipps Sports Grill", 
          "id": "204427346267091", 
          "category_list": [
            {
              "id": "233804719972590", 
              "name": "Bar & Grill"
            }, 
            {
              "id": "192803624072087", 
              "name": "Fast Food Restaurant"
            }, 
            {
              "id": "184460441595855", 
              "name": "Sports Bar"
            }
          ], 
          "location": {
            "city": "Phoenix", 
            "zip": "85018", 
            "country": "United States", 
            "longitude": -112.0024440378, 
            "state": "AZ", 
            "street": "3545 E Indian School Rd", 
            "latitude": 33.494631499024997
          }
        }, 
        {
          "category": "Local business", 
          "name": "Zipps Sports Grill", 
          "id": "111782678860164", 
          "category_list": [
            {
              "id": "150534008338515", 
              "name": "Barbecue Restaurant"
            }, 
            {
              "id": "184460441595855", 
              "name": "Sports Bar"
            }, 
            {
              "id": "233804719972590", 
              "name": "Bar & Grill"
            }
          ], 
          "location": {
            "city": "Scottsdale", 
            "zip": "85254", 
            "country": "United States", 
            "longitude": -111.94091776051999, 
            "state": "AZ", 
            "street": "6501 East Greenway Parkway Suite 130", 
            "latitude": 33.625289292001
          }
        }, 
        {
          "category": "Local business", 
          "name": "Zipps Sports Grill", 
          "id": "118309074846801", 
          "category_list": [
            {
              "id": "184460441595855", 
              "name": "Sports Bar"
            }, 
            {
              "id": "273819889375819", 
              "name": "Restaurant"
            }
          ], 
          "location": {
            "city": "Scottsdale", 
            "zip": "85258", 
            "country": "United States", 
            "longitude": -111.90016144101, 
            "state": "AZ", 
            "street": "8380 E Via De Ventura", 
            "latitude": 33.554817834635003
          }
        }, 
        {
          "category": "Local business", 
          "name": "Zipps Sports Grill", 
          "id": "405441222884567", 
          "category_list": [
            {
              "id": "354275401259620", 
              "name": "Nightlife"
            }
          ], 
          "location": {
            "city": "Chandler", 
            "zip": "85248", 
            "country": "United States", 
            "longitude": -111.84179337546, 
            "state": "AZ", 
            "street": "", 
            "latitude": 33.246214252145002
          }
        }, 
        {
          "category": "Local business", 
          "name": "Zipps Sports Grill Ahwatukee", 
          "id": "311541528981572", 
          "category_list": [
            {
              "id": "233804719972590", 
              "name": "Bar & Grill"
            }
          ], 
          "location": {
            "city": "Phoenix", 
            "zip": "85044", 
            "country": "United States", 
            "longitude": -111.98265498136, 
            "state": "AZ", 
            "street": "Warner Rd. ", 
            "latitude": 33.331144977869997
          }
        }, 
        {
          "category": "Restaurant/cafe", 
          "name": "Zipps Sports Grill Mill Ave", 
          "id": "396185853806530", 
          "category_list": [
            {
              "id": "273819889375819", 
              "name": "Restaurant"
            }
          ], 
          "location": {
            "city": "Tempe", 
            "zip": "85281", 
            "country": "United States", 
            "longitude": -111.94049099999999, 
            "state": "AZ", 
            "street": "690 S. Mill Avenue, Suite 101", 
            "latitude": 33.423423999999997
          }
        }
      ]
    }
  }, 
  {
    "business_name": "Manuel's Mexican Restaurant", 
    "business_id": "ZPz_yTApvQcNyINEFsCpOw", 
    "fb_pages": {
      "paging": {
        "next": "https://graph.facebook.com/search?type=place&access_token=229546593895315|yPLlHqq6YvDLIH4nL0kjJtIFSlU&limit=5000&offset=5000&__after_id=232488590098773"
      }, 
      "data": [
        {
          "category": "Restaurant/cafe", 
          "name": "Manuel's Mexican Restaurant", 
          "id": "117441434934530", 
          "category_list": [
            {
              "id": "199377230079198", 
              "name": "Mexican Restaurant"
            }
          ], 
          "location": {
            "city": "Aptos", 
            "zip": "95003-4436", 
            "country": "United States", 
            "longitude": -121.91180511391001, 
            "state": "CA", 
            "street": "261 Center Ave", 
            "latitude": 36.974251826718998
          }
        }, 
        {
          "category": "Restaurant/cafe", 
          "name": "Manuel's", 
          "id": "380065028710999", 
          "category_list": [
            {
              "id": "199377230079198", 
              "name": "Mexican Restaurant"
            }
          ], 
          "location": {
            "city": "Austin", 
            "zip": "78701", 
            "country": "United States", 
            "longitude": -97.743810921047995, 
            "state": "TX", 
            "street": "310 Congress Avenue ", 
            "latitude": 30.265682278732999
          }
        }, 
        {
          "category": "Restaurant/cafe", 
          "name": "Manuel's Mexican Food - Bell", 
          "id": "131619150223369", 
          "category_list": [
            {
              "id": "199377230079198", 
              "name": "Mexican Restaurant"
            }
          ], 
          "location": {
            "city": "Phoenix", 
            "zip": "85023-3516", 
            "country": "United States", 
            "longitude": -112.08775205046, 
            "state": "AZ", 
            "street": "1111 W Bell Rd", 
            "latitude": 33.639833192443
          }
        }, 
        {
          "category": "Restaurant/cafe", 
          "name": "Manuel's Mexican Food - Glendale", 
          "id": "109643025737943", 
          "category_list": [
            {
              "id": "199377230079198", 
              "name": "Mexican Restaurant"
            }
          ], 
          "location": {
            "city": "Glendale", 
            "zip": "85302-1400", 
            "country": "United States", 
            "longitude": -112.18077387869999, 
            "state": "AZ", 
            "street": "5670 W Peoria Ave", 
            "latitude": 33.582288785092999
          }
        }, 
        {
          "category": "Restaurant/cafe", 
          "name": "Senor Manuel Mexican Cuisine", 
          "id": "127193990720795", 
          "category_list": [
            {
              "id": "199377230079198", 
              "name": "Mexican Restaurant"
            }
          ], 
          "location": {
            "city": "Colorado Springs", 
            "zip": "80918", 
            "country": "United States", 
            "longitude": -104.81850219575, 
            "state": "CO", 
            "street": "4660 N. Nevada Ave.", 
            "latitude": 38.898605084811997
          }
        }, 
        {
          "category": "Local business", 
          "name": "Manuel's Mexican Restaurant & Cantina", 
          "id": "280414658654194", 
          "category_list": [
            {
              "id": "199377230079198", 
              "name": "Mexican Restaurant"
            }
          ], 
          "location": {
            "city": "Goodyear", 
            "zip": "85395", 
            "country": "United States", 
            "longitude": -112.345999436, 
            "state": "AZ", 
            "street": "", 
            "latitude": 33.462954311600001
          }
        }, 
        {
          "category": "Restaurant/cafe", 
          "name": "Manuel's Mexican Food - Tempe", 
          "id": "109371732437126", 
          "category_list": [
            {
              "id": "199377230079198", 
              "name": "Mexican Restaurant"
            }
          ], 
          "location": {
            "city": "Tempe", 
            "zip": "85282-7603", 
            "country": "United States", 
            "longitude": -111.88830140148001, 
            "state": "AZ", 
            "street": "2350 E Southern Ave", 
            "latitude": 33.393457885379
          }
        }, 
        {
          "category": "Local business", 
          "name": "Manuel's Mexican Restaurant & Taqueria", 
          "id": "116199955070746", 
          "category_list": [
            {
              "id": "199377230079198", 
              "name": "Mexican Restaurant"
            }
          ], 
          "location": {
            "city": "Brenham", 
            "zip": "77833-3673", 
            "country": "United States", 
            "longitude": -96.402729717425004, 
            "state": "TX", 
            "street": "409 W Main St", 
            "latitude": 30.166212553398999
          }
        }, 
        {
          "category": "Restaurant/cafe", 
          "name": "Manuel's Mexican Food - Cave Creek", 
          "id": "109588512410799", 
          "category_list": [
            {
              "id": "199377230079198", 
              "name": "Mexican Restaurant"
            }
          ], 
          "location": {
            "city": "Phoenix", 
            "zip": "85022-5834", 
            "country": "United States", 
            "longitude": -112.03662474836, 
            "state": "AZ", 
            "street": "12801 N Cave Creek Rd", 
            "latitude": 33.602827384336003
          }
        }, 
        {
          "category": "Local business", 
          "name": "Manuel's Mexican Restaurant", 
          "id": "166424496739570", 
          "category_list": [
            {
              "id": "199377230079198", 
              "name": "Mexican Restaurant"
            }
          ], 
          "location": {
            "city": "Houston", 
            "zip": "77041", 
            "country": "United States", 
            "longitude": -95.606693644231996, 
            "state": "TX", 
            "street": "", 
            "latitude": 29.879832300650001
          }
        }, 
        {
          "category": "Restaurant/cafe", 
          "name": "Manuel's El Burrito", 
          "id": "121330657913843", 
          "category_list": [
            {
              "id": "199377230079198", 
              "name": "Mexican Restaurant"
            }
          ], 
          "location": {
            "city": "Clearfield", 
            "zip": " 84015", 
            "country": "United States", 
            "longitude": -112.00840142065, 
            "state": "UT", 
            "street": "1145 South State Street", 
            "latitude": 41.097309365385001
          }
        }, 
        {
          "category": "Restaurant/cafe", 
          "name": "Manuel's Mexican Food - 28th Street", 
          "id": "118635291484233", 
          "category_list": [
            {
              "id": "199377230079198", 
              "name": "Mexican Restaurant"
            }
          ], 
          "location": {
            "city": "Phoenix", 
            "zip": "85016-6856", 
            "country": "United States", 
            "longitude": -112.02073418124, 
            "state": "AZ", 
            "street": "2820 E Indian School Rd", 
            "latitude": 33.495307437907996
          }
        }, 
        {
          "category": "Restaurant/cafe", 
          "name": "Manuel's Mexican Food - Scottsdale", 
          "id": "100859666624732", 
          "category_list": [
            {
              "id": "199377230079198", 
              "name": "Mexican Restaurant"
            }
          ], 
          "location": {
            "city": "Scottsdale", 
            "zip": "85258-4415", 
            "country": "United States", 
            "longitude": -111.88813609149, 
            "state": "AZ", 
            "street": "8809 E Mountain View Rd", 
            "latitude": 33.575044691500999
          }
        }, 
        {
          "category": "Local business", 
          "name": "Manuel's", 
          "id": "164403610246414", 
          "category_list": [
            {
              "id": "199377230079198", 
              "name": "Mexican Restaurant"
            }, 
            {
              "id": "176831012360626", 
              "name": "Professional Services"
            }
          ], 
          "location": {
            "city": "Humble", 
            "zip": "77346", 
            "country": "United States", 
            "longitude": -95.184375007556, 
            "state": "TX", 
            "street": "", 
            "latitude": 29.997778641096001
          }
        }, 
        {
          "category": "Local business", 
          "name": "Manuel's At Great Hills", 
          "id": "116524535038779", 
          "category_list": [
            {
              "id": "273819889375819", 
              "name": "Restaurant"
            }
          ], 
          "location": {
            "city": "Austin", 
            "zip": "78759-5622", 
            "country": "United States", 
            "longitude": -97.749368423169003, 
            "state": "TX", 
            "street": "10201 Jollyville Rd", 
            "latitude": 30.396760304002999
          }
        }, 
        {
          "category": "Local business", 
          "name": "Taco Hut-Manuel's", 
          "id": "111637888875272", 
          "category_list": [
            {
              "id": "199377230079198", 
              "name": "Mexican Restaurant"
            }
          ], 
          "location": {
            "city": "Allen Park", 
            "zip": "48101-2450", 
            "country": "United States", 
            "longitude": -83.219436319223007, 
            "state": "MI", 
            "street": "16806 Ecorse Rd", 
            "latitude": 42.256933428663999
          }
        }, 
        {
          "category": "Restaurant/cafe", 
          "name": "Manuel's Casa De Mariscos", 
          "id": "107260089293786", 
          "category_list": [
            {
              "id": "273819889375819", 
              "name": "Restaurant"
            }
          ], 
          "location": {
            "city": "Bakersfield", 
            "zip": "93301", 
            "country": "United States", 
            "longitude": -119.00327466533, 
            "state": "CA", 
            "street": "700 Truxtun Ave", 
            "latitude": 35.362174038051002
          }
        }, 
        {
          "category": "Local business", 
          "name": "Romo's Mexican Food", 
          "id": "104914166218646", 
          "category_list": [
            {
              "id": "199377230079198", 
              "name": "Mexican Restaurant"
            }
          ], 
          "location": {
            "city": "San Manuel", 
            "zip": "85631-1314", 
            "country": "United States", 
            "longitude": -110.629893388, 
            "state": "AZ", 
            "street": "501 S Mcnab Pkwy", 
            "latitude": 32.600507125
          }
        }, 
        {
          "category": "Local business", 
          "name": "La Hacienda De Don Manuel", 
          "id": "158217060874639", 
          "category_list": [
            {
              "id": "199377230079198", 
              "name": "Mexican Restaurant"
            }
          ], 
          "location": {
            "city": "Suffern", 
            "zip": "10901", 
            "country": "United States", 
            "longitude": -74.151682813939004, 
            "state": "NY", 
            "street": "72 Lafayette Avenue", 
            "latitude": 41.115721042061999
          }
        }, 
        {
          "category": "Local business", 
          "name": "Manuel's Original El Tepeyac", 
          "id": "148512388529530", 
          "category_list": [
            {
              "id": "199377230079198", 
              "name": "Mexican Restaurant"
            }
          ], 
          "location": {
            "city": "Los Angeles", 
            "zip": "90063", 
            "country": "United States", 
            "longitude": -118.19759217243001, 
            "state": "CA", 
            "street": "", 
            "latitude": 34.047756590943003
          }
        }, 
        {
          "category": "Local business", 
          "name": "Manuel's Restaurant Port Isabel, Texas", 
          "id": "166659000041783", 
          "category_list": [
            {
              "id": "199377230079198", 
              "name": "Mexican Restaurant"
            }, 
            {
              "id": "192831537402299", 
              "name": "Family Style Restaurant"
            }
          ], 
          "location": {
            "city": "Port Isabel", 
            "zip": "78578", 
            "country": "United States", 
            "longitude": -97.208411772164993, 
            "state": "TX", 
            "street": "313 E Maxan St.", 
            "latitude": 26.077590852596
          }
        }, 
        {
          "category": "Local business", 
          "name": "Restaurant Los Cuates, Manuel Montt. Providencia", 
          "id": "182844215151145", 
          "category_list": [
            {
              "id": "199377230079198", 
              "name": "Mexican Restaurant"
            }
          ], 
          "location": {
            "city": "Santiago", 
            "zip": "", 
            "country": "Chile", 
            "longitude": -70.619164150800003, 
            "state": "", 
            "street": "Manuel Montt 235 - Providencia", 
            "latitude": -33.430852054600003
          }
        }, 
        {
          "category": "Local business", 
          "name": "Manuel's Mexican Grill", 
          "id": "120551781289174", 
          "category_list": [
            {
              "id": "199377230079198", 
              "name": "Mexican Restaurant"
            }
          ], 
          "location": {
            "city": "San Antonio", 
            "zip": "78249-2233", 
            "country": "United States", 
            "longitude": -98.600506773700005, 
            "state": "TX", 
            "street": "5999 De Zavala Rd", 
            "latitude": 29.563520365199999
          }
        }, 
        {
          "category": "Local business", 
          "name": "Mi viejo cafe plaza del sol San Manuel", 
          "id": "172774579438069", 
          "category_list": [
            {
              "id": "199377230079198", 
              "name": "Mexican Restaurant"
            }, 
            {
              "id": "109527622457518", 
              "name": "Shopping Mall"
            }, 
            {
              "id": "197871390225897", 
              "name": "Cafe"
            }
          ], 
          "location": {
            "city": "Puebla", 
            "zip": "", 
            "country": "Mexico", 
            "longitude": -98.198185423756001, 
            "state": "", 
            "street": "", 
            "latitude": 19.016168641804999
          }
        }, 
        {
          "category": "Restaurant/cafe", 
          "name": "Casa Linaloe San Manuel", 
          "id": "123638191026978", 
          "category_list": [
            {
              "id": "199377230079198", 
              "name": "Mexican Restaurant"
            }, 
            {
              "id": "192108214153222", 
              "name": "Breakfast & Brunch Restaurant"
            }
          ], 
          "location": {
            "city": "Puebla", 
            "zip": "72570", 
            "country": "Mexico", 
            "longitude": -98.201718646928995, 
            "state": "", 
            "street": "Av. San Manuel y 14 Sur", 
            "latitude": 19.026101850389001
          }
        }, 
        {
          "category": "Local business", 
          "name": "Manuel's Mexican Restaurant", 
          "id": "113543775346903", 
          "category_list": [
            {
              "id": "199377230079198", 
              "name": "Mexican Restaurant"
            }
          ], 
          "location": {
            "city": "Bellville", 
            "zip": "77418-3307", 
            "country": "United States", 
            "longitude": -96.249146999999994, 
            "state": "TX", 
            "street": "1420 S Front St", 
            "latitude": 29.931142000000001
          }
        }, 
        {
          "category": "Restaurant/cafe", 
          "name": "Antojitos Don Manuel", 
          "id": "166729763500123", 
          "category_list": [
            {
              "id": "199377230079198", 
              "name": "Mexican Restaurant"
            }
          ], 
          "location": {
            "city": "Oaxtepec", 
            "zip": "62738", 
            "country": "Mexico", 
            "longitude": -99.263921276473994, 
            "state": "", 
            "street": "Avenida San Juan #26", 
            "latitude": 19.553629206315001
          }
        }, 
        {
          "category": "Local business", 
          "name": "Manuel's", 
          "id": "465103990171177", 
          "category_list": [
            {
              "id": "199377230079198", 
              "name": "Mexican Restaurant"
            }
          ], 
          "location": {
            "city": "Port Isabel", 
            "zip": "78578", 
            "country": "United States", 
            "longitude": -97.208479686499999, 
            "state": "TX", 
            "street": "", 
            "latitude": 26.077558811500001
          }
        }, 
        {
          "category": "Local business", 
          "name": "Don Manuel's Restaurant", 
          "id": "164213853606922", 
          "category_list": [
            {
              "id": "199377230079198", 
              "name": "Mexican Restaurant"
            }
          ], 
          "location": {
            "city": "Weslaco", 
            "zip": "78596-9049", 
            "country": "United States", 
            "longitude": -97.991349999999997, 
            "state": "TX", 
            "street": "4016 N Texas Blvd", 
            "latitude": 26.198370000000001
          }
        }, 
        {
          "category": "Local business", 
          "name": "Manuel's Mexican Food", 
          "id": "115001365185992", 
          "category_list": [
            {
              "id": "199377230079198", 
              "name": "Mexican Restaurant"
            }
          ], 
          "location": {
            "city": "Tempe", 
            "zip": "85282-1225", 
            "country": "United States", 
            "longitude": -111.95671400000001, 
            "state": "AZ", 
            "street": "1123 W Broadway Rd", 
            "latitude": 33.407260999999998
          }
        }, 
        {
          "category": "Local business", 
          "name": "Manuel's Mexican Food", 
          "id": "113974478623195", 
          "category_list": [
            {
              "id": "199377230079198", 
              "name": "Mexican Restaurant"
            }
          ], 
          "location": {
            "city": "Phoenix", 
            "zip": "85014-2502", 
            "country": "United States", 
            "longitude": -112.06385, 
            "state": "AZ", 
            "street": "5509 N 7th St", 
            "latitude": 33.517440999999998
          }
        }, 
        {
          "category": "Local business", 
          "name": "Manuel S Crispy Tacos", 
          "id": "113490578685454", 
          "category_list": [
            {
              "id": "199377230079198", 
              "name": "Mexican Restaurant"
            }
          ], 
          "location": {
            "city": "Odessa", 
            "zip": "79761-5348", 
            "country": "United States", 
            "longitude": -102.353334386, 
            "state": "TX", 
            "street": "1404 E 2nd St", 
            "latitude": 31.8525757058
          }
        }, 
        {
          "category": "Local business", 
          "name": "Manuels Restaurant In Acuna", 
          "id": "133278360083935", 
          "category_list": [
            {
              "id": "199377230079198", 
              "name": "Mexican Restaurant"
            }
          ], 
          "location": {
            "latitude": 29.325051732624999, 
            "street": "", 
            "zip": "", 
            "longitude": -100.93068889555001
          }
        }, 
        {
          "category": "Local business", 
          "name": "Little Manuel's Mexican & Italian Restaurant", 
          "id": "165577086846899", 
          "category_list": [
            {
              "id": "193831710644458", 
              "name": "Italian Restaurant"
            }, 
            {
              "id": "199377230079198", 
              "name": "Mexican Restaurant"
            }
          ], 
          "location": {
            "city": "Antioch", 
            "zip": "94509", 
            "country": "United States", 
            "longitude": -121.80578626400001, 
            "state": "CA", 
            "street": "", 
            "latitude": 38.006897950499997
          }
        }, 
        {
          "category": "Local business", 
          "name": "Manuel's Tierray Mar Restaurant", 
          "id": "163851380310483", 
          "category_list": [
            {
              "id": "199377230079198", 
              "name": "Mexican Restaurant"
            }
          ], 
          "location": {
            "city": "Weslaco", 
            "zip": "78596-9049", 
            "country": "United States", 
            "longitude": -97.991349999999997, 
            "state": "TX", 
            "street": "4020 N Texas Blvd", 
            "latitude": 26.198399999999999
          }
        }, 
        {
          "category": "Restaurant/cafe", 
          "name": "Menuder\u00eda Chito: Manuel Acu\u00f1a", 
          "id": "224709147597120", 
          "category_list": [
            {
              "id": "199377230079198", 
              "name": "Mexican Restaurant"
            }
          ], 
          "location": {
            "city": "Guadalajara", 
            "zip": "44660", 
            "country": "Mexico", 
            "longitude": -103.391673309, 
            "state": "", 
            "street": "Manuel Acu\u00f1a #3036", 
            "latitude": 20.684656375900001
          }
        }, 
        {
          "category": "Local business", 
          "name": "Manuel's Country Store & Deli", 
          "id": "108082585899859", 
          "category_list": [
            {
              "id": "199377230079198", 
              "name": "Mexican Restaurant"
            }
          ], 
          "location": {
            "city": "Midland", 
            "zip": "79706-6414", 
            "country": "United States", 
            "longitude": -102.06689190199999, 
            "state": "TX", 
            "street": "3905 S State Highway 349", 
            "latitude": 31.9508861463
          }
        }, 
        {
          "category": "Local business", 
          "name": "La Hacienda Mexican and American Food", 
          "id": "118773588136579", 
          "category_list": [
            {
              "id": "199377230079198", 
              "name": "Mexican Restaurant"
            }
          ], 
          "location": {
            "city": "San Manuel", 
            "zip": "85631-1314", 
            "country": "United States", 
            "longitude": -110.63003500000001, 
            "state": "AZ", 
            "street": "501 S Mcnab Pkwy", 
            "latitude": 32.600532999999999
          }
        }, 
        {
          "category": "Local business", 
          "name": "Manuel's Tamales", 
          "id": "100872239957382", 
          "category_list": [
            {
              "id": "199377230079198", 
              "name": "Mexican Restaurant"
            }
          ], 
          "location": {
            "city": "Chicago", 
            "zip": "60632-2641", 
            "country": "United States", 
            "longitude": -87.703264000000004, 
            "state": "IL", 
            "street": "5341 S Kedzie Ave", 
            "latitude": 41.795948000000003
          }
        }, 
        {
          "category": "Restaurant/cafe", 
          "name": "Los Manueles", 
          "id": "304930192966661", 
          "category_list": [
            {
              "id": "199377230079198", 
              "name": "Mexican Restaurant"
            }
          ], 
          "location": {
            "city": "San Luis de la Paz", 
            "zip": "37900", 
            "country": "Mexico", 
            "longitude": -100.509783071, 
            "state": "", 
            "street": "Victoria No. 256 A, Col. Alameda, San Luis de la Paz, Guanajuato.", 
            "latitude": 21.298336686900001
          }
        }, 
        {
          "category": "Local business", 
          "name": "Manuels Mexican Cantina", 
          "id": "104895339575200", 
          "category_list": [
            {
              "id": "199377230079198", 
              "name": "Mexican Restaurant"
            }
          ], 
          "location": {
            "city": "The Entrance", 
            "zip": "2261", 
            "country": "Australia", 
            "longitude": 151.49203082925001, 
            "state": "NSW", 
            "street": "107 The Entrance Rd", 
            "latitude": -33.350953739486997
          }
        }, 
        {
          "category": "Local business", 
          "name": "Manuels Odessa Tortilla & Tamale Factory", 
          "id": "121992181191844", 
          "category_list": [
            {
              "id": "199377230079198", 
              "name": "Mexican Restaurant"
            }, 
            {
              "id": "150108431712141", 
              "name": "Food & Grocery"
            }
          ], 
          "location": {
            "city": "Odessa", 
            "zip": "79761", 
            "country": "United States", 
            "longitude": -102.34515399999999, 
            "state": "TX", 
            "street": "1915 E. 2nd Street", 
            "latitude": 31.856598000000002
          }
        }, 
        {
          "category": "Local business", 
          "name": "Manuels", 
          "id": "232488590098773", 
          "category_list": [
            {
              "id": "199377230079198", 
              "name": "Mexican Restaurant"
            }
          ], 
          "location": {
            "city": "Green Valley", 
            "zip": "85614", 
            "country": "United States", 
            "longitude": -110.99476571300001, 
            "state": "AZ", 
            "street": "", 
            "latitude": 31.8921827699
          }
        }
      ]
    }
  }, 
  {
    "business_name": "Baker Brothers", 
    "business_id": "yQo6lRg0vGmD0Zm9DOS2ow", 
    "fb_pages": {
      "paging": {
        "next": "https://graph.facebook.com/search?type=place&access_token=229546593895315|yPLlHqq6YvDLIH4nL0kjJtIFSlU&limit=5000&offset=5000&__after_id=134872936562795"
      }, 
      "data": [
        {
          "category": "Home improvement", 
          "name": "Baker Brothers Plumbing", 
          "id": "110755155628739", 
          "category_list": [
            {
              "id": "108427109235243", 
              "name": "Home Improvement"
            }
          ], 
          "location": {
            "city": "Dallas", 
            "zip": "75228", 
            "country": "United States", 
            "longitude": -96.687836000000004, 
            "state": "TX", 
            "street": "3520 Dilido", 
            "latitude": 32.803207
          }
        }, 
        {
          "category": "Local business", 
          "name": "Baker Brothers", 
          "id": "140055372698620", 
          "category_list": [
            {
              "id": "188334264523313", 
              "name": "Deli"
            }
          ], 
          "location": {
            "city": "Amarillo", 
            "zip": "79109-1828", 
            "country": "United States", 
            "longitude": -101.86571841308999, 
            "state": "TX", 
            "street": "1901 S Georgia St", 
            "latitude": 35.194564992111999
          }
        }, 
        {
          "category": "Local business", 
          "name": "Baker Brothers American Deli-Store", 
          "id": "117912971553943", 
          "category_list": [
            {
              "id": "188334264523313", 
              "name": "Deli"
            }
          ], 
          "location": {
            "city": "Dallas", 
            "zip": "75206-2935", 
            "country": "United States", 
            "longitude": -96.768584917397007, 
            "state": "TX", 
            "street": "5500 Greenville Ave Ste 1102", 
            "latitude": 32.855090379818002
          }
        }, 
        {
          "category": "Local business", 
          "name": "Baker Brothers American Deli", 
          "id": "111229582243952", 
          "category_list": [
            {
              "id": "188334264523313", 
              "name": "Deli"
            }
          ], 
          "location": {
            "city": "Plano", 
            "zip": "75093-8121", 
            "country": "United States", 
            "longitude": -96.831845413416005, 
            "state": "TX", 
            "street": "6009 W Parker Rd Ste 125", 
            "latitude": 33.045640032799
          }
        }, 
        {
          "category": "Local business", 
          "name": "Baker Brothers Diamonds", 
          "id": "294159527981", 
          "category_list": [
            {
              "id": "188031587886173", 
              "name": "Jewelry Store"
            }
          ], 
          "location": {
            "city": "Bedford", 
            "zip": "", 
            "country": "United Kingdom", 
            "longitude": -0.46544012948300001, 
            "state": "", 
            "street": "11-13 St. Peters Street, Bedford", 
            "latitude": 52.138798966099998
          }
        }, 
        {
          "category": "Local business", 
          "name": "Baker brothers Deli", 
          "id": "154678841216097", 
          "category_list": [
            {
              "id": "188334264523313", 
              "name": "Deli"
            }, 
            {
              "id": "188296324525457", 
              "name": "Sandwich Shop"
            }
          ], 
          "location": {
            "city": "Texarkana", 
            "zip": "75503", 
            "country": "United States", 
            "longitude": -94.095839444231999, 
            "state": "TX", 
            "street": "4220 Saint Michael Dr", 
            "latitude": 33.453821252601003
          }
        }, 
        {
          "category": "Local business", 
          "name": "Baker Brothers American Deli", 
          "id": "113581532008245", 
          "category_list": [
            {
              "id": "273819889375819", 
              "name": "Restaurant"
            }
          ], 
          "location": {
            "city": "Irving", 
            "zip": "75063-7506", 
            "country": "United States", 
            "longitude": -96.958178867889998, 
            "state": "TX", 
            "street": "7300 N Macarthur Blvd", 
            "latitude": 32.906525965851998
          }
        }, 
        {
          "category": "Local business", 
          "name": "Baker Brothers American Deli", 
          "id": "120934941254884", 
          "category_list": [
            {
              "id": "188334264523313", 
              "name": "Deli"
            }
          ], 
          "location": {
            "city": "Dallas", 
            "zip": "75201-1415", 
            "country": "United States", 
            "longitude": -96.803533618575003, 
            "state": "TX", 
            "street": "2800 Routh St", 
            "latitude": 32.799020453304003
          }
        }, 
        {
          "category": "Local business", 
          "name": "Baker Brothers", 
          "id": "245234678930360", 
          "category_list": [
            {
              "id": "2500", 
              "name": "Local Business"
            }
          ], 
          "location": {
            "city": "Dallas", 
            "zip": "75254", 
            "country": "United States", 
            "longitude": -96.821105407299996, 
            "state": "TX", 
            "street": "", 
            "latitude": 32.939253492399999
          }
        }, 
        {
          "category": "Local business", 
          "name": "Baker Brothers", 
          "id": "423428977715841", 
          "category_list": [
            {
              "id": "149803325077018", 
              "name": "American Restaurant"
            }
          ], 
          "location": {
            "city": "Dallas", 
            "zip": "75225", 
            "country": "United States", 
            "longitude": -96.806799569099994, 
            "state": "TX", 
            "street": "", 
            "latitude": 32.863477136500002
          }
        }, 
        {
          "category": "Local business", 
          "name": "Baker Brothers", 
          "id": "120350334647679", 
          "category_list": [
            {
              "id": "273819889375819", 
              "name": "Restaurant"
            }
          ], 
          "location": {
            "city": "Cleveland", 
            "zip": "56017-4438", 
            "country": "United States", 
            "longitude": -93.803359999999998, 
            "state": "MN", 
            "street": "45219 267th Ave", 
            "latitude": 44.302909999999997
          }
        }, 
        {
          "category": "Local business", 
          "name": "Baker Brothers", 
          "id": "121633001226535", 
          "category_list": [
            {
              "id": "2500", 
              "name": "Local Business"
            }
          ], 
          "location": {
            "city": "Phoenix", 
            "zip": "85040-8888", 
            "country": "United States", 
            "longitude": -111.99021999999999, 
            "state": "AZ", 
            "street": "4219 E Broadway Rd Ste 108", 
            "latitude": 33.406331000000002
          }
        }, 
        {
          "category": "Local business", 
          "name": "Baker Brothers", 
          "id": "122869454438343", 
          "category_list": [
            {
              "id": "132219350176698", 
              "name": "Heating, Ventilating & Air Conditioning"
            }
          ], 
          "location": {
            "city": "Dothan", 
            "zip": "36303-5806", 
            "country": "United States", 
            "longitude": -85.387816000000001, 
            "state": "AL", 
            "street": "311 Bic Rd", 
            "latitude": 31.247363
          }
        }, 
        {
          "category": "Local business", 
          "name": "Baker Brothers", 
          "id": "475254502493346", 
          "category_list": [
            {
              "id": "2500", 
              "name": "Local Business"
            }
          ], 
          "location": {
            "city": "Fort Worth", 
            "zip": "76107", 
            "country": "United States", 
            "longitude": -97.354355461500006, 
            "state": "TX", 
            "street": "", 
            "latitude": 32.753162660999998
          }
        }, 
        {
          "category": "Home improvement", 
          "name": "Baker Brothers Plumbing", 
          "id": "611277062266814", 
          "category_list": [
            {
              "id": "178867352155084", 
              "name": "Plumber"
            }
          ], 
          "location": {
            "city": "Little Rock", 
            "zip": "72209", 
            "country": "United States", 
            "longitude": -92.315392000000003, 
            "state": "AR", 
            "street": "3520 W 69th St., Suite 305", 
            "latitude": 34.686714000000002
          }
        }, 
        {
          "category": "Local business", 
          "name": "Baker Brothers Installations", 
          "id": "124418624279297", 
          "category_list": [
            {
              "id": "2500", 
              "name": "Local Business"
            }
          ], 
          "location": {
            "city": "Marietta", 
            "zip": "30067-9306", 
            "country": "United States", 
            "longitude": -84.491438000000002, 
            "state": "GA", 
            "street": "2152 Northwest Pkwy SE Ste F", 
            "latitude": 33.918311000000003
          }
        }, 
        {
          "category": "Local business", 
          "name": "Baker Brothers Smelt Camp", 
          "id": "154772091229501", 
          "category_list": [
            {
              "id": "2500", 
              "name": "Local Business"
            }
          ], 
          "location": {
            "city": "Bangor", 
            "zip": "04401-3421", 
            "country": "United States", 
            "longitude": -68.775747999999993, 
            "state": "ME", 
            "street": "12 Alden St", 
            "latitude": 44.820186999999997
          }
        }, 
        {
          "category": "Automotive", 
          "name": "Baker Brothers Towing", 
          "id": "169311339799073", 
          "category_list": [
            {
              "id": "2509", 
              "name": "Automotive"
            }
          ], 
          "location": {
            "city": "Linn", 
            "zip": "65051", 
            "country": "United States", 
            "longitude": -91.883700000000005, 
            "state": "MO", 
            "street": "860 Hwy U ", 
            "latitude": 38.400100000000002
          }
        }, 
        {
          "category": "Local business", 
          "name": "Baker Brothers Lawn Service", 
          "id": "211122802251578", 
          "category_list": [
            {
              "id": "128853933850116", 
              "name": "Landscaping"
            }
          ], 
          "location": {
            "city": "Fayetteville", 
            "zip": "72703", 
            "country": "United States", 
            "longitude": -73.976100000000002, 
            "state": "AR", 
            "street": "P.O. Box 10170", 
            "latitude": 40.751600000000003
          }
        }, 
        {
          "category": "Local business", 
          "name": "Baker Brothers Lawn Care", 
          "id": "100341490047160", 
          "category_list": [
            {
              "id": "128853933850116", 
              "name": "Landscaping"
            }
          ], 
          "location": {
            "city": "Cookeville", 
            "zip": "38501", 
            "country": "United States", 
            "longitude": -85.602951000000004, 
            "state": "TN", 
            "street": "2440 Clemmons Rd", 
            "latitude": 36.203899
          }
        }, 
        {
          "category": "Local business", 
          "name": "Baker Brothers Plumbing", 
          "id": "167723149909891", 
          "category_list": [
            {
              "id": "178867352155084", 
              "name": "Plumber"
            }, 
            {
              "id": "192308454131801", 
              "name": "Sewer Service"
            }
          ], 
          "location": {
            "city": "Tucson", 
            "zip": "85719-6743", 
            "country": "United States", 
            "longitude": -110.95665, 
            "state": "AZ", 
            "street": "1050 S Park Ave", 
            "latitude": 32.208503999999998
          }
        }, 
        {
          "category": "Local business", 
          "name": "Baker Brothers Clean Care Services", 
          "id": "481541895223053", 
          "category_list": [
            {
              "id": "2500", 
              "name": "Local Business"
            }
          ], 
          "location": {
            "city": "Battle Creek", 
            "zip": "49015", 
            "country": "United States", 
            "longitude": -85.205551999999997, 
            "state": "MI", 
            "street": "371 Upton Avenue", 
            "latitude": 42.320737999999999
          }
        }, 
        {
          "category": "Local business", 
          "name": "Baker Brothers American Deli", 
          "id": "111525288887948", 
          "category_list": [
            {
              "id": "139433292785470", 
              "name": "Caterer"
            }, 
            {
              "id": "188334264523313", 
              "name": "Deli"
            }
          ], 
          "location": {
            "city": "Columbia", 
            "zip": "29201-4058", 
            "country": "United States", 
            "longitude": -81.030617000000007, 
            "state": "SC", 
            "street": "601 Main St", 
            "latitude": 33.993198
          }
        }, 
        {
          "category": "Local business", 
          "name": "Baker Brothers American Deli", 
          "id": "113520502015262", 
          "category_list": [
            {
              "id": "273819889375819", 
              "name": "Restaurant"
            }, 
            {
              "id": "139433292785470", 
              "name": "Caterer"
            }
          ], 
          "location": {
            "city": "Lexington", 
            "zip": "29072-6935", 
            "country": "United States", 
            "longitude": -81.195847000000001, 
            "state": "SC", 
            "street": "5135 Sunset Blvd", 
            "latitude": 34.006968999999998
          }
        }, 
        {
          "category": "Local business", 
          "name": "Baker Brothers Shop", 
          "id": "118945261453146", 
          "category_list": [
            {
              "id": "187827497907070", 
              "name": "Bakery"
            }, 
            {
              "id": "273819889375819", 
              "name": "Restaurant"
            }
          ], 
          "location": {
            "city": "Logansport", 
            "zip": "46947-8739", 
            "country": "United States", 
            "longitude": -86.374354999999994, 
            "state": "IN", 
            "street": "4293 N State Road 17", 
            "latitude": 40.827244999999998
          }
        }, 
        {
          "category": "Local business", 
          "name": "Baker Brothers Installations", 
          "id": "134056109976926", 
          "category_list": [
            {
              "id": "124816677590074", 
              "name": "Contractor"
            }
          ], 
          "location": {
            "city": "Irving", 
            "zip": "75061-7608", 
            "country": "United States", 
            "longitude": -96.941756999999996, 
            "state": "TX", 
            "street": "526 N Britain Rd", 
            "latitude": 32.818604000000001
          }
        }, 
        {
          "category": "Local business", 
          "name": "Baker Brothers Rotovision", 
          "id": "153386184696547", 
          "category_list": [
            {
              "id": "188334264523313", 
              "name": "Deli"
            }
          ], 
          "location": {
            "city": "Amarillo", 
            "zip": "79106-4705", 
            "country": "United States", 
            "longitude": -101.89106, 
            "state": "TX", 
            "street": "2310 Harmony St", 
            "latitude": 35.187671999999999
          }
        }, 
        {
          "category": "Local business", 
          "name": "Baker Brothers Property", 
          "id": "154467511258295", 
          "category_list": [
            {
              "id": "2500", 
              "name": "Local Business"
            }
          ], 
          "location": {
            "city": "Highland", 
            "zip": "12528-2339", 
            "country": "United States", 
            "longitude": -74.009668000000005, 
            "state": "NY", 
            "street": "249 Pancake Hollow Rd", 
            "latitude": 41.718415
          }
        }, 
        {
          "category": "Local business", 
          "name": "Baker Brothers Fine Dry Cleaning", 
          "id": "157197070986721", 
          "category_list": [
            {
              "id": "133148010085253", 
              "name": "Dry Cleaner"
            }
          ], 
          "location": {
            "city": "Battle Creek", 
            "zip": "49017-4606", 
            "country": "United States", 
            "longitude": -85.167235000000005, 
            "state": "MI", 
            "street": "314 Emmett St E", 
            "latitude": 42.329903000000002
          }
        }, 
        {
          "category": "Local business", 
          "name": "Baker Brothers Flooring", 
          "id": "163532770341479", 
          "category_list": [
            {
              "id": "191328180890797", 
              "name": "Carpet & Flooring Store"
            }
          ], 
          "location": {
            "city": "Columbus", 
            "zip": "43213-1430", 
            "country": "United States", 
            "longitude": -82.855919, 
            "state": "OH", 
            "street": "394 Morrison Rd", 
            "latitude": 39.986431000000003
          }
        }, 
        {
          "category": "Local business", 
          "name": "Baker Brothers/Super Floors", 
          "id": "167936029889325", 
          "category_list": [
            {
              "id": "191328180890797", 
              "name": "Carpet & Flooring Store"
            }
          ], 
          "location": {
            "city": "Scottsdale", 
            "zip": "85256-2713", 
            "country": "United States", 
            "longitude": -111.874251, 
            "state": "AZ", 
            "street": "7350 N Dobson Rd Ste 138", 
            "latitude": 33.543843000000003
          }
        }, 
        {
          "category": "Local business", 
          "name": "Baker Brothers Rotovision", 
          "id": "169289729752296", 
          "category_list": [
            {
              "id": "178867352155084", 
              "name": "Plumber"
            }
          ], 
          "location": {
            "city": "Dallas", 
            "zip": "75228-5522", 
            "country": "United States", 
            "longitude": -96.687836000000004, 
            "state": "TX", 
            "street": "3520 Dilido Rd", 
            "latitude": 32.803207
          }
        }, 
        {
          "category": "Local business", 
          "name": "Baker Brothers II Mobil Products Inc", 
          "id": "169546043059625", 
          "category_list": [
            {
              "id": "193508567343323", 
              "name": "Petroleum Services"
            }, 
            {
              "id": "187133811318958", 
              "name": "Business Services"
            }
          ], 
          "location": {
            "city": "Ava", 
            "zip": "62907-1068", 
            "country": "United States", 
            "longitude": -89.497069999999994, 
            "state": "IL", 
            "street": "103 N Howard St", 
            "latitude": 37.888820000000003
          }
        }, 
        {
          "category": "Sports/recreation/activities", 
          "name": "Baker Brothers Racing", 
          "id": "397733817036852", 
          "category_list": [
            {
              "id": "139721016091877", 
              "name": "Outdoor Recreation"
            }
          ], 
          "location": {
            "city": "Frankfort", 
            "zip": "46041", 
            "country": "United States", 
            "longitude": -86.437354999999997, 
            "state": "IN", 
            "street": "3604 E michagnatown rd ", 
            "latitude": 40.310668999999997
          }
        }, 
        {
          "category": "Transportation", 
          "name": "Baker Brother's Towing Inc.", 
          "id": "175801769145026", 
          "category_list": [
            {
              "id": "2526", 
              "name": "Transportation"
            }
          ], 
          "location": {
            "city": "Duluth", 
            "zip": "30097", 
            "country": "United States", 
            "longitude": -84.101710999999995, 
            "state": "GA", 
            "street": "2264 duluth hwy 120", 
            "latitude": 33.978425000000001
          }
        }, 
        {
          "category": "Business services", 
          "name": "Brothers Bakers", 
          "id": "586023634751984", 
          "category_list": [
            {
              "id": "187827497907070", 
              "name": "Bakery"
            }
          ], 
          "location": {
            "city": "Pathanamthitta", 
            "zip": "", 
            "country": "India", 
            "longitude": 76.782484608459001, 
            "state": "", 
            "street": "Kozhencherry p.o. pathanamthitta", 
            "latitude": 9.2670935525445994
          }
        }, 
        {
          "category": "Local business", 
          "name": "Bakers Brothers", 
          "id": "130628010431708", 
          "category_list": [
            {
              "id": "165679780146824", 
              "name": "Food & Restaurant"
            }
          ], 
          "location": {
            "city": "Fort Worth", 
            "zip": "76244", 
            "country": "United States", 
            "longitude": -97.308999720599999, 
            "state": "TX", 
            "street": "Happy Trl", 
            "latitude": 32.913396718100003
          }
        }, 
        {
          "category": "Local business", 
          "name": "Bakers Brothers", 
          "id": "158268254337844", 
          "category_list": [
            {
              "id": "187827497907070", 
              "name": "Bakery"
            }
          ], 
          "location": {
            "city": "Plano", 
            "zip": "75075", 
            "country": "United States", 
            "longitude": -96.709322157822001, 
            "state": "TX", 
            "street": "", 
            "latitude": 33.017002128598001
          }
        }, 
        {
          "category": "Local business", 
          "name": "H J Baker & Brother", 
          "id": "158651107498613", 
          "category_list": [
            {
              "id": "189323644423254", 
              "name": "Agricultural Service"
            }, 
            {
              "id": "187133811318958", 
              "name": "Business Services"
            }
          ], 
          "location": {
            "city": "Forest", 
            "zip": "39074-4512", 
            "country": "United States", 
            "longitude": -89.472944999999996, 
            "state": "MS", 
            "street": "420 E Oak St", 
            "latitude": 32.360711999999999
          }
        }, 
        {
          "category": "Local business", 
          "name": "Baker Brother Ranch", 
          "id": "135774166472295", 
          "category_list": [
            {
              "id": "189323644423254", 
              "name": "Agricultural Service"
            }, 
            {
              "id": "187133811318958", 
              "name": "Business Services"
            }
          ], 
          "location": {
            "city": "Lodi", 
            "zip": "95240-9708", 
            "country": "United States", 
            "longitude": -121.153091, 
            "state": "CA", 
            "street": "15703 N Jack Tone Rd", 
            "latitude": 38.123089
          }
        }, 
        {
          "category": "Local business", 
          "name": "H J Baker Brother Inc", 
          "id": "156236791081197", 
          "category_list": [
            {
              "id": "108427109235243", 
              "name": "Home Improvement"
            }
          ], 
          "location": {
            "city": "Buford", 
            "zip": "30519-8782", 
            "country": "United States", 
            "longitude": -83.974204, 
            "state": "GA", 
            "street": "2675 Mall Of Georgia Blvd", 
            "latitude": 34.063966000000001
          }
        }, 
        {
          "category": "Local business", 
          "name": "Baker Brother Plumbing", 
          "id": "134872936562795", 
          "category_list": [
            {
              "id": "178867352155084", 
              "name": "Plumber"
            }
          ], 
          "location": {
            "city": "Rockwall", 
            "zip": "75032-2058", 
            "country": "United States", 
            "longitude": -96.439760000000007, 
            "state": "TX", 
            "street": "6730 Horizon Rd", 
            "latitude": 32.864759999999997
          }
        }
      ]
    }
  }, 
  {
    "business_name": "Sakana Sushi & Grill", 
    "business_id": "gqLWBFxOKag8dXwVxEvTrg", 
    "fb_pages": {
      "paging": {
        "next": "https://graph.facebook.com/search?type=place&access_token=229546593895315|yPLlHqq6YvDLIH4nL0kjJtIFSlU&limit=5000&offset=5000&__after_id=432410146777546"
      }, 
      "data": [
        {
          "category": "Local business", 
          "name": "Sakana Sushi", 
          "id": "239953792796942", 
          "category_list": [
            {
              "id": "134501539950711", 
              "name": "Sushi Restaurant"
            }
          ], 
          "location": {
            "city": "Tijuana", 
            "zip": "", 
            "country": "Mexico", 
            "longitude": -116.98733001014, 
            "state": "", 
            "street": "", 
            "latitude": 32.509426344289999
          }
        }, 
        {
          "category": "Restaurant/cafe", 
          "name": "Sakana Sushi", 
          "id": "209249935918334", 
          "category_list": [
            {
              "id": "273819889375819", 
              "name": "Restaurant"
            }
          ], 
          "location": {
            "city": "Plymouth", 
            "zip": "55442", 
            "country": "United States", 
            "longitude": -93.410012163700003, 
            "state": "MN", 
            "street": "4345 Nathan Lane N. Suite O", 
            "latitude": 45.033649067799999
          }
        }, 
        {
          "category": "Local business", 
          "name": "Sakana Sushi and Grill", 
          "id": "100880913308062", 
          "category_list": [
            {
              "id": "134501539950711", 
              "name": "Sushi Restaurant"
            }
          ], 
          "location": {
            "city": "Phoenix", 
            "zip": "85038", 
            "country": "United States", 
            "longitude": -111.97619518825999, 
            "state": "AZ", 
            "street": "5061 East Elliot Road", 
            "latitude": 33.347770188977002
          }
        }, 
        {
          "category": "Bar", 
          "name": "Sakana Sushi Lounge", 
          "id": "141827402509269", 
          "category_list": [
            {
              "id": "110290705711626", 
              "name": "Bar"
            }, 
            {
              "id": "134501539950711", 
              "name": "Sushi Restaurant"
            }
          ], 
          "location": {
            "city": "Ferndale", 
            "zip": "48220", 
            "country": "United States", 
            "longitude": -83.134868523609001, 
            "state": "MI", 
            "street": "22914 Woodward Avenue", 
            "latitude": 42.461760095442997
          }
        }, 
        {
          "category": "Food/grocery", 
          "name": "Sakana Sushi Chill\u00e1n", 
          "id": "323549951120651", 
          "category_list": [
            {
              "id": "134501539950711", 
              "name": "Sushi Restaurant"
            }
          ], 
          "location": {
            "city": "Chill\u00e1n", 
            "zip": "", 
            "country": "Chile", 
            "longitude": -72.098586343527003, 
            "state": "", 
            "street": "Avenida Libertad 875", 
            "latitude": -36.607120060611997
          }
        }, 
        {
          "category": "Local business", 
          "name": "Sakana Sushi & Grill", 
          "id": "100875326623701", 
          "category_list": [
            {
              "id": "134501539950711", 
              "name": "Sushi Restaurant"
            }
          ], 
          "location": {
            "city": "Mesa", 
            "zip": "85206-4331", 
            "country": "United States", 
            "longitude": -111.68669242454, 
            "state": "AZ", 
            "street": "1853 South Power Road", 
            "latitude": 33.381068963830998
          }
        }, 
        {
          "category": "Restaurant/cafe", 
          "name": "Sakana Sushi & Asian Bistro", 
          "id": "535669396446262", 
          "category_list": [
            {
              "id": "273819889375819", 
              "name": "Restaurant"
            }
          ], 
          "location": {
            "city": "Saint Paul", 
            "zip": "55116", 
            "country": "United States", 
            "longitude": -93.187170622595005, 
            "state": "MN", 
            "street": "740 Cleveland Ave S", 
            "latitude": 44.919176782260003
          }
        }, 
        {
          "category": "Local business", 
          "name": "Sakana Sushi", 
          "id": "163663387123941", 
          "category_list": [
            {
              "id": "134501539950711", 
              "name": "Sushi Restaurant"
            }
          ], 
          "location": {
            "city": "Boise", 
            "zip": "83705", 
            "country": "United States", 
            "longitude": -116.21371039900001, 
            "state": "ID", 
            "street": "", 
            "latitude": 43.595658965399998
          }
        }, 
        {
          "category": "Restaurant/cafe", 
          "name": "Sakana Sushi Bar & Japanese Cuisine - Utah", 
          "id": "134374165497", 
          "category_list": [
            {
              "id": "199035016778342", 
              "name": "Japanese Restaurant"
            }
          ], 
          "location": {
            "city": "West Jordan", 
            "zip": "84084", 
            "country": "United States", 
            "longitude": -111.98181884387, 
            "state": "UT", 
            "street": "7626 S. Campus View Drive", 
            "latitude": 40.612598265905
          }
        }, 
        {
          "category": "Local business", 
          "name": "Sakana", 
          "id": "158330710847468", 
          "category_list": [
            {
              "id": "134501539950711", 
              "name": "Sushi Restaurant"
            }
          ], 
          "location": {
            "city": "Wayzata", 
            "zip": "55391", 
            "country": "United States", 
            "longitude": -93.512151783727006, 
            "state": "MN", 
            "street": "", 
            "latitude": 44.969353972122001
          }
        }, 
        {
          "category": "Local business", 
          "name": "Sakana Sushi", 
          "id": "304378329606084", 
          "category_list": [
            {
              "id": "2500", 
              "name": "Local Business"
            }
          ], 
          "location": {
            "city": "Iquique", 
            "zip": "1100000", 
            "country": "Chile", 
            "longitude": -70.149445657300006, 
            "state": "", 
            "street": "Eleuterio  Ramirez 1038", 
            "latitude": -20.217846462800001
          }
        }, 
        {
          "category": "Local business", 
          "name": "Sakana Sushi Restaurant", 
          "id": "120723594606976", 
          "category_list": [
            {
              "id": "134501539950711", 
              "name": "Sushi Restaurant"
            }
          ], 
          "location": {
            "city": "Tampa", 
            "zip": "33611-2804", 
            "country": "United States", 
            "longitude": -82.490861755476004, 
            "state": "FL", 
            "street": "2908 W Gandy Blvd", 
            "latitude": 27.893253004542
          }
        }, 
        {
          "category": "Local business", 
          "name": "Sakana Sushi Bar & Japanese Restaurant", 
          "id": "117698901589757", 
          "category_list": [
            {
              "id": "134501539950711", 
              "name": "Sushi Restaurant"
            }
          ], 
          "location": {
            "city": "Santa Barbara", 
            "zip": "93108-2732", 
            "country": "United States", 
            "longitude": -119.65023087261, 
            "state": "CA", 
            "street": "1046 Coast Village Rd", 
            "latitude": 34.422252437565
          }
        }, 
        {
          "category": "Local business", 
          "name": "Sakana Sushi", 
          "id": "127917387275189", 
          "category_list": [
            {
              "id": "134501539950711", 
              "name": "Sushi Restaurant"
            }
          ], 
          "location": {
            "city": "Scottsdale", 
            "zip": "85250", 
            "country": "United States", 
            "longitude": -111.90579280105, 
            "state": "AZ", 
            "street": "", 
            "latitude": 33.538127020763
          }
        }, 
        {
          "category": "Local business", 
          "name": "Sakana Sushi", 
          "id": "157247380965339", 
          "category_list": [
            {
              "id": "134501539950711", 
              "name": "Sushi Restaurant"
            }
          ], 
          "location": {
            "city": "Manteca", 
            "zip": "95337", 
            "country": "United States", 
            "longitude": -121.239596052, 
            "state": "CA", 
            "street": "1460 W Yosemite Ave", 
            "latitude": 37.797171736999999
          }
        }, 
        {
          "category": "Local business", 
          "name": "Sakana Sushi Glendale", 
          "id": "242427585791295", 
          "category_list": [
            {
              "id": "134501539950711", 
              "name": "Sushi Restaurant"
            }
          ], 
          "location": {
            "city": "Glendale", 
            "zip": "85308", 
            "country": "United States", 
            "longitude": -112.18741194421, 
            "state": "AZ", 
            "street": "", 
            "latitude": 33.670053110013001
          }
        }, 
        {
          "category": "Local business", 
          "name": "Sushi Sakana", 
          "id": "143762132330139", 
          "category_list": [
            {
              "id": "134501539950711", 
              "name": "Sushi Restaurant"
            }
          ], 
          "location": {
            "city": "Plano", 
            "zip": "75075", 
            "country": "United States", 
            "longitude": -96.732035958363994, 
            "state": "TX", 
            "street": "3000 Custer Road Ste 110", 
            "latitude": 33.040374489401003
          }
        }, 
        {
          "category": "Local business", 
          "name": "Sakana Sushi", 
          "id": "118659601482371", 
          "category_list": [
            {
              "id": "134501539950711", 
              "name": "Sushi Restaurant"
            }
          ], 
          "location": {
            "city": "Walnut Creek", 
            "zip": "94596-5387", 
            "country": "United States", 
            "longitude": -122.054664746, 
            "state": "CA", 
            "street": "1280 Newell Ave", 
            "latitude": 37.894309166799999
          }
        }, 
        {
          "category": "Local business", 
          "name": "Sakana", 
          "id": "111480178873810", 
          "category_list": [
            {
              "id": "134501539950711", 
              "name": "Sushi Restaurant"
            }
          ], 
          "location": {
            "city": "San Francisco", 
            "zip": "94109", 
            "country": "United States", 
            "longitude": -122.41190097425, 
            "state": "CA", 
            "street": "605 Post Street", 
            "latitude": 37.787832945486002
          }
        }, 
        {
          "category": "Local business", 
          "name": "Sakana Sushi", 
          "id": "509353529121187", 
          "category_list": [
            {
              "id": "134501539950711", 
              "name": "Sushi Restaurant"
            }
          ], 
          "location": {
            "city": "Eindhoven", 
            "zip": "5611JS", 
            "country": "Netherlands", 
            "longitude": 5.4757388449500004, 
            "state": "", 
            "street": "Kleine Berg 1", 
            "latitude": 51.4379846665
          }
        }, 
        {
          "category": "Local business", 
          "name": "Sakana Sushi", 
          "id": "187089574752213", 
          "category_list": [
            {
              "id": "2500", 
              "name": "Local Business"
            }
          ], 
          "location": {
            "city": "Cabo San Lucas", 
            "zip": "", 
            "country": "Mexico", 
            "longitude": -109.95179980499999, 
            "state": "", 
            "street": "", 
            "latitude": 22.899567514299999
          }
        }, 
        {
          "category": "Local business", 
          "name": "Sakana Sushi", 
          "id": "136629056394503", 
          "category_list": [
            {
              "id": "134501539950711", 
              "name": "Sushi Restaurant"
            }
          ], 
          "location": {
            "city": "Angus", 
            "zip": "L0M 1B0", 
            "country": "Canada", 
            "longitude": -79.8848133929, 
            "state": "ON", 
            "street": "2 Massey St. Unit 3", 
            "latitude": 44.314807813800002
          }
        }, 
        {
          "category": "Restaurant/cafe", 
          "name": "Sakana Sushi Bar, Mooloolaba", 
          "id": "150276043795", 
          "category_list": [
            {
              "id": "134501539950711", 
              "name": "Sushi Restaurant"
            }
          ], 
          "location": {
            "city": "Mooloolaba", 
            "zip": "4557", 
            "country": "Australia", 
            "longitude": 153.13163640804001, 
            "state": "QLD", 
            "street": "25 Parkyn Parade", 
            "latitude": -26.684394758492999
          }
        }, 
        {
          "category": "Local business", 
          "name": "Sakana", 
          "id": "443647322399862", 
          "category_list": [
            {
              "id": "134501539950711", 
              "name": "Sushi Restaurant"
            }
          ], 
          "location": {
            "city": "Las Vegas", 
            "zip": "89119", 
            "country": "United States", 
            "longitude": -115.13833339200001, 
            "state": "NV", 
            "street": "3949 S Maryland Pkwy", 
            "latitude": 36.117027786199998
          }
        }, 
        {
          "category": "Local business", 
          "name": "Sakana", 
          "id": "128249433964370", 
          "category_list": [
            {
              "id": "134501539950711", 
              "name": "Sushi Restaurant"
            }
          ], 
          "location": {
            "city": "Meridian", 
            "zip": "83642", 
            "country": "United States", 
            "longitude": -116.35371000000001, 
            "state": "ID", 
            "street": "1718 S Eagle Rd", 
            "latitude": 43.588869000000003
          }
        }, 
        {
          "category": "Local business", 
          "name": "Sakan\u00e1 Sushi & Hand Rolls", 
          "id": "221194337894501", 
          "category_list": [
            {
              "id": "134501539950711", 
              "name": "Sushi Restaurant"
            }, 
            {
              "id": "150108431712141", 
              "name": "Food & Grocery"
            }
          ], 
          "location": {
            "city": "Belo Horizonte", 
            "zip": "30110-048", 
            "country": "Brazil", 
            "longitude": -43.944290338301997, 
            "state": "", 
            "street": "Av Contorno, 7000 Lourdes", 
            "latitude": -19.938279367581998
          }
        }, 
        {
          "category": "Bar", 
          "name": "Sakana Sushi Bar Wroc\u0142aw", 
          "id": "238601406173779", 
          "category_list": [
            {
              "id": "199035016778342", 
              "name": "Japanese Restaurant"
            }, 
            {
              "id": "110290705711626", 
              "name": "Bar"
            }
          ], 
          "location": {
            "city": "Wroclaw", 
            "zip": "50-113", 
            "country": "Poland", 
            "longitude": 17.031825896800001, 
            "state": "", 
            "street": "ul.Odrza\u0144ska 17/1A", 
            "latitude": 51.1128157765
          }
        }, 
        {
          "category": "Local business", 
          "name": "Sakana Sushi", 
          "id": "243296792402558", 
          "category_list": [
            {
              "id": "2500", 
              "name": "Local Business"
            }
          ], 
          "location": {
            "city": "Mazatl\u00e1n", 
            "zip": "", 
            "country": "Mexico", 
            "longitude": -106.412710683, 
            "state": "", 
            "street": "", 
            "latitude": 23.263515578
          }
        }, 
        {
          "category": "Local business", 
          "name": "Sakana Grill", 
          "id": "132594323436279", 
          "category_list": [
            {
              "id": "134501539950711", 
              "name": "Sushi Restaurant"
            }
          ], 
          "location": {
            "city": "Calgary", 
            "zip": "T2P0B9", 
            "country": "Canada", 
            "longitude": -114.06298449369, 
            "state": "AB", 
            "street": "116 2 Ave SW", 
            "latitude": 51.051487328943999
          }
        }, 
        {
          "category": "Local business", 
          "name": "Sakana Sushi", 
          "id": "258554830923646", 
          "category_list": [
            {
              "id": "2500", 
              "name": "Local Business"
            }
          ], 
          "location": {
            "city": "Penang", 
            "zip": "", 
            "country": "Malaysia", 
            "longitude": 100.33175638952, 
            "state": "", 
            "street": "", 
            "latitude": 5.4189306631390997
          }
        }, 
        {
          "category": "Restaurant/cafe", 
          "name": "Sushi Sakana", 
          "id": "171920792860751", 
          "category_list": [
            {
              "id": "134501539950711", 
              "name": "Sushi Restaurant"
            }
          ], 
          "location": {
            "city": "Beaufort", 
            "zip": "29906", 
            "country": "United States", 
            "longitude": -80.725149830758994, 
            "state": "SC", 
            "street": "860 Parris Island Gtwy", 
            "latitude": 32.377617281902999
          }
        }, 
        {
          "category": "Local business", 
          "name": "Sakana", 
          "id": "184213788282972", 
          "category_list": [
            {
              "id": "134501539950711", 
              "name": "Sushi Restaurant"
            }
          ], 
          "location": {
            "city": "Edmonton", 
            "zip": "", 
            "country": "Canada", 
            "longitude": -113.49819438969, 
            "state": "AB", 
            "street": "", 
            "latitude": 53.515621424745
          }
        }, 
        {
          "category": "Food/beverages", 
          "name": "Sakana Sushi", 
          "id": "278134688933708", 
          "category_list": [
            {
              "id": "2252", 
              "name": "Food/Beverages"
            }
          ], 
          "location": {
            "city": "Zapopan", 
            "zip": "45177", 
            "country": "Mexico", 
            "longitude": -103.3684625864, 
            "state": "", 
            "street": "Lago Tequesquitengo #2451", 
            "latitude": 20.715596132794001
          }
        }, 
        {
          "category": "Restaurant/cafe", 
          "name": "Sakana Sushi Bar", 
          "id": "119906541404252", 
          "category_list": [
            {
              "id": "273819889375819", 
              "name": "Restaurant"
            }
          ], 
          "location": {
            "city": "Warsaw", 
            "zip": "00-076", 
            "country": "Poland", 
            "longitude": 20.978896300199999, 
            "state": "", 
            "street": "Ul.Burakowska 5/7", 
            "latitude": 52.254297455699998
          }
        }, 
        {
          "category": "Restaurant/cafe", 
          "name": "Sakana Sushi - Ristorante Giapponese", 
          "id": "333427946668342", 
          "category_list": [
            {
              "id": "199035016778342", 
              "name": "Japanese Restaurant"
            }, 
            {
              "id": "174201535963762", 
              "name": "Asian Fusion Restaurant"
            }
          ], 
          "location": {
            "city": "Rome", 
            "zip": "00154", 
            "country": "Italy", 
            "longitude": 12.478999980799999, 
            "state": "", 
            "street": "Via del Gazometro, 54", 
            "latitude": 41.8718847329
          }
        }, 
        {
          "category": "Local business", 
          "name": "Sakana", 
          "id": "138716479505646", 
          "category_list": [
            {
              "id": "134501539950711", 
              "name": "Sushi Restaurant"
            }
          ], 
          "location": {
            "city": "Hicksville", 
            "zip": "11801", 
            "country": "United States", 
            "longitude": -73.5266390914, 
            "state": "NY", 
            "street": "", 
            "latitude": 40.769998689600001
          }
        }, 
        {
          "category": "Local business", 
          "name": "Sakana Sushi", 
          "id": "303851982990150", 
          "category_list": [
            {
              "id": "134501539950711", 
              "name": "Sushi Restaurant"
            }
          ], 
          "location": {
            "city": "Rome", 
            "zip": "", 
            "country": "Italy", 
            "longitude": 12.4789781731, 
            "state": "", 
            "street": "Via del Gazometro 54", 
            "latitude": 41.871876415400003
          }
        }, 
        {
          "category": "Restaurant/cafe", 
          "name": "Sakana Sushi Bar Krak\u00f3w", 
          "id": "189357651178173", 
          "category_list": [
            {
              "id": "134501539950711", 
              "name": "Sushi Restaurant"
            }
          ], 
          "location": {
            "city": "Krak\u00f3w", 
            "zip": "31-046", 
            "country": "Poland", 
            "longitude": 19.940603099899999, 
            "state": "", 
            "street": "\u015aw. Gertrudy 7", 
            "latitude": 50.0579174557
          }
        }, 
        {
          "category": "Restaurant/cafe", 
          "name": "Sakana Sushi Iquique", 
          "id": "190321184468019", 
          "category_list": [
            {
              "id": "134501539950711", 
              "name": "Sushi Restaurant"
            }
          ], 
          "location": {
            "city": "Iquique", 
            "zip": "1101046", 
            "country": "Chile", 
            "longitude": -70.149372600000007, 
            "state": "", 
            "street": "Ramirez #1038", 
            "latitude": -20.218530600000001
          }
        }, 
        {
          "category": "Local business", 
          "name": "Sakana Sushi & Grill Restaurant", 
          "id": "287311958043019", 
          "category_list": [
            {
              "id": "134501539950711", 
              "name": "Sushi Restaurant"
            }
          ], 
          "location": {
            "city": "'s-Hertogenbosch", 
            "zip": "5211 TX ", 
            "country": "Netherlands", 
            "longitude": 5.2978714857, 
            "state": "", 
            "street": "Havensingel 7", 
            "latitude": 51.6910557406
          }
        }, 
        {
          "category": "Local business", 
          "name": "Sakana Sushi & Sashimi", 
          "id": "161064213984327", 
          "category_list": [
            {
              "id": "2500", 
              "name": "Local Business"
            }
          ], 
          "location": {
            "latitude": 13.780413551881001, 
            "street": "", 
            "zip": "", 
            "longitude": 100.53513836296
          }
        }, 
        {
          "category": "Local business", 
          "name": "Sakana Sushi", 
          "id": "196375783715484", 
          "category_list": [
            {
              "id": "134501539950711", 
              "name": "Sushi Restaurant"
            }
          ], 
          "location": {
            "city": "Braunschweig", 
            "zip": "38104 ", 
            "country": "Germany", 
            "longitude": 10.542608720900001, 
            "state": "", 
            "street": "Kastanienallee 14", 
            "latitude": 52.262949742899998
          }
        }, 
        {
          "category": "Restaurant/cafe", 
          "name": "Sakana Japanese Sushi & Grill", 
          "id": "157931190911853", 
          "category_list": [
            {
              "id": "174201535963762", 
              "name": "Asian Fusion Restaurant"
            }, 
            {
              "id": "199035016778342", 
              "name": "Japanese Restaurant"
            }
          ], 
          "location": {
            "city": "La Canada Flintridge", 
            "zip": "91011", 
            "country": "United States", 
            "longitude": -118.23046632901, 
            "state": "CA", 
            "street": "2383 Foothill Blvd", 
            "latitude": 34.218943193690997
          }
        }, 
        {
          "category": "Local business", 
          "name": "Sakana Grill Inc", 
          "id": "137572052926892", 
          "category_list": [
            {
              "id": "134501539950711", 
              "name": "Sushi Restaurant"
            }
          ], 
          "location": {
            "city": "Calgary", 
            "zip": "T3G2T3", 
            "country": "Canada", 
            "longitude": -114.20330975596001, 
            "state": "AB", 
            "street": "10 Crowfoot Cir NW", 
            "latitude": 51.123220981163001
          }
        }, 
        {
          "category": "Restaurant/cafe", 
          "name": "Sakana Sushi", 
          "id": "195534320527702", 
          "category_list": [
            {
              "id": "273819889375819", 
              "name": "Restaurant"
            }
          ], 
          "location": {
            "city": "Hamburg", 
            "zip": "22769", 
            "country": "Germany", 
            "longitude": 9.94407524937, 
            "state": "", 
            "street": "Kielerstr. 71", 
            "latitude": 53.568619063600003
          }
        }, 
        {
          "category": "Food/grocery", 
          "name": "Sakana Sushi Express, c.a", 
          "id": "176588872522313", 
          "category_list": [
            {
              "id": "150108431712141", 
              "name": "Food & Grocery"
            }
          ], 
          "location": {
            "city": "El Tigre", 
            "zip": "6050", 
            "country": "Venezuela", 
            "longitude": -64.252799999999993, 
            "state": "", 
            "street": "", 
            "latitude": 8.8925000000000001
          }
        }, 
        {
          "category": "Local business", 
          "name": "Sakana Japanese Restaurant", 
          "id": "108236492551333", 
          "category_list": [
            {
              "id": "134501539950711", 
              "name": "Sushi Restaurant"
            }
          ], 
          "location": {
            "city": "Harrisburg", 
            "zip": "17112-9286", 
            "country": "United States", 
            "longitude": -76.821345906782994, 
            "state": "PA", 
            "street": "2308 Patton Rd", 
            "latitude": 40.337135256678998
          }
        }, 
        {
          "category": "Local business", 
          "name": "Sakana Bune Japanese Restaurant", 
          "id": "144216575611133", 
          "category_list": [
            {
              "id": "134501539950711", 
              "name": "Sushi Restaurant"
            }
          ], 
          "location": {
            "city": "San Francisco", 
            "zip": "94121", 
            "country": "United States", 
            "longitude": -122.48049430875, 
            "state": "CA", 
            "street": "5701 Geary Blvd", 
            "latitude": 37.780218854657001
          }
        }, 
        {
          "category": "Local business", 
          "name": "Sakana Sushi", 
          "id": "204208722949144", 
          "category_list": [
            {
              "id": "134501539950711", 
              "name": "Sushi Restaurant"
            }
          ], 
          "location": {
            "city": "Katowice", 
            "zip": "40-013", 
            "country": "Poland", 
            "longitude": 19.024760757799999, 
            "state": "", 
            "street": "ul. Miel\u0119ckiego 6", 
            "latitude": 50.258459166000002
          }
        }, 
        {
          "category": "Food/grocery", 
          "name": "Sakana MAKI SUSHI", 
          "id": "561260663958392", 
          "category_list": [
            {
              "id": "192803624072087", 
              "name": "Fast Food Restaurant"
            }, 
            {
              "id": "200019523363001", 
              "name": "Food & Beverage Service & Distribution"
            }
          ], 
          "location": {
            "city": "Cagayan de Oro", 
            "zip": "9000", 
            "country": "Philippines", 
            "longitude": 124.65048, 
            "state": "", 
            "street": "corales extension", 
            "latitude": 8.4859749999999998
          }
        }, 
        {
          "category": "Restaurant/cafe", 
          "name": "BISTRO SAKANA", 
          "id": "116971178329270", 
          "category_list": [
            {
              "id": "134501539950711", 
              "name": "Sushi Restaurant"
            }
          ], 
          "location": {
            "city": "Vancouver", 
            "zip": "V6B 5P2", 
            "country": "Canada", 
            "longitude": -123.12100567836001, 
            "state": "BC", 
            "street": "1123 Mainland Street", 
            "latitude": 49.275305984277999
          }
        }, 
        {
          "category": "Local business", 
          "name": "Sushi Sakana", 
          "id": "421032514651858", 
          "category_list": [
            {
              "id": "134501539950711", 
              "name": "Sushi Restaurant"
            }
          ], 
          "location": {
            "city": "Chill\u00e1n", 
            "zip": "", 
            "country": "Chile", 
            "longitude": -72.104097427699998, 
            "state": "", 
            "street": "", 
            "latitude": -36.604655020999999
          }
        }, 
        {
          "category": "Restaurant/cafe", 
          "name": "Sakana Sushi Bar NT", 
          "id": "147364388775125", 
          "category_list": [
            {
              "id": "134501539950711", 
              "name": "Sushi Restaurant"
            }
          ], 
          "location": {
            "city": "Cottbus", 
            "zip": "03044", 
            "country": "Germany", 
            "longitude": 14.331715405700001, 
            "state": "", 
            "street": "Friedrich-Ebert Str. 43", 
            "latitude": 51.763376403999999
          }
        }, 
        {
          "category": "Local business", 
          "name": "Sakana Sushi", 
          "id": "144936405577832", 
          "category_list": [
            {
              "id": "134501539950711", 
              "name": "Sushi Restaurant"
            }
          ], 
          "location": {
            "latitude": -27.4185355756, 
            "street": "", 
            "zip": "", 
            "longitude": 153.055171874
          }
        }, 
        {
          "category": "Local business", 
          "name": "Sakana Sushi Bar", 
          "id": "167065976639374", 
          "category_list": [
            {
              "id": "134501539950711", 
              "name": "Sushi Restaurant"
            }
          ], 
          "location": {
            "latitude": 52.244239808309999, 
            "city": "Warszawa, mazowieckie", 
            "street": "ul. Moliera 4/6", 
            "zip": "00-076", 
            "longitude": 21.011330590983999
          }
        }, 
        {
          "category": "Local business", 
          "name": "Sakana Sushi", 
          "id": "149371845099478", 
          "category_list": [
            {
              "id": "134501539950711", 
              "name": "Sushi Restaurant"
            }
          ], 
          "location": {
            "city": "Simi Valley", 
            "zip": "93065", 
            "country": "United States", 
            "longitude": -118.739336112, 
            "state": "CA", 
            "street": "", 
            "latitude": 34.2799378817
          }
        }, 
        {
          "category": "Local business", 
          "name": "Sakana Sushi", 
          "id": "120481354632354", 
          "category_list": [
            {
              "id": "134501539950711", 
              "name": "Sushi Restaurant"
            }
          ], 
          "location": {
            "city": "South Orange", 
            "zip": "07079-1902", 
            "country": "United States", 
            "longitude": -74.255915999999999, 
            "state": "NJ", 
            "street": "134 S Orange Ave", 
            "latitude": 40.745221000000001
          }
        }, 
        {
          "category": "Restaurant/cafe", 
          "name": "Sakana Sushi Cafe", 
          "id": "348241511946087", 
          "category_list": [
            {
              "id": "273819889375819", 
              "name": "Restaurant"
            }
          ], 
          "location": {
            "city": "Auckland", 
            "zip": "0630", 
            "country": "New Zealand", 
            "longitude": 174.74167, 
            "state": "", 
            "street": "544 East Coast Road Windsor Park", 
            "latitude": -36.738889999999998
          }
        }, 
        {
          "category": "Restaurant/cafe", 
          "name": "Sakana Sushi & Grill", 
          "id": "594890993925647", 
          "category_list": [
            {
              "id": "273819889375819", 
              "name": "Restaurant"
            }
          ], 
          "location": {
            "city": "Atlanta", 
            "zip": "30309", 
            "country": "United States", 
            "longitude": -84.391335999999995, 
            "state": "GA", 
            "street": "2221 Peachtree Rd NE", 
            "latitude": 33.815176999999998
          }
        }, 
        {
          "category": "Restaurant/cafe", 
          "name": "Sakana Japanese Restaurant", 
          "id": "116092935085461", 
          "category_list": [
            {
              "id": "273819889375819", 
              "name": "Restaurant"
            }
          ], 
          "location": {
            "city": "Nanuet", 
            "zip": "10954-2209", 
            "country": "United States", 
            "longitude": -74.014572516285, 
            "state": "NY", 
            "street": "25 Rockland Plz, route 59 west", 
            "latitude": 41.098882330728003
          }
        }, 
        {
          "category": "Restaurant/cafe", 
          "name": "Sakana Sushi Bar & Japanese Restaurant", 
          "id": "710377308978172", 
          "category_list": [
            {
              "id": "134501539950711", 
              "name": "Sushi Restaurant"
            }, 
            {
              "id": "110290705711626", 
              "name": "Bar"
            }
          ], 
          "location": {
            "city": "Reno", 
            "zip": "89523", 
            "country": "United States", 
            "longitude": -119.91246, 
            "state": "NV", 
            "street": "7655 Town Square Way", 
            "latitude": 39.531672
          }
        }, 
        {
          "category": "Food/grocery", 
          "name": "Sushi sakana", 
          "id": "659715247378820", 
          "category_list": [
            {
              "id": "150108431712141", 
              "name": "Food & Grocery"
            }
          ], 
          "location": {
            "city": "Algarrobo", 
            "zip": "2711421", 
            "country": "Chile", 
            "longitude": -71.662304217400006, 
            "state": "", 
            "street": "avenida carlos alessandri", 
            "latitude": -33.358540607899997
          }
        }, 
        {
          "category": "Food/grocery", 
          "name": "Sakana Sushi Plc", 
          "id": "1440216199531129", 
          "category_list": [
            {
              "id": "134501539950711", 
              "name": "Sushi Restaurant"
            }
          ], 
          "location": {
            "city": "Puerto La Cruz", 
            "zip": "", 
            "country": "Venezuela", 
            "longitude": -64.616699999999994, 
            "state": "", 
            "street": "C.C. Regina", 
            "latitude": 10.216699999999999
          }
        }, 
        {
          "category": "Local business", 
          "name": "Sakana Sushi", 
          "id": "169538176416084", 
          "category_list": [
            {
              "id": "134501539950711", 
              "name": "Sushi Restaurant"
            }
          ], 
          "location": {
            "city": "Oslo", 
            "zip": "0152", 
            "country": "Norway", 
            "longitude": 10.748418403694, 
            "state": "", 
            "street": "Prinsens gate 2", 
            "latitude": 59.910240498252001
          }
        }, 
        {
          "category": "Local business", 
          "name": "SAKANA Sushi bar and cuisine", 
          "id": "109843815829464", 
          "category_list": [
            {
              "id": "134501539950711", 
              "name": "Sushi Restaurant"
            }
          ], 
          "location": {
            "city": "Penang", 
            "zip": "", 
            "country": "Malaysia", 
            "longitude": 100.331368811, 
            "state": "", 
            "street": "", 
            "latitude": 5.4186407934799998
          }
        }, 
        {
          "category": "Local business", 
          "name": "Sakana", 
          "id": "200723960051996", 
          "category_list": [
            {
              "id": "134501539950711", 
              "name": "Sushi Restaurant"
            }
          ], 
          "location": {
            "city": "Reynoldsburg", 
            "zip": "43068", 
            "country": "United States", 
            "longitude": -82.789983775099998, 
            "state": "OH", 
            "street": "", 
            "latitude": 39.986853147300003
          }
        }, 
        {
          "category": "Local business", 
          "name": "Sakana", 
          "id": "194063473966763", 
          "category_list": [
            {
              "id": "134501539950711", 
              "name": "Sushi Restaurant"
            }
          ], 
          "location": {
            "city": "Santa Barbara", 
            "zip": "93108", 
            "country": "United States", 
            "longitude": -119.65031121, 
            "state": "CA", 
            "street": "", 
            "latitude": 34.422188849999998
          }
        }, 
        {
          "category": "Local business", 
          "name": "Sakana", 
          "id": "304036776286396", 
          "category_list": [
            {
              "id": "134501539950711", 
              "name": "Sushi Restaurant"
            }
          ], 
          "location": {
            "city": "Warsaw", 
            "zip": "", 
            "country": "Poland", 
            "longitude": 21.068854094500001, 
            "state": "", 
            "street": "", 
            "latitude": 52.131542713499996
          }
        }, 
        {
          "category": "Restaurant/cafe", 
          "name": "Sakana Sushi Restaurant", 
          "id": "160981277249374", 
          "category_list": [
            {
              "id": "134501539950711", 
              "name": "Sushi Restaurant"
            }
          ], 
          "location": {
            "city": "Lake Forest", 
            "zip": "92630", 
            "country": "United States", 
            "longitude": -117.705032, 
            "state": "CA", 
            "street": "24301 Muirlands Blvd", 
            "latitude": 33.629620000000003
          }
        }, 
        {
          "category": "Local business", 
          "name": "Sakana Japanese Restaurant", 
          "id": "120885204592234", 
          "category_list": [
            {
              "id": "134501539950711", 
              "name": "Sushi Restaurant"
            }, 
            {
              "id": "174201535963762", 
              "name": "Asian Fusion Restaurant"
            }
          ], 
          "location": {
            "city": "Washington", 
            "zip": "20036-6907", 
            "country": "United States", 
            "longitude": -77.046100510000002, 
            "state": "DC", 
            "street": "2026 P St NW", 
            "latitude": 38.909618812193003
          }
        }, 
        {
          "category": "Local business", 
          "name": "Sakana Sushi Asian Fusion", 
          "id": "478460088890360", 
          "category_list": [
            {
              "id": "165679780146824", 
              "name": "Food & Restaurant"
            }
          ], 
          "location": {
            "city": "Columbus", 
            "zip": "43068", 
            "country": "United States", 
            "longitude": -82.789980260600004, 
            "state": "OH", 
            "street": "7952 E. Board Street", 
            "latitude": 39.986984915299999
          }
        }, 
        {
          "category": "Restaurant/cafe", 
          "name": "Sakana Japanese Cuisine", 
          "id": "113252462030252", 
          "category_list": [
            {
              "id": "273819889375819", 
              "name": "Restaurant"
            }
          ], 
          "location": {
            "city": "Frisco", 
            "zip": "75034", 
            "country": "United States", 
            "longitude": -96.825501747504006, 
            "state": "TX", 
            "street": "6950 Lebanon Road Suite 106", 
            "latitude": 33.123712361719001
          }
        }, 
        {
          "category": "Local business", 
          "name": "Sakana(Sushi)-Palmanova", 
          "id": "143376109060498", 
          "category_list": [
            {
              "id": "134501539950711", 
              "name": "Sushi Restaurant"
            }
          ], 
          "location": {
            "city": "Calvi\u00e1", 
            "zip": "", 
            "country": "Spain", 
            "longitude": 2.5397615577099999, 
            "state": "", 
            "street": "", 
            "latitude": 39.524951926500002
          }
        }, 
        {
          "category": "Local business", 
          "name": "Sakana Sushi Bar", 
          "id": "177569612291672", 
          "category_list": [
            {
              "id": "134501539950711", 
              "name": "Sushi Restaurant"
            }
          ], 
          "location": {
            "city": "Poznan", 
            "zip": "61-782", 
            "country": "Poland", 
            "longitude": 16.935923556300001, 
            "state": "", 
            "street": "Wodna 7", 
            "latitude": 52.407522874999998
          }
        }, 
        {
          "category": "Restaurant/cafe", 
          "name": "Sakana Sushi Lounge", 
          "id": "803495163000002", 
          "category_list": [
            {
              "id": "134501539950711", 
              "name": "Sushi Restaurant"
            }
          ], 
          "location": {
            "city": "Chill\u00e1n", 
            "zip": "", 
            "country": "Chile", 
            "longitude": -72.106136803962002, 
            "state": "", 
            "street": "Calle Bulnes 454", 
            "latitude": -36.608412609990999
          }
        }, 
        {
          "category": "Restaurant/cafe", 
          "name": "Sakana Sushi Bar W\u0105wozowa", 
          "id": "253927761298179", 
          "category_list": [
            {
              "id": "134501539950711", 
              "name": "Sushi Restaurant"
            }
          ], 
          "location": {
            "city": "Kabaty", 
            "zip": "02-796", 
            "country": "Poland", 
            "longitude": 21.069040985200001, 
            "state": "", 
            "street": "W\u0105wozowa 6", 
            "latitude": 52.131541202699999
          }
        }, 
        {
          "category": "Local business", 
          "name": "Sakana Hibachi Steak House and Sushi", 
          "id": "174791042582832", 
          "category_list": [
            {
              "id": "134501539950711", 
              "name": "Sushi Restaurant"
            }
          ], 
          "location": {
            "latitude": 40.337281543899998, 
            "street": "", 
            "zip": "", 
            "longitude": -76.821598231199999
          }
        }, 
        {
          "category": "Local business", 
          "name": "Sakana Japanese Fusion", 
          "id": "202040019861904", 
          "category_list": [
            {
              "id": "134501539950711", 
              "name": "Sushi Restaurant"
            }
          ], 
          "location": {
            "city": "Elmhurst", 
            "zip": "60126", 
            "country": "United States", 
            "longitude": -87.940649643499995, 
            "state": "IL", 
            "street": "", 
            "latitude": 41.902226188999997
          }
        }, 
        {
          "category": "Local business", 
          "name": "Sakana-Ya", 
          "id": "333856420041760", 
          "category_list": [
            {
              "id": "134501539950711", 
              "name": "Sushi Restaurant"
            }
          ], 
          "location": {
            "city": "Syracuse", 
            "zip": "13202", 
            "country": "United States", 
            "longitude": -76.156211999999996, 
            "state": "NY", 
            "street": "215 Walton St", 
            "latitude": 43.047736999999998
          }
        }, 
        {
          "category": "Food/grocery", 
          "name": "Sakana Kin Sushi", 
          "id": "538896612838605", 
          "category_list": [
            {
              "id": "165679780146824", 
              "name": "Food & Restaurant"
            }
          ], 
          "location": {
            "city": "Nueva Caracas", 
            "zip": "1040", 
            "country": "Venezuela", 
            "longitude": -66.950000000000003, 
            "state": "", 
            "street": "Caracas", 
            "latitude": 10.5167
          }
        }, 
        {
          "category": "Restaurant/cafe", 
          "name": "Sushi Bar Sakana", 
          "id": "192136694164561", 
          "category_list": [
            {
              "id": "134501539950711", 
              "name": "Sushi Restaurant"
            }
          ], 
          "location": {
            "city": "Stockholm", 
            "zip": "11537", 
            "country": "Sweden", 
            "longitude": 18.100111471599998, 
            "state": "", 
            "street": "Furusundsgatan 18", 
            "latitude": 59.346270969400003
          }
        }, 
        {
          "category": "Restaurant/cafe", 
          "name": "SakanaSushi Milano", 
          "id": "114731298587319", 
          "category_list": [
            {
              "id": "180256082015845", 
              "name": "Pizza Place"
            }, 
            {
              "id": "134501539950711", 
              "name": "Sushi Restaurant"
            }, 
            {
              "id": "174483852595760", 
              "name": "Chinese Restaurant"
            }
          ], 
          "location": {
            "city": "Milan", 
            "zip": "20146", 
            "country": "Italy", 
            "longitude": 9.1430964908300005, 
            "state": "", 
            "street": "via  giambellino 56", 
            "latitude": 45.4488397398
          }
        }, 
        {
          "category": "Local business", 
          "name": "Sakana-Tei", 
          "id": "147220781983446", 
          "category_list": [
            {
              "id": "134501539950711", 
              "name": "Sushi Restaurant"
            }
          ], 
          "location": {
            "city": "London", 
            "zip": "W1S 2QF", 
            "country": "United Kingdom", 
            "longitude": -0.14159187121299999, 
            "state": "", 
            "street": "11 Maddox Street", 
            "latitude": 51.513410277699997
          }
        }, 
        {
          "category": "Local business", 
          "name": "Sakana @ Aree Garden", 
          "id": "186421601489132", 
          "category_list": [
            {
              "id": "134501539950711", 
              "name": "Sushi Restaurant"
            }
          ], 
          "location": {
            "city": "Bangkok", 
            "zip": "", 
            "country": "Thailand", 
            "longitude": 100.53520278662999, 
            "state": "", 
            "street": "", 
            "latitude": 13.780427858472001
          }
        }, 
        {
          "category": "Local business", 
          "name": "\u6f01\u6c11 Koi Sakana", 
          "id": "456060674476271", 
          "category_list": [
            {
              "id": "134501539950711", 
              "name": "Sushi Restaurant"
            }
          ], 
          "location": {
            "city": "Richmond Hill", 
            "zip": "", 
            "country": "Canada", 
            "longitude": -79.396924108700006, 
            "state": "ON", 
            "street": "360 HIGHWAY 7", 
            "latitude": 43.841555980300001
          }
        }, 
        {
          "category": "Local business", 
          "name": "Bistro Sakana", 
          "id": "126781464187257", 
          "category_list": [
            {
              "id": "134501539950711", 
              "name": "Sushi Restaurant"
            }
          ], 
          "location": {
            "city": "Los Angeles", 
            "zip": "", 
            "country": "United States", 
            "longitude": -118.297847307, 
            "state": "CA", 
            "street": "6th St", 
            "latitude": 34.063583313300001
          }
        }, 
        {
          "category": "Restaurant/cafe", 
          "name": "Sakana Japanese Cuisine", 
          "id": "588902547807753", 
          "category_list": [
            {
              "id": "134501539950711", 
              "name": "Sushi Restaurant"
            }
          ], 
          "location": {
            "city": "Edmonton", 
            "zip": "T6E 4C8", 
            "country": "Canada", 
            "longitude": -113.50798777771, 
            "state": "AB", 
            "street": "7908-104 Street", 
            "latitude": 53.514547275764997
          }
        }, 
        {
          "category": "Restaurant/cafe", 
          "name": "SAKANA Dining&Bar \u548c\u3000NAGOMI", 
          "id": "200198596687948", 
          "category_list": [
            {
              "id": "273819889375819", 
              "name": "Restaurant"
            }
          ], 
          "location": {
            "city": "Hiratsuka-shi", 
            "zip": "254-0807", 
            "country": "Japan", 
            "longitude": 139.352411528, 
            "state": "Kanagawa", 
            "street": "\u4ee3\u5b98\u753a1\uff0d9\uff0d106", 
            "latitude": 35.327640693100001
          }
        }, 
        {
          "category": "Restaurant/cafe", 
          "name": "Sakana Japanese Cuisine Singapore", 
          "id": "432410146777546", 
          "category_list": [
            {
              "id": "134501539950711", 
              "name": "Sushi Restaurant"
            }
          ], 
          "location": {
            "city": "Singapore", 
            "zip": "088905", 
            "country": "Singapore", 
            "longitude": 103.84197, 
            "street": "81 NEIL ROAD", 
            "latitude": 1.2790299999999999
          }
        }
      ]
    }
  }, 
  {
    "business_name": "Cigar Inn", 
    "business_id": "fguZvdgXMC17PnevAvvHfA", 
    "fb_pages": {
      "paging": {
        "next": "https://graph.facebook.com/search?type=place&access_token=229546593895315|yPLlHqq6YvDLIH4nL0kjJtIFSlU&limit=5000&offset=5000&__after_id=372157136232338"
      }, 
      "data": [
        {
          "category": "Local business", 
          "name": "Cigar Inn", 
          "id": "111922135529849", 
          "category_list": [
            {
              "id": "196434697050078", 
              "name": "Tobacco Store"
            }
          ], 
          "location": {
            "city": "Phoenix", 
            "zip": "85016", 
            "country": "United States", 
            "longitude": -112.04787392442999, 
            "state": "AZ", 
            "street": "4830 N. 16th st", 
            "latitude": 33.508646526462002
          }
        }, 
        {
          "category": "Local business", 
          "name": "Cigar Inn", 
          "id": "147277568624686", 
          "category_list": [
            {
              "id": "196434697050078", 
              "name": "Tobacco Store"
            }
          ], 
          "location": {
            "city": "Belleville", 
            "zip": "62226-5517", 
            "country": "United States", 
            "longitude": -90.020790000000005, 
            "state": "IL", 
            "street": "12 N 44th St", 
            "latitude": 38.539864000000001
          }
        }, 
        {
          "category": "Bar", 
          "name": "Casa De Montecristo Smoke Inn Cigar Bar", 
          "id": "464357086981563", 
          "category_list": [
            {
              "id": "110290705711626", 
              "name": "Bar"
            }
          ], 
          "location": {
            "city": "Boynton Beach", 
            "zip": "33426", 
            "country": "United States", 
            "longitude": -80.075329809899998, 
            "state": "FL", 
            "street": "1030 Gateway Blvd", 
            "latitude": 26.550566110599998
          }
        }, 
        {
          "category": "Shopping/retail", 
          "name": "Smoke Inn Cigars", 
          "id": "292216910801330", 
          "category_list": [
            {
              "id": "196434697050078", 
              "name": "Tobacco Store"
            }
          ], 
          "location": {
            "city": "Boynton Beach", 
            "zip": "33426", 
            "country": "United States", 
            "longitude": -80.075764000000007, 
            "state": "FL", 
            "street": "1030 Gateway Blvd", 
            "latitude": 26.550470000000001
          }
        }, 
        {
          "category": "Local business", 
          "name": "Smoke Inn Cigar Bar", 
          "id": "125265254190952", 
          "category_list": [
            {
              "id": "161811347201528", 
              "name": "Lodging"
            }, 
            {
              "id": "200600219953504", 
              "name": "Shopping & Retail"
            }
          ], 
          "location": {
            "city": "Margate", 
            "zip": "33063", 
            "country": "United States", 
            "longitude": -80.224883812000002, 
            "state": "FL", 
            "street": "", 
            "latitude": 26.252897365700001
          }
        }, 
        {
          "category": "Shopping/retail", 
          "name": "Smoke Inn Cigars, Vero Beach", 
          "id": "298846850234301", 
          "category_list": [
            {
              "id": "196434697050078", 
              "name": "Tobacco Store"
            }
          ], 
          "location": {
            "city": "Vero Beach", 
            "zip": "32960", 
            "country": "United States", 
            "longitude": -80.383759339500003, 
            "state": "FL", 
            "street": "514 21st Street", 
            "latitude": 27.640824684399998
          }
        }, 
        {
          "category": "Bar", 
          "name": "Smoke Inn Cigars Delray Beach", 
          "id": "123828967693864", 
          "category_list": [
            {
              "id": "199833073363963", 
              "name": "Liquor Store"
            }, 
            {
              "id": "196434697050078", 
              "name": "Tobacco Store"
            }, 
            {
              "id": "110290705711626", 
              "name": "Bar"
            }
          ], 
          "location": {
            "city": "Delray Beach", 
            "zip": "33483", 
            "country": "United States", 
            "longitude": -80.067440283600007, 
            "state": "FL", 
            "street": "202 NE 6th Ave", 
            "latitude": 26.465569476176
          }
        }, 
        {
          "category": "Professional services", 
          "name": "The Barber at the Inn", 
          "id": "1450236071866646", 
          "category_list": [
            {
              "id": "169758603141095", 
              "name": "Barber Shop"
            }, 
            {
              "id": "196434697050078", 
              "name": "Tobacco Store"
            }, 
            {
              "id": "135930436481618", 
              "name": "Lounge"
            }
          ], 
          "location": {
            "city": "New York", 
            "zip": "10022", 
            "country": "United States", 
            "longitude": -73.966927360900002, 
            "state": "NY", 
            "street": "1016 2nd Ave ", 
            "latitude": 40.757069203599997
          }
        }, 
        {
          "category": "Local business", 
          "name": "Cigar Room At The Mark (Shilo Inn)", 
          "id": "264652756884233", 
          "category_list": [
            {
              "id": "2500", 
              "name": "Local Business"
            }
          ], 
          "location": {
            "city": "Beaverton", 
            "zip": "97005", 
            "country": "United States", 
            "longitude": -122.777770847, 
            "state": "OR", 
            "street": "9900 SW Canyon Road", 
            "latitude": 45.493407846799997
          }
        }, 
        {
          "category": "Local business", 
          "name": "Innovator Cigar Co", 
          "id": "150020698351057", 
          "category_list": [
            {
              "id": "196434697050078", 
              "name": "Tobacco Store"
            }
          ], 
          "location": {
            "city": "Carrollton", 
            "zip": "75006-8611", 
            "country": "United States", 
            "longitude": -96.914392000000007, 
            "state": "TX", 
            "street": "1620 N Interstate 35e", 
            "latitude": 32.960275000000003
          }
        }, 
        {
          "category": "Local business", 
          "name": "Cigars Inn", 
          "id": "372157136232338", 
          "category_list": [
            {
              "id": "223801560977980", 
              "name": "Hookah Lounge"
            }
          ], 
          "location": {
            "city": "Glendale", 
            "zip": "85308", 
            "country": "United States", 
            "longitude": -112.187010921, 
            "state": "AZ", 
            "street": "", 
            "latitude": 33.639977748500002
          }
        }
      ]
    }
  }, 
  {
    "business_name": "Wells Fargo Arena", 
    "business_id": "9YHZ0of-3vwIhBW3SBPLjA", 
    "fb_pages": {
      "paging": {
        "next": "https://graph.facebook.com/search?type=place&access_token=229546593895315|yPLlHqq6YvDLIH4nL0kjJtIFSlU&limit=5000&offset=5000&__after_id=272097436161226"
      }, 
      "data": [
        {
          "category": "Attractions/things to do", 
          "name": "Wells Fargo Arena", 
          "id": "147288008641243", 
          "category_list": [
            {
              "id": "211155112228091", 
              "name": "Event Venue"
            }, 
            {
              "id": "179943432047564", 
              "name": "Concert Venue"
            }, 
            {
              "id": "109976259083543", 
              "name": "Sports Venue & Stadium"
            }
          ], 
          "location": {
            "city": "Des Moines", 
            "zip": "50309", 
            "country": "United States", 
            "longitude": -93.621191527885998, 
            "state": "IA", 
            "street": "730 3rd Street", 
            "latitude": 41.592655884957999
          }
        }, 
        {
          "category": "Local business", 
          "name": "Wells Fargo Arena", 
          "id": "146824008671460", 
          "category_list": [
            {
              "id": "108051929285833", 
              "name": "College & University"
            }, 
            {
              "id": "186982054657561", 
              "name": "Sports & Recreation"
            }, 
            {
              "id": "109976259083543", 
              "name": "Sports Venue & Stadium"
            }
          ], 
          "location": {
            "city": "Tempe", 
            "zip": "85281", 
            "country": "United States", 
            "longitude": -111.93114571629999, 
            "state": "AZ", 
            "street": "600 E. Veterans Way", 
            "latitude": 33.424460273012002
          }
        }, 
        {
          "category": "Local business", 
          "name": "Wells Fargo Arena", 
          "id": "260577814058216", 
          "category_list": [
            {
              "id": "109976259083543", 
              "name": "Sports Venue & Stadium"
            }, 
            {
              "id": "186982054657561", 
              "name": "Sports & Recreation"
            }, 
            {
              "id": "161516070564222", 
              "name": "Financial Services"
            }
          ], 
          "location": {
            "city": "Philadelphia", 
            "zip": "19148", 
            "country": "United States", 
            "longitude": -75.171888631873998, 
            "state": "PA", 
            "street": "3601 South Broad Street", 
            "latitude": 39.901164858914001
          }
        }, 
        {
          "category": "Local business", 
          "name": "Wells Fargo Arena", 
          "id": "154109008042333", 
          "category_list": [
            {
              "id": "161516070564222", 
              "name": "Financial Services"
            }
          ], 
          "location": {
            "city": "Des Moines", 
            "zip": "50317", 
            "country": "United States", 
            "longitude": -93.576654617100004, 
            "state": "IA", 
            "street": "", 
            "latitude": 41.610385103900001
          }
        }, 
        {
          "category": "Local business", 
          "name": "Hyvee Hall @ Wells Fargo Arena", 
          "id": "167780749926280", 
          "category_list": [
            {
              "id": "163090273743732", 
              "name": "Commercial Bank"
            }, 
            {
              "id": "128184253916402", 
              "name": "Loans"
            }
          ], 
          "location": {
            "city": "Des Moines", 
            "zip": "50309", 
            "country": "United States", 
            "longitude": -93.621980976900005, 
            "state": "IA", 
            "street": "", 
            "latitude": 41.591753239600003
          }
        }, 
        {
          "category": "Local business", 
          "name": "Wells Fargo Arena Barry Manilow Concert", 
          "id": "359583340759849", 
          "category_list": [
            {
              "id": "2500", 
              "name": "Local Business"
            }
          ], 
          "location": {
            "city": "Des Moines", 
            "zip": "50309", 
            "country": "United States", 
            "longitude": -93.621113758500002, 
            "state": "IA", 
            "street": "", 
            "latitude": 41.5925651274
          }
        }, 
        {
          "category": "Local business", 
          "name": "Women of Faith Wells Fargo Arena", 
          "id": "553483244705428", 
          "category_list": [
            {
              "id": "192119584190796", 
              "name": "Event"
            }
          ], 
          "location": {
            "city": "Des Moines", 
            "zip": "50309", 
            "country": "United States", 
            "longitude": -93.621191944900005, 
            "state": "IA", 
            "street": "2nd Ave", 
            "latitude": 41.592650729600003
          }
        }, 
        {
          "category": "Local business", 
          "name": "Asu Womans Volleyball At Wells Fargo Arena", 
          "id": "264324203600935", 
          "category_list": [
            {
              "id": "161516070564222", 
              "name": "Financial Services"
            }
          ], 
          "location": {
            "city": "Tempe", 
            "zip": "85281", 
            "country": "United States", 
            "longitude": -111.931081143, 
            "state": "AZ", 
            "street": "", 
            "latitude": 33.424514239700002
          }
        }, 
        {
          "category": "Local business", 
          "name": "Iowa Events Center (includes Wells Fargo Arena)", 
          "id": "223449087821174", 
          "category_list": [
            {
              "id": "109976259083543", 
              "name": "Sports Venue & Stadium"
            }
          ], 
          "location": {
            "city": "Des Moines", 
            "zip": "50309", 
            "country": "United States", 
            "longitude": -93.621652999999995, 
            "state": "IA", 
            "street": "730 3rd St.", 
            "latitude": 41.590881000000003
          }
        }, 
        {
          "category": "Local business", 
          "name": "Wells Fargo Suite Us Airways Arena", 
          "id": "336939329726530", 
          "category_list": [
            {
              "id": "2500", 
              "name": "Local Business"
            }
          ], 
          "location": {
            "city": "Phoenix", 
            "zip": "", 
            "country": "United States", 
            "longitude": -112.07050868886, 
            "state": "AZ", 
            "street": "", 
            "latitude": 33.445613818045999
          }
        }, 
        {
          "category": "Local business", 
          "name": "Foo Fighters Concert @Wells Fargo Arena", 
          "id": "272097436161226", 
          "category_list": [
            {
              "id": "2500", 
              "name": "Local Business"
            }
          ], 
          "location": {
            "city": "Philadelphia", 
            "zip": "19148", 
            "country": "United States", 
            "longitude": -75.171651100000005, 
            "state": "PA", 
            "street": "", 
            "latitude": 39.901231484999997
          }
        }
      ]
    }
  }, 
  {
    "business_name": "Lobbys Beef Burgers Dogs", 
    "business_id": "eIxSLxzIlfExI6vgAbn2JA", 
    "fb_pages": {
      "data": []
    }
  }, 
  {
    "business_name": "The Franciscan Renewal Center", 
    "business_id": "Zdi-Mrwk_JNnhopAAbxRcQ", 
    "fb_pages": {
      "paging": {
        "next": "https://graph.facebook.com/search?type=place&access_token=229546593895315|yPLlHqq6YvDLIH4nL0kjJtIFSlU&limit=5000&offset=5000&__after_id=154503374589086"
      }, 
      "data": [
        {
          "category": "Church/religious organization", 
          "name": "Franciscan Renewal Center", 
          "id": "303391112500", 
          "category_list": [
            {
              "id": "187714557925874", 
              "name": "Religious Organization"
            }, 
            {
              "id": "192134360811676", 
              "name": "Church"
            }
          ], 
          "location": {
            "city": "Scottsdale", 
            "zip": "85253", 
            "country": "United States", 
            "longitude": -111.95525767905001, 
            "state": "AZ", 
            "street": "5802 E Lincoln Dr.", 
            "latitude": 33.532380559236003
          }
        }, 
        {
          "category": "Local business", 
          "name": "Franciscan Renewal Center", 
          "id": "232569743454621", 
          "category_list": [
            {
              "id": "2500", 
              "name": "Local Business"
            }
          ], 
          "location": {
            "latitude": 10.2343157696, 
            "street": "", 
            "zip": "", 
            "longitude": 123.789265571
          }
        }, 
        {
          "category": "Local business", 
          "name": "Sister of The Renewal Franciscan", 
          "id": "168042393206420", 
          "category_list": [
            {
              "id": "139460309451166", 
              "name": "Religious Center"
            }
          ], 
          "location": {
            "city": "Bronx", 
            "zip": "10461-1503", 
            "country": "United States", 
            "longitude": -73.851613, 
            "state": "NY", 
            "street": "1661 Haight Ave", 
            "latitude": 40.847437999999997
          }
        }, 
        {
          "category": "Local business", 
          "name": "Franciscan Renewal Center", 
          "id": "154503374589086", 
          "category_list": [
            {
              "id": "2500", 
              "name": "Local Business"
            }
          ], 
          "location": {
            "city": "Carey", 
            "zip": "43316-1401", 
            "country": "United States", 
            "longitude": -83.386887999999999, 
            "state": "OH", 
            "street": "321 Clay St", 
            "latitude": 40.950972
          }
        }
      ]
    }
  }, 
  {
    "business_name": "Unique On Central", 
    "business_id": "Gqq6AF9MIbhh5wwGofeiJQ", 
    "fb_pages": {
      "paging": {
        "next": "https://graph.facebook.com/search?type=place&access_token=229546593895315|yPLlHqq6YvDLIH4nL0kjJtIFSlU&limit=5000&offset=5000&__after_id=164655180230071"
      }, 
      "data": [
        {
          "category": "Local business", 
          "name": "Unique On Central", 
          "id": "167686816577282", 
          "category_list": [
            {
              "id": "192111490806699", 
              "name": "Florist"
            }
          ], 
          "location": {
            "city": "Phoenix", 
            "zip": "85012-1720", 
            "country": "United States", 
            "longitude": -112.07427300000001, 
            "state": "AZ", 
            "street": "4700 N Central Ave Ste 105", 
            "latitude": 33.506197999999998
          }
        }, 
        {
          "category": "Local business", 
          "name": "Unique Park Central", 
          "id": "135894153145521", 
          "category_list": [
            {
              "id": "164243073639257", 
              "name": "Hotel"
            }
          ], 
          "location": {
            "city": "Buenos Aires", 
            "zip": "", 
            "country": "Argentina", 
            "longitude": -58.383101833254997, 
            "state": "", 
            "street": "Diagonal Roque Saenz Pe\u00f1a 1174", 
            "latitude": -34.603006184881998
          }
        }, 
        {
          "category": "Local business", 
          "name": "Unique Auto Plaza on Central Avenue", 
          "id": "162588807134524", 
          "category_list": [
            {
              "id": "131962450204676", 
              "name": "Car Dealership"
            }
          ], 
          "location": {
            "city": "Albany", 
            "zip": "", 
            "country": "United States", 
            "longitude": -73.799408720000002, 
            "state": "NY", 
            "street": "", 
            "latitude": 42.687838319999997
          }
        }, 
        {
          "category": "Shopping/retail", 
          "name": "Nana NaNa's Unique Boutique, LLP", 
          "id": "389746081076824", 
          "category_list": [
            {
              "id": "205429726142620", 
              "name": "Thrift or Consignment Store"
            }
          ], 
          "location": {
            "city": "Central City", 
            "zip": "42330", 
            "country": "United States", 
            "longitude": -87.115387999999996, 
            "state": "KY", 
            "street": "331 E Everly Bros. Blvd., PO Box 28", 
            "latitude": 37.290790999999999
          }
        }, 
        {
          "category": "Local business", 
          "name": "Unique Woodworks of Central Florida", 
          "id": "159712480716851", 
          "category_list": [
            {
              "id": "180833545285725", 
              "name": "Carpenter"
            }
          ], 
          "location": {
            "city": "Ocala", 
            "zip": "34471-0975", 
            "country": "United States", 
            "longitude": -82.136711000000005, 
            "state": "FL", 
            "street": "521 S Magnolia Ave", 
            "latitude": 29.182065999999999
          }
        }, 
        {
          "category": "Local business", 
          "name": "Central City Tire", 
          "id": "162211417130524", 
          "category_list": [
            {
              "id": "124581960948637", 
              "name": "Tire Dealer"
            }
          ], 
          "location": {
            "city": "Mountain Pine", 
            "zip": "71956-9583", 
            "country": "United States", 
            "longitude": -93.145545999999996, 
            "state": "AR", 
            "street": "104 Unique Ln", 
            "latitude": 34.591071999999997
          }
        }, 
        {
          "category": "Local business", 
          "name": "Unique Credit Solutions of Central Florida LLC", 
          "id": "157992587565840", 
          "category_list": [
            {
              "id": "187133811318958", 
              "name": "Business Services"
            }, 
            {
              "id": "108427109235243", 
              "name": "Home Improvement"
            }
          ], 
          "location": {
            "city": "Orlando", 
            "zip": "32839-3915", 
            "country": "United States", 
            "longitude": -81.396202000000002, 
            "state": "FL", 
            "street": "5725 S Orange Blossom Trl", 
            "latitude": 28.475529000000002
          }
        }, 
        {
          "category": "Local business", 
          "name": "Lowry Central Trophy / Uniquely Personal Gifts", 
          "id": "164655180230071", 
          "category_list": [
            {
              "id": "191647907538150", 
              "name": "Gift Shop"
            }, 
            {
              "id": "139975202732005", 
              "name": "Trophies & Engraving"
            }, 
            {
              "id": "165823830131654", 
              "name": "Sporting Goods Store"
            }
          ], 
          "location": {
            "city": "Minneapolis", 
            "zip": "55418", 
            "country": "United States", 
            "longitude": -93.247490999999997, 
            "state": "MN", 
            "street": "2430 Central Ave. NE", 
            "latitude": 45.01247
          }
        }
      ]
    }
  }
]