[
  {
    "business_name": "LJ's Pizza Restaurant", 
    "business_id": "nZ5li6yoc8BlqHNByaJ56g", 
    "fb_pages": {
      "paging": {
        "next": "https://graph.facebook.com/search?type=place&access_token=229546593895315|yPLlHqq6YvDLIH4nL0kjJtIFSlU&limit=5000&offset=5000&__after_id=420018618088818"
      }, 
      "data": [
        {
          "category": "Restaurant/cafe", 
          "name": "Lj's Pizza Patio", 
          "id": "161649847309767", 
          "category_list": [
            {
              "id": "180256082015845", 
              "name": "Pizza Place"
            }
          ], 
          "location": {
            "city": "Mesa", 
            "zip": "85203", 
            "country": "United States", 
            "longitude": -111.80859075668, 
            "state": "AZ", 
            "street": "33 North Miller", 
            "latitude": 33.415996791052002
          }
        }, 
        {
          "category": "Restaurant/cafe", 
          "name": "LJ's Pizza", 
          "id": "105680032796776", 
          "category_list": [
            {
              "id": "180256082015845", 
              "name": "Pizza Place"
            }
          ], 
          "location": {
            "city": "Bristol", 
            "zip": "06010", 
            "country": "United States", 
            "longitude": -72.941367999999997, 
            "state": "CT", 
            "street": "101 Maple St", 
            "latitude": 41.679470000000002
          }
        }, 
        {
          "category": "Restaurant/cafe", 
          "name": "LJ's pizza and pasta", 
          "id": "102617739774705", 
          "category_list": [
            {
              "id": "193831710644458", 
              "name": "Italian Restaurant"
            }
          ], 
          "location": {
            "city": "Bribie", 
            "zip": "4511", 
            "country": "Australia", 
            "longitude": 153.090073082, 
            "state": "QLD", 
            "street": "Shop 14, 1-5 Regina ave ", 
            "latitude": -27.0630606233
          }
        }, 
        {
          "category": "Restaurant/cafe", 
          "name": "Linda Jean's Grille", 
          "id": "360601157334091", 
          "category_list": [
            {
              "id": "273819889375819", 
              "name": "Restaurant"
            }
          ], 
          "location": {
            "city": "Wyncote", 
            "zip": "19095", 
            "country": "United States", 
            "longitude": -75.1393116056, 
            "state": "PA", 
            "street": "109 Greenwood Ave", 
            "latitude": 40.092236349799997
          }
        }, 
        {
          "category": "Restaurant/cafe", 
          "name": "Restaurante TONTO Pizzaria", 
          "id": "525217710893941", 
          "category_list": [
            {
              "id": "180256082015845", 
              "name": "Pizza Place"
            }
          ], 
          "location": {
            "city": "Cabo Frio", 
            "zip": "28906-400", 
            "country": "Brazil", 
            "longitude": -42.019044399999999, 
            "state": "", 
            "street": "Av. dos Pescadores 140, ljs. 1 e 2 - Boulevard Canal", 
            "latitude": -22.8777632
          }
        }, 
        {
          "category": "Restaurant/cafe", 
          "name": "Pizzaria La Piazza", 
          "id": "152609791589784", 
          "category_list": [
            {
              "id": "180256082015845", 
              "name": "Pizza Place"
            }
          ], 
          "location": {
            "city": "Guaruj\u00e1", 
            "zip": "11410410", 
            "country": "Brazil", 
            "longitude": -46.261208438300002, 
            "state": "", 
            "street": "Rua do Contorno, 263 - LJs 22 & 23", 
            "latitude": -23.996523562
          }
        }, 
        {
          "category": "Restaurant/cafe", 
          "name": "Caprese Pizza & Birra", 
          "id": "420018618088818", 
          "category_list": [
            {
              "id": "273819889375819", 
              "name": "Restaurant"
            }
          ], 
          "location": {
            "city": "Contagem", 
            "zip": "32210-110", 
            "country": "Brazil", 
            "longitude": -44.021255942400003, 
            "state": "", 
            "street": "Av. General David Sarnoff, 5160 - ljs 24/25", 
            "latitude": -19.946760933099998
          }
        }
      ]
    }
  }, 
  {
    "business_name": "Adobe Animal Hospital", 
    "business_id": "HNaOwzN2d78vma3BMls5TA", 
    "fb_pages": {
      "paging": {
        "next": "https://graph.facebook.com/search?type=place&access_token=229546593895315|yPLlHqq6YvDLIH4nL0kjJtIFSlU&limit=5000&offset=5000&__after_id=205356576299572"
      }, 
      "data": [
        {
          "category": "Pet services", 
          "name": "Adobe Animal Hospital", 
          "id": "6688568028", 
          "category_list": [
            {
              "id": "162068413843305", 
              "name": "Veterinarian"
            }
          ], 
          "location": {
            "city": "Los Altos", 
            "zip": "94022", 
            "country": "United States", 
            "longitude": -122.11569795281, 
            "state": "CA", 
            "street": "4470 El Camino Real", 
            "latitude": 37.401889505844998
          }
        }, 
        {
          "category": "Professional services", 
          "name": "Adobe Animal Hospital", 
          "id": "136536913053028", 
          "category_list": [
            {
              "id": "162068413843305", 
              "name": "Veterinarian"
            }
          ], 
          "location": {
            "city": "Rancho Cucamonga", 
            "zip": "91737", 
            "country": "United States", 
            "longitude": -117.57497308799999, 
            "state": "CA", 
            "street": "6331 Haven Ave. Suit 4", 
            "latitude": 34.139345700500002
          }
        }, 
        {
          "category": "Hospital/clinic", 
          "name": "Adobe Animal Hospital", 
          "id": "203952989617920", 
          "category_list": [
            {
              "id": "162068413843305", 
              "name": "Veterinarian"
            }
          ], 
          "location": {
            "city": "Oxnard", 
            "zip": "93030", 
            "country": "United States", 
            "longitude": -119.17224440635999, 
            "state": "CA", 
            "street": "1420 S. Oxnard Blvd.", 
            "latitude": 34.186059425345
          }
        }, 
        {
          "category": "Pet services", 
          "name": "Adobe Animal Hospital", 
          "id": "186977818061512", 
          "category_list": [
            {
              "id": "162068413843305", 
              "name": "Veterinarian"
            }
          ], 
          "location": {
            "city": "Ramona", 
            "zip": "92065", 
            "country": "United States", 
            "longitude": -116.89352972, 
            "state": "CA", 
            "street": "218 Etcheverry St.", 
            "latitude": 33.025468101900003
          }
        }, 
        {
          "category": "Hospital/clinic", 
          "name": "Adobe Animal Hospital", 
          "id": "330525993639160", 
          "category_list": [
            {
              "id": "162068413843305", 
              "name": "Veterinarian"
            }
          ], 
          "location": {
            "city": "Concord", 
            "zip": "94521", 
            "country": "United States", 
            "longitude": -122.00844235300001, 
            "state": "CA", 
            "street": "3619 Clayton Road", 
            "latitude": 37.9701530711
          }
        }, 
        {
          "category": "Pet services", 
          "name": "Adobe Animal Hospital El Paso", 
          "id": "259190744101546", 
          "category_list": [
            {
              "id": "144982405562750", 
              "name": "Pet Service"
            }
          ], 
          "location": {
            "city": "El Paso", 
            "zip": "79936", 
            "country": "United States", 
            "longitude": -106.297635027, 
            "state": "TX", 
            "street": "3140 Trawood Drive", 
            "latitude": 31.7669556996
          }
        }, 
        {
          "category": "Hospital/clinic", 
          "name": "Adobe Animal Hospital of Soquel", 
          "id": "143544308996809", 
          "category_list": [
            {
              "id": "162068413843305", 
              "name": "Veterinarian"
            }
          ], 
          "location": {
            "city": "Santa Cruz", 
            "zip": "95065", 
            "country": "United States", 
            "longitude": -121.982256339, 
            "state": "CA", 
            "street": "1600 Soquel Drive", 
            "latitude": 36.988678630999999
          }
        }, 
        {
          "category": "Pet services", 
          "name": "Adobe Animal Hospital", 
          "id": "289499441065506", 
          "category_list": [
            {
              "id": "144982405562750", 
              "name": "Pet Service"
            }
          ], 
          "location": {
            "city": "Yuba City", 
            "zip": "95991", 
            "country": "United States", 
            "longitude": -121.633972, 
            "state": "CA", 
            "street": "480 Palora Ave.", 
            "latitude": 39.129477999999999
          }
        }, 
        {
          "category": "Local business", 
          "name": "Adobe Animal Hospital of Petaluma", 
          "id": "161103207252900", 
          "category_list": [
            {
              "id": "162068413843305", 
              "name": "Veterinarian"
            }
          ], 
          "location": {
            "city": "Petaluma", 
            "zip": "94952", 
            "country": "United States", 
            "longitude": -122.633011, 
            "state": "CA", 
            "street": "700 E Washington St", 
            "latitude": 38.240955
          }
        }, 
        {
          "category": "Pet services", 
          "name": "Adobe Animal Hospital South Bay", 
          "id": "115178611998867", 
          "category_list": [
            {
              "id": "162068413843305", 
              "name": "Veterinarian"
            }
          ], 
          "location": {
            "city": "Los Gatos", 
            "zip": "", 
            "country": "United States", 
            "longitude": -121.96371499999999, 
            "state": "CA", 
            "street": "16005 Los Gatos Boulevard", 
            "latitude": 37.236469
          }
        }, 
        {
          "category": "Pet services", 
          "name": "Adobe Animal Hospital Mobile", 
          "id": "136098606412144", 
          "category_list": [
            {
              "id": "162068413843305", 
              "name": "Veterinarian"
            }, 
            {
              "id": "133152263416981", 
              "name": "Hospital"
            }
          ], 
          "location": {
            "city": "Fresno", 
            "zip": "93720", 
            "country": "United States", 
            "longitude": -119.756148158, 
            "state": "CA", 
            "street": "The Vet That Comes To Your Pet!", 
            "latitude": 36.8535491337
          }
        }, 
        {
          "category": "Local business", 
          "name": "Adobe Animal Hospital", 
          "id": "119194581472270", 
          "category_list": [
            {
              "id": "162068413843305", 
              "name": "Veterinarian"
            }
          ], 
          "location": {
            "city": "Scottsdale", 
            "zip": "85251", 
            "country": "United States", 
            "longitude": -111.91461934599999, 
            "state": "AZ", 
            "street": "7712 E. Indian School Rd.", 
            "latitude": 33.495221822300003
          }
        }, 
        {
          "category": "Pet services", 
          "name": "Cortez Adobe Animal Hospital", 
          "id": "205356576299572", 
          "category_list": [
            {
              "id": "144982405562750", 
              "name": "Pet Service"
            }
          ], 
          "location": {
            "city": "Cortez", 
            "zip": "81321", 
            "country": "United States", 
            "longitude": -108.553617, 
            "state": "CO", 
            "street": "11314 Hwy 145", 
            "latitude": 37.375976000000001
          }
        }
      ]
    }
  }, 
  {
    "business_name": "Bosa Donuts", 
    "business_id": "Trar_9cFAj6wXiXfKfEqZA", 
    "fb_pages": {
      "paging": {
        "next": "https://graph.facebook.com/search?type=place&access_token=229546593895315|yPLlHqq6YvDLIH4nL0kjJtIFSlU&limit=5000&offset=5000&__after_id=111428828897255"
      }, 
      "data": [
        {
          "category": "Local business", 
          "name": "Bosa Donuts", 
          "id": "117437854942281", 
          "category_list": [
            {
              "id": "124818864257882", 
              "name": "Donuts & Bagels"
            }, 
            {
              "id": "273819889375819", 
              "name": "Restaurant"
            }
          ], 
          "location": {
            "city": "Gilbert", 
            "zip": "85295", 
            "country": "United States", 
            "longitude": -111.84203983435, 
            "state": "AZ", 
            "street": "155 E Williams Field Rd", 
            "latitude": 33.321321003485998
          }
        }, 
        {
          "category": "Local business", 
          "name": "Bosa Donuts", 
          "id": "152536974758640", 
          "category_list": [
            {
              "id": "273819889375819", 
              "name": "Restaurant"
            }, 
            {
              "id": "124818864257882", 
              "name": "Donuts & Bagels"
            }
          ], 
          "location": {
            "city": "Scottsdale", 
            "zip": "85257-3548", 
            "country": "United States", 
            "longitude": -111.91987120114, 
            "state": "AZ", 
            "street": "7444 E Mcdowell Rd", 
            "latitude": 33.466162227559998
          }
        }, 
        {
          "category": "Local business", 
          "name": "Bosa Donuts", 
          "id": "263338447067845", 
          "category_list": [
            {
              "id": "124818864257882", 
              "name": "Donuts & Bagels"
            }
          ], 
          "location": {
            "city": "Mesa", 
            "zip": "85209", 
            "country": "United States", 
            "longitude": -111.59992983908, 
            "state": "AZ", 
            "street": "", 
            "latitude": 33.382829082096997
          }
        }, 
        {
          "category": "Local business", 
          "name": "Bosa Donuts", 
          "id": "117015644989926", 
          "category_list": [
            {
              "id": "273819889375819", 
              "name": "Restaurant"
            }, 
            {
              "id": "187827497907070", 
              "name": "Bakery"
            }, 
            {
              "id": "124818864257882", 
              "name": "Donuts & Bagels"
            }
          ], 
          "location": {
            "city": "Phoenix", 
            "zip": "85051-8332", 
            "country": "United States", 
            "longitude": -112.135568181, 
            "state": "AZ", 
            "street": "3519 W Glendale Ave", 
            "latitude": 33.538280633600003
          }
        }, 
        {
          "category": "Local business", 
          "name": "Bosa Donuts", 
          "id": "207699125965128", 
          "category_list": [
            {
              "id": "124818864257882", 
              "name": "Donuts & Bagels"
            }, 
            {
              "id": "273819889375819", 
              "name": "Restaurant"
            }
          ], 
          "location": {
            "city": "Phoenix", 
            "zip": "85018", 
            "country": "United States", 
            "longitude": -112.00098867200001, 
            "state": "AZ", 
            "street": "", 
            "latitude": 33.495399859599999
          }
        }, 
        {
          "category": "Local business", 
          "name": "Bosa Donuts 24/7", 
          "id": "157643600951193", 
          "category_list": [
            {
              "id": "187827497907070", 
              "name": "Bakery"
            }, 
            {
              "id": "124818864257882", 
              "name": "Donuts & Bagels"
            }, 
            {
              "id": "273819889375819", 
              "name": "Restaurant"
            }
          ], 
          "location": {
            "city": "Tempe", 
            "zip": "85282", 
            "country": "United States", 
            "longitude": -111.90731247765, 
            "state": "AZ", 
            "street": "1835 E. Southern Ave", 
            "latitude": 33.392703554995002
          }
        }, 
        {
          "category": "Local business", 
          "name": "Bosa Donuts", 
          "id": "121683677842391", 
          "category_list": [
            {
              "id": "124818864257882", 
              "name": "Donuts & Bagels"
            }, 
            {
              "id": "187827497907070", 
              "name": "Bakery"
            }, 
            {
              "id": "273819889375819", 
              "name": "Restaurant"
            }
          ], 
          "location": {
            "city": "Deer Park", 
            "zip": "77536-5061", 
            "country": "United States", 
            "longitude": -95.123234010301005, 
            "state": "TX", 
            "street": "3117 Center St", 
            "latitude": 29.683211862842001
          }
        }, 
        {
          "category": "Local business", 
          "name": "Bosa Donuts", 
          "id": "592543710760963", 
          "category_list": [
            {
              "id": "128673187201735", 
              "name": "Coffee Shop"
            }, 
            {
              "id": "124818864257882", 
              "name": "Donuts & Bagels"
            }
          ], 
          "location": {
            "city": "Casa Grande", 
            "zip": "85122", 
            "country": "United States", 
            "longitude": -111.715911374, 
            "state": "AZ", 
            "street": "1659 E Florence Blvd.", 
            "latitude": 32.879201057300001
          }
        }, 
        {
          "category": "Local business", 
          "name": "Bosa Donuts", 
          "id": "111428828897255", 
          "category_list": [
            {
              "id": "273819889375819", 
              "name": "Restaurant"
            }, 
            {
              "id": "187827497907070", 
              "name": "Bakery"
            }, 
            {
              "id": "124818864257882", 
              "name": "Donuts & Bagels"
            }
          ], 
          "location": {
            "city": "Saint Charles", 
            "zip": "60174-2441", 
            "country": "United States", 
            "longitude": -88.283660999999995, 
            "state": "IL", 
            "street": "2536 E Main St", 
            "latitude": 41.921576999999999
          }
        }
      ]
    }
  }, 
  {
    "business_name": "Dirtwater Springs", 
    "business_id": "Guai2bH3hNqDP0bPuhT5uQ", 
    "fb_pages": {
      "paging": {
        "next": "https://graph.facebook.com/search?type=place&access_token=229546593895315|yPLlHqq6YvDLIH4nL0kjJtIFSlU&limit=5000&offset=5000&__after_id=115374741821358"
      }, 
      "data": [
        {
          "category": "Restaurant/cafe", 
          "name": "Dirtwater Springs", 
          "id": "115374741821358", 
          "category_list": [
            {
              "id": "212369748779358", 
              "name": "Tex-Mex Restaurant"
            }, 
            {
              "id": "199377230079198", 
              "name": "Mexican Restaurant"
            }, 
            {
              "id": "198367566846946", 
              "name": "Steakhouse"
            }
          ], 
          "location": {
            "city": "Apache Junction", 
            "zip": "85220", 
            "country": "United States", 
            "longitude": -111.55240529373, 
            "state": "AZ", 
            "street": "586 W. Apache Trail", 
            "latitude": 33.415538221783997
          }
        }
      ]
    }
  }, 
  {
    "business_name": "Prime Provisions", 
    "business_id": "xrs15F6cWdIXdLHyCUDjBg", 
    "fb_pages": {
      "paging": {
        "next": "https://graph.facebook.com/search?type=place&access_token=229546593895315|yPLlHqq6YvDLIH4nL0kjJtIFSlU&limit=5000&offset=5000&__after_id=122429424481247"
      }, 
      "data": [
        {
          "category": "Local business", 
          "name": "Prime Provisions", 
          "id": "383451015056616", 
          "category_list": [
            {
              "id": "2500", 
              "name": "Local Business"
            }
          ], 
          "location": {
            "city": "Scottsdale", 
            "zip": "", 
            "country": "United States", 
            "longitude": -111.89789949999999, 
            "state": "AZ", 
            "street": "", 
            "latitude": 33.630695899999999
          }
        }, 
        {
          "category": "Local business", 
          "name": "Harrison's Prime Meats & Provisions", 
          "id": "122429424481247", 
          "category_list": [
            {
              "id": "182190828486727", 
              "name": "Meat Shop"
            }
          ], 
          "location": {
            "city": "Las Vegas", 
            "zip": "89109-1023", 
            "country": "United States", 
            "longitude": -115.17665100000001, 
            "state": "NV", 
            "street": "2955 Westwood Dr", 
            "latitude": 36.136482000000001
          }
        }
      ]
    }
  }, 
  {
    "business_name": "Davanzo Salon", 
    "business_id": "mU33XNKLV_W01wJO8PoZBQ", 
    "fb_pages": {
      "data": []
    }
  }, 
  {
    "business_name": "La Fonda Del Sol", 
    "business_id": "Vx7-xbazum3dgo3Qj3i4pQ", 
    "fb_pages": {
      "paging": {
        "next": "https://graph.facebook.com/search?type=place&access_token=229546593895315|yPLlHqq6YvDLIH4nL0kjJtIFSlU&limit=5000&offset=5000&__after_id=156917431070756"
      }, 
      "data": [
        {
          "category": "Restaurant/cafe", 
          "name": "La Fonda Del Sol", 
          "id": "148920918506236", 
          "category_list": [
            {
              "id": "273819889375819", 
              "name": "Restaurant"
            }
          ], 
          "location": {
            "city": "Scottsdale", 
            "zip": "85260", 
            "country": "United States", 
            "longitude": -111.92482081435, 
            "state": "AZ", 
            "street": "7223 East Shea Boulevard", 
            "latitude": 33.581889716383003
          }
        }, 
        {
          "category": "Local business", 
          "name": "La Fonda Del Sol", 
          "id": "108056742584600", 
          "category_list": [
            {
              "id": "119869574758000", 
              "name": "Tapas Bar & Restaurant"
            }, 
            {
              "id": "171485526232801", 
              "name": "Spanish Restaurant"
            }
          ], 
          "location": {
            "city": "New York", 
            "zip": "10017", 
            "country": "United States", 
            "longitude": -73.977544023613007, 
            "state": "NY", 
            "street": "MetLife Building", 
            "latitude": 40.753685839166998
          }
        }, 
        {
          "category": "Local business", 
          "name": "La Fonda Del Sol", 
          "id": "116315738396780", 
          "category_list": [
            {
              "id": "199377230079198", 
              "name": "Mexican Restaurant"
            }
          ], 
          "location": {
            "city": "Jacksonville", 
            "zip": "75766-2214", 
            "country": "United States", 
            "longitude": -95.279763340100004, 
            "state": "TX", 
            "street": "608 W Rusk St", 
            "latitude": 31.960687721799999
          }
        }, 
        {
          "category": "Restaurant/cafe", 
          "name": "La fonda del sol", 
          "id": "553487158053255", 
          "category_list": [
            {
              "id": "119869574758000", 
              "name": "Tapas Bar & Restaurant"
            }
          ], 
          "location": {
            "city": "M\u00e1laga", 
            "zip": "29140", 
            "country": "Spain", 
            "longitude": -4.4166699999999999, 
            "state": "", 
            "street": "plaza de la higuereta ", 
            "latitude": 36.716700000000003
          }
        }, 
        {
          "category": "Restaurant/cafe", 
          "name": "La Fonda del Sol", 
          "id": "506853236050478", 
          "category_list": [
            {
              "id": "273819889375819", 
              "name": "Restaurant"
            }
          ], 
          "location": {
            "city": "Arequipilla", 
            "zip": "Areq 01", 
            "country": "Peru", 
            "longitude": -72.634200000000007, 
            "state": "", 
            "street": "Areq 01", 
            "latitude": -15.857799999999999
          }
        }, 
        {
          "category": "Local business", 
          "name": "La Fonda del Sol", 
          "id": "156917431070756", 
          "category_list": [
            {
              "id": "199377230079198", 
              "name": "Mexican Restaurant"
            }
          ], 
          "location": {
            "city": "Antiguo Cuscatl\u00e1n", 
            "zip": "", 
            "country": "El Salvador", 
            "longitude": -89.240305404699996, 
            "state": "", 
            "street": "", 
            "latitude": 13.679684615099999
          }
        }
      ]
    }
  }, 
  {
    "business_name": "Waffle House Restaurant", 
    "business_id": "VuPhv9CNIHLOzS2JeDwLOA", 
    "fb_pages": {
      "paging": {
        "next": "https://graph.facebook.com/search?type=place&access_token=229546593895315|yPLlHqq6YvDLIH4nL0kjJtIFSlU&limit=5000&offset=5000&__after_id=116598271691373"
      }, 
      "data": [
        {
          "category": "Food/beverages", 
          "name": "Waffle House", 
          "id": "12832737703", 
          "category_list": [
            {
              "id": "2252", 
              "name": "Food/Beverages"
            }
          ], 
          "location": {
            "city": "Norcross", 
            "zip": "30071", 
            "country": "United States", 
            "longitude": -84.251494232655006, 
            "state": "GA", 
            "street": "PO Box 6450", 
            "latitude": 33.951693250435
          }
        }, 
        {
          "category": "Local business", 
          "name": "Waffle House Restaurant", 
          "id": "154291421277266", 
          "category_list": [
            {
              "id": "192831537402299", 
              "name": "Family Style Restaurant"
            }
          ], 
          "location": {
            "city": "Rockmart", 
            "zip": "30153", 
            "country": "United States", 
            "longitude": -85.042874463700002, 
            "state": "GA", 
            "street": "", 
            "latitude": 34.010031932399997
          }
        }, 
        {
          "category": "Local business", 
          "name": "Waffle House", 
          "id": "181849528556915", 
          "category_list": [
            {
              "id": "192831537402299", 
              "name": "Family Style Restaurant"
            }
          ], 
          "location": {
            "city": "Austin", 
            "zip": "78744", 
            "country": "United States", 
            "longitude": -97.688106840247002, 
            "state": "TX", 
            "street": "7809 E Ben White BLV", 
            "latitude": 30.218553835301002
          }
        }, 
        {
          "category": "Local business", 
          "name": "Waffle House", 
          "id": "171444816270494", 
          "category_list": [
            {
              "id": "192831537402299", 
              "name": "Family Style Restaurant"
            }
          ], 
          "location": {
            "city": "Dallas", 
            "zip": "75220", 
            "country": "United States", 
            "longitude": -96.890823143329996, 
            "state": "TX", 
            "street": "2291 W Northwest Hwy", 
            "latitude": 32.861936067141997
          }
        }, 
        {
          "category": "Local business", 
          "name": "Waffle House", 
          "id": "310381828976100", 
          "category_list": [
            {
              "id": "192831537402299", 
              "name": "Family Style Restaurant"
            }, 
            {
              "id": "192108214153222", 
              "name": "Breakfast & Brunch Restaurant"
            }
          ], 
          "location": {
            "city": "Elkton", 
            "zip": "21921", 
            "country": "United States", 
            "longitude": -75.805522215444, 
            "state": "MD", 
            "street": "", 
            "latitude": 39.635485803437
          }
        }, 
        {
          "category": "Local business", 
          "name": "Waffle House", 
          "id": "128962700538313", 
          "category_list": [
            {
              "id": "192831537402299", 
              "name": "Family Style Restaurant"
            }
          ], 
          "location": {
            "city": "Pensacola", 
            "zip": "32504", 
            "country": "United States", 
            "longitude": -87.197261199522998, 
            "state": "FL", 
            "street": "6305 N 9th Ave", 
            "latitude": 30.488472730906999
          }
        }, 
        {
          "category": "Local business", 
          "name": "Waffle House", 
          "id": "224358944284149", 
          "category_list": [
            {
              "id": "192831537402299", 
              "name": "Family Style Restaurant"
            }
          ], 
          "location": {
            "city": "Houston", 
            "zip": "77042", 
            "country": "United States", 
            "longitude": -95.574326968308995, 
            "state": "TX", 
            "street": "11240 Westheimer Rd", 
            "latitude": 29.736994909840998
          }
        }, 
        {
          "category": "Local business", 
          "name": "Waffle House", 
          "id": "216145991782929", 
          "category_list": [
            {
              "id": "192831537402299", 
              "name": "Family Style Restaurant"
            }
          ], 
          "location": {
            "city": "Collinsville", 
            "zip": "62234", 
            "country": "United States", 
            "longitude": -90.012764503355996, 
            "state": "IL", 
            "street": "505 Bluff Rd", 
            "latitude": 38.677495786263002
          }
        }, 
        {
          "category": "Local business", 
          "name": "Waffle House", 
          "id": "254133797963646", 
          "category_list": [
            {
              "id": "192831537402299", 
              "name": "Family Style Restaurant"
            }
          ], 
          "location": {
            "city": "Waxahachie", 
            "zip": "75165", 
            "country": "United States", 
            "longitude": -96.841127770520004, 
            "state": "TX", 
            "street": "1020 Hwy 287 Bypass", 
            "latitude": 32.421100673184
          }
        }, 
        {
          "category": "Local business", 
          "name": "Waffle House", 
          "id": "244282225617962", 
          "category_list": [
            {
              "id": "192831537402299", 
              "name": "Family Style Restaurant"
            }
          ], 
          "location": {
            "city": "Lancaster", 
            "zip": "17602", 
            "country": "United States", 
            "longitude": -76.193333343660001, 
            "state": "PA", 
            "street": "2499 Lincoln Hwy E", 
            "latitude": 40.022757048072997
          }
        }, 
        {
          "category": "Local business", 
          "name": "Waffle House", 
          "id": "271482436210352", 
          "category_list": [
            {
              "id": "192831537402299", 
              "name": "Family Style Restaurant"
            }
          ], 
          "location": {
            "city": "Lewisville", 
            "zip": "75067", 
            "country": "United States", 
            "longitude": -96.992597413929005, 
            "state": "TX", 
            "street": "1181 S Stemmons Fwy", 
            "latitude": 33.028239168790002
          }
        }, 
        {
          "category": "Local business", 
          "name": "Waffle House", 
          "id": "120159751421511", 
          "category_list": [
            {
              "id": "192831537402299", 
              "name": "Family Style Restaurant"
            }
          ], 
          "location": {
            "city": "Jacksonville", 
            "zip": "32216", 
            "country": "United States", 
            "longitude": -81.598850870082003, 
            "state": "FL", 
            "street": "5067 J Turner Butler", 
            "latitude": 30.245423921543999
          }
        }, 
        {
          "category": "Local business", 
          "name": "Waffle House", 
          "id": "270695519618243", 
          "category_list": [
            {
              "id": "192831537402299", 
              "name": "Family Style Restaurant"
            }
          ], 
          "location": {
            "city": "Richardson", 
            "zip": "75081", 
            "country": "United States", 
            "longitude": -96.739654957260996, 
            "state": "TX", 
            "street": "120 W. Spring Valley", 
            "latitude": 32.940471717991997
          }
        }, 
        {
          "category": "Local business", 
          "name": "Waffle House", 
          "id": "214051951992944", 
          "category_list": [
            {
              "id": "192831537402299", 
              "name": "Family Style Restaurant"
            }
          ], 
          "location": {
            "city": "Phoenix", 
            "zip": "85043", 
            "country": "United States", 
            "longitude": -112.18596021962, 
            "state": "AZ", 
            "street": "1237 N. 59th Ave", 
            "latitude": 33.462053233646003
          }
        }, 
        {
          "category": "Local business", 
          "name": "Waffle House", 
          "id": "285937848083972", 
          "category_list": [
            {
              "id": "192831537402299", 
              "name": "Family Style Restaurant"
            }
          ], 
          "location": {
            "city": "Fort Worth", 
            "zip": "76131", 
            "country": "United States", 
            "longitude": -97.316378723100996, 
            "state": "TX", 
            "street": "3020 Western Center", 
            "latitude": 32.860740653371998
          }
        }, 
        {
          "category": "Local business", 
          "name": "Waffle House", 
          "id": "141244699244670", 
          "category_list": [
            {
              "id": "192108214153222", 
              "name": "Breakfast & Brunch Restaurant"
            }, 
            {
              "id": "192831537402299", 
              "name": "Family Style Restaurant"
            }
          ], 
          "location": {
            "city": "Bethlehem", 
            "zip": "18015", 
            "country": "United States", 
            "longitude": -75.340002774241995, 
            "state": "PA", 
            "street": "2101 Cherry Ln", 
            "latitude": 40.593745951740999
          }
        }, 
        {
          "category": "Local business", 
          "name": "Waffle House", 
          "id": "226618584059725", 
          "category_list": [
            {
              "id": "192831537402299", 
              "name": "Family Style Restaurant"
            }
          ], 
          "location": {
            "city": "Orange", 
            "zip": "32817", 
            "country": "United States", 
            "longitude": -81.208684610557995, 
            "state": "FL", 
            "street": "11749 E. Colonial Dr", 
            "latitude": 28.567496021457998
          }
        }, 
        {
          "category": "Local business", 
          "name": "Waffle House", 
          "id": "257112440994570", 
          "category_list": [
            {
              "id": "192831537402299", 
              "name": "Family Style Restaurant"
            }
          ], 
          "location": {
            "city": "Mansfield", 
            "zip": "76063", 
            "country": "United States", 
            "longitude": -97.146019959449006, 
            "state": "TX", 
            "street": "1909 North Hwy 157", 
            "latitude": 32.599994884993997
          }
        }, 
        {
          "category": "Local business", 
          "name": "Waffle House", 
          "id": "139677162797492", 
          "category_list": [
            {
              "id": "192831537402299", 
              "name": "Family Style Restaurant"
            }
          ], 
          "location": {
            "city": "Garland", 
            "zip": "75041", 
            "country": "United States", 
            "longitude": -96.683361140464996, 
            "state": "TX", 
            "street": "3109 Jupiter Rd", 
            "latitude": 32.878267726433997
          }
        }, 
        {
          "category": "Local business", 
          "name": "Waffle House", 
          "id": "270113316343156", 
          "category_list": [
            {
              "id": "192831537402299", 
              "name": "Family Style Restaurant"
            }
          ], 
          "location": {
            "city": "Progress", 
            "zip": "17109", 
            "country": "United States", 
            "longitude": -76.824805076518999, 
            "state": "PA", 
            "street": "3890 Union Deposit", 
            "latitude": 40.278579444221002
          }
        }, 
        {
          "category": "Local business", 
          "name": "Waffle House", 
          "id": "207204239346090", 
          "category_list": [
            {
              "id": "192831537402299", 
              "name": "Family Style Restaurant"
            }
          ], 
          "location": {
            "city": "Houston", 
            "zip": "77338", 
            "country": "United States", 
            "longitude": -95.280569430072006, 
            "state": "TX", 
            "street": "7106 Will Clayton", 
            "latitude": 29.982397208761
          }
        }, 
        {
          "category": "Local business", 
          "name": "Waffle House", 
          "id": "293704483978919", 
          "category_list": [
            {
              "id": "192831537402299", 
              "name": "Family Style Restaurant"
            }
          ], 
          "location": {
            "city": "Gainesville", 
            "zip": "30504", 
            "country": "United States", 
            "longitude": -83.851546292196005, 
            "state": "GA", 
            "street": "509 Dawsonville Hwy", 
            "latitude": 34.294886554209
          }
        }, 
        {
          "category": "Local business", 
          "name": "Waffle House", 
          "id": "266373863384711", 
          "category_list": [
            {
              "id": "192831537402299", 
              "name": "Family Style Restaurant"
            }
          ], 
          "location": {
            "city": "Frederick", 
            "zip": "21704", 
            "country": "United States", 
            "longitude": -77.410078125012006, 
            "state": "MD", 
            "street": "5646 Buckeystown Pike", 
            "latitude": 39.390131063538
          }
        }, 
        {
          "category": "Local business", 
          "name": "Waffle House", 
          "id": "170267159723041", 
          "category_list": [
            {
              "id": "192831537402299", 
              "name": "Family Style Restaurant"
            }
          ], 
          "location": {
            "city": "Morgan City", 
            "zip": "70381", 
            "country": "United States", 
            "longitude": -91.198002298803999, 
            "state": "LA", 
            "street": "6371 Us Hwy 90", 
            "latitude": 29.699528447561999
          }
        }, 
        {
          "category": "Local business", 
          "name": "Waffle House", 
          "id": "224062280985105", 
          "category_list": [
            {
              "id": "192831537402299", 
              "name": "Family Style Restaurant"
            }
          ], 
          "location": {
            "city": "Euless", 
            "zip": "76040", 
            "country": "United States", 
            "longitude": -97.085273940391005, 
            "state": "TX", 
            "street": "204 Huffman Drive", 
            "latitude": 32.837347175097001
          }
        }, 
        {
          "category": "Local business", 
          "name": "Waffle House", 
          "id": "156342371123234", 
          "category_list": [
            {
              "id": "192831537402299", 
              "name": "Family Style Restaurant"
            }
          ], 
          "location": {
            "city": "Fort Worth", 
            "zip": "76135", 
            "country": "United States", 
            "longitude": -97.421400687943006, 
            "state": "TX", 
            "street": "6250 Lake Worth Blvd", 
            "latitude": 32.810199110596002
          }
        }, 
        {
          "category": "Local business", 
          "name": "Waffle House", 
          "id": "167953206677436", 
          "category_list": [
            {
              "id": "192108214153222", 
              "name": "Breakfast & Brunch Restaurant"
            }, 
            {
              "id": "192831537402299", 
              "name": "Family Style Restaurant"
            }
          ], 
          "location": {
            "city": "Jacksonville", 
            "zip": "32225", 
            "country": "United States", 
            "longitude": -81.530007158437996, 
            "state": "FL", 
            "street": "Atlantic Blvd and Brookveiw Dr", 
            "latitude": 30.324147430566001
          }
        }, 
        {
          "category": "Local business", 
          "name": "Waffle House", 
          "id": "284597444886619", 
          "category_list": [
            {
              "id": "192831537402299", 
              "name": "Family Style Restaurant"
            }
          ], 
          "location": {
            "city": "Slidell", 
            "zip": "70458", 
            "country": "United States", 
            "longitude": -89.746155513489001, 
            "state": "LA", 
            "street": "1728 Gause Blvd", 
            "latitude": 30.285178419314999
          }
        }, 
        {
          "category": "Local business", 
          "name": "Waffle House", 
          "id": "271221596232360", 
          "category_list": [
            {
              "id": "192831537402299", 
              "name": "Family Style Restaurant"
            }
          ], 
          "location": {
            "city": "Carrollton", 
            "zip": "75010", 
            "country": "United States", 
            "longitude": -96.937053326699001, 
            "state": "TX", 
            "street": "1613 W Hebron Pkwy", 
            "latitude": 33.023252841545002
          }
        }, 
        {
          "category": "Local business", 
          "name": "Waffle House", 
          "id": "200156236719361", 
          "category_list": [
            {
              "id": "192831537402299", 
              "name": "Family Style Restaurant"
            }
          ], 
          "location": {
            "city": "Mesquite", 
            "zip": "75150", 
            "country": "United States", 
            "longitude": -96.630211780939007, 
            "state": "TX", 
            "street": "1908 Oates Dr", 
            "latitude": 32.836628601709997
          }
        }, 
        {
          "category": "Local business", 
          "name": "Waffle House", 
          "id": "156540477769180", 
          "category_list": [
            {
              "id": "192831537402299", 
              "name": "Family Style Restaurant"
            }
          ], 
          "location": {
            "city": "Nashville", 
            "zip": "37214", 
            "country": "United States", 
            "longitude": -86.667151851569002, 
            "state": "TN", 
            "street": "556 Donelson Pike", 
            "latitude": 36.144567479505
          }
        }, 
        {
          "category": "Local business", 
          "name": "Waffle House", 
          "id": "201010146587876", 
          "category_list": [
            {
              "id": "192108214153222", 
              "name": "Breakfast & Brunch Restaurant"
            }, 
            {
              "id": "192831537402299", 
              "name": "Family Style Restaurant"
            }
          ], 
          "location": {
            "city": "Virginia Beach", 
            "zip": "23455-4622", 
            "country": "United States", 
            "longitude": -76.185901957053005, 
            "state": "VA", 
            "street": "5825 Northampton Blvd", 
            "latitude": 36.881305518612002
          }
        }, 
        {
          "category": "Local business", 
          "name": "Waffle House", 
          "id": "233408630041333", 
          "category_list": [
            {
              "id": "192831537402299", 
              "name": "Family Style Restaurant"
            }
          ], 
          "location": {
            "city": "Osceola", 
            "zip": "34746", 
            "country": "United States", 
            "longitude": -81.499134633002001, 
            "state": "FL", 
            "street": "5391 W Irlo Bronson", 
            "latitude": 28.333443585800001
          }
        }, 
        {
          "category": "Local business", 
          "name": "Waffle House", 
          "id": "214431171952285", 
          "category_list": [
            {
              "id": "192831537402299", 
              "name": "Family Style Restaurant"
            }
          ], 
          "location": {
            "city": "Irving", 
            "zip": "75060", 
            "country": "United States", 
            "longitude": -96.920064926601, 
            "state": "TX", 
            "street": "2000 East Irving", 
            "latitude": 32.809229090452
          }
        }, 
        {
          "category": "Local business", 
          "name": "Waffle House", 
          "id": "241042949280240", 
          "category_list": [
            {
              "id": "192831537402299", 
              "name": "Family Style Restaurant"
            }
          ], 
          "location": {
            "city": "Irving", 
            "zip": "75061", 
            "country": "United States", 
            "longitude": -96.950211968928997, 
            "state": "TX", 
            "street": "2115 Oakhurst St", 
            "latitude": 32.836364226077997
          }
        }, 
        {
          "category": "Local business", 
          "name": "Waffle House", 
          "id": "208336005858787", 
          "category_list": [
            {
              "id": "192831537402299", 
              "name": "Family Style Restaurant"
            }, 
            {
              "id": "167954166588517", 
              "name": "Diner"
            }, 
            {
              "id": "192108214153222", 
              "name": "Breakfast & Brunch Restaurant"
            }
          ], 
          "location": {
            "city": "London", 
            "zip": "40741", 
            "country": "United States", 
            "longitude": -84.116271819906004, 
            "state": "KY", 
            "street": "76 Austin Lane", 
            "latitude": 37.149186305005003
          }
        }, 
        {
          "category": "Local business", 
          "name": "Waffle House", 
          "id": "226416730747622", 
          "category_list": [
            {
              "id": "192831537402299", 
              "name": "Family Style Restaurant"
            }
          ], 
          "location": {
            "city": "Indianapolis", 
            "zip": "46241", 
            "country": "United States", 
            "longitude": -86.249947409060994, 
            "state": "IN", 
            "street": "2621 South Lynhurst", 
            "latitude": 39.727526378223999
          }
        }, 
        {
          "category": "Local business", 
          "name": "Waffle House", 
          "id": "114539538607887", 
          "category_list": [
            {
              "id": "192108214153222", 
              "name": "Breakfast & Brunch Restaurant"
            }, 
            {
              "id": "192831537402299", 
              "name": "Family Style Restaurant"
            }
          ], 
          "location": {
            "city": "Atlanta", 
            "zip": "32566", 
            "country": "United States", 
            "longitude": -84.389566280482995, 
            "state": "GA", 
            "street": "66 5th St NW", 
            "latitude": 33.777026311935998
          }
        }, 
        {
          "category": "Local business", 
          "name": "Waffle House", 
          "id": "252918501412123", 
          "category_list": [
            {
              "id": "192831537402299", 
              "name": "Family Style Restaurant"
            }
          ], 
          "location": {
            "city": "Horn Lake", 
            "zip": "38637", 
            "country": "United States", 
            "longitude": -90.005019092965995, 
            "state": "MS", 
            "street": "865 W Goodman Road", 
            "latitude": 34.962428274996
          }
        }, 
        {
          "category": "Local business", 
          "name": "Waffle House", 
          "id": "156998694310983", 
          "category_list": [
            {
              "id": "192108214153222", 
              "name": "Breakfast & Brunch Restaurant"
            }, 
            {
              "id": "192831537402299", 
              "name": "Family Style Restaurant"
            }
          ], 
          "location": {
            "city": "New Iberia", 
            "zip": "70560", 
            "country": "United States", 
            "longitude": -91.857143993514995, 
            "state": "LA", 
            "street": "", 
            "latitude": 29.98587141286
          }
        }, 
        {
          "category": "Local business", 
          "name": "Waffle House", 
          "id": "101858573208169", 
          "category_list": [
            {
              "id": "192831537402299", 
              "name": "Family Style Restaurant"
            }, 
            {
              "id": "192108214153222", 
              "name": "Breakfast & Brunch Restaurant"
            }
          ], 
          "location": {
            "city": "Goodyear", 
            "zip": "85395", 
            "country": "United States", 
            "longitude": -112.34136429884001, 
            "state": "AZ", 
            "street": "820 NORTH DYSART RD ", 
            "latitude": 33.455275838387003
          }
        }, 
        {
          "category": "Local business", 
          "name": "Waffle House", 
          "id": "309377309083649", 
          "category_list": [
            {
              "id": "192831537402299", 
              "name": "Family Style Restaurant"
            }, 
            {
              "id": "192108214153222", 
              "name": "Breakfast & Brunch Restaurant"
            }
          ], 
          "location": {
            "city": "Catlettsburg", 
            "zip": "41129", 
            "country": "United States", 
            "longitude": -82.605815832746003, 
            "state": "KY", 
            "street": "", 
            "latitude": 38.388688135579002
          }
        }, 
        {
          "category": "Local business", 
          "name": "Waffle House", 
          "id": "257116424326380", 
          "category_list": [
            {
              "id": "192831537402299", 
              "name": "Family Style Restaurant"
            }
          ], 
          "location": {
            "city": "Jacksonville", 
            "zip": "32218", 
            "country": "United States", 
            "longitude": -81.646706353287001, 
            "state": "FL", 
            "street": "14680 Duval Road", 
            "latitude": 30.481418081200999
          }
        }, 
        {
          "category": "Local business", 
          "name": "Waffle House", 
          "id": "153491911357116", 
          "category_list": [
            {
              "id": "192831537402299", 
              "name": "Family Style Restaurant"
            }, 
            {
              "id": "192108214153222", 
              "name": "Breakfast & Brunch Restaurant"
            }
          ], 
          "location": {
            "city": "Mesa", 
            "zip": "85210-6005", 
            "country": "United States", 
            "longitude": -111.83983934199, 
            "state": "AZ", 
            "street": "1831 S Country Club Dr", 
            "latitude": 33.381705940563002
          }
        }, 
        {
          "category": "Local business", 
          "name": "Waffle House", 
          "id": "152847118070395", 
          "category_list": [
            {
              "id": "192831537402299", 
              "name": "Family Style Restaurant"
            }, 
            {
              "id": "192108214153222", 
              "name": "Breakfast & Brunch Restaurant"
            }
          ], 
          "location": {
            "city": "Baytown", 
            "zip": "77521", 
            "country": "United States", 
            "longitude": -94.982207990552993, 
            "state": "TX", 
            "street": "", 
            "latitude": 29.805973406570001
          }
        }, 
        {
          "category": "Local business", 
          "name": "Waffle House", 
          "id": "149786321727942", 
          "category_list": [
            {
              "id": "192831537402299", 
              "name": "Family Style Restaurant"
            }, 
            {
              "id": "192108214153222", 
              "name": "Breakfast & Brunch Restaurant"
            }
          ], 
          "location": {
            "city": "Gonzales", 
            "zip": "70737", 
            "country": "United States", 
            "longitude": -90.944263606004995, 
            "state": "LA", 
            "street": "", 
            "latitude": 30.211081962144998
          }
        }, 
        {
          "category": "Local business", 
          "name": "Waffle House", 
          "id": "420001248077855", 
          "category_list": [
            {
              "id": "192108214153222", 
              "name": "Breakfast & Brunch Restaurant"
            }, 
            {
              "id": "192831537402299", 
              "name": "Family Style Restaurant"
            }
          ], 
          "location": {
            "city": "Cincinnati", 
            "zip": "45255", 
            "country": "United States", 
            "longitude": -84.308807607771996, 
            "state": "OH", 
            "street": "476 Ohio Pike", 
            "latitude": 39.071762479448999
          }
        }, 
        {
          "category": "Restaurant/cafe", 
          "name": "Waffle House Family Restaurant", 
          "id": "175355005840798", 
          "category_list": [
            {
              "id": "192831537402299", 
              "name": "Family Style Restaurant"
            }
          ], 
          "location": {
            "city": "Bloomington", 
            "zip": "47404", 
            "country": "United States", 
            "longitude": -86.534547973111003, 
            "state": "IN", 
            "street": "530 N. College Ave.", 
            "latitude": 39.171438182876997
          }
        }, 
        {
          "category": "Local business", 
          "name": "Waffle House", 
          "id": "525742224130706", 
          "category_list": [
            {
              "id": "192831537402299", 
              "name": "Family Style Restaurant"
            }, 
            {
              "id": "197871390225897", 
              "name": "Cafe"
            }, 
            {
              "id": "200863816597800", 
              "name": "Ice Cream Parlor"
            }
          ], 
          "location": {
            "city": "Vouliagm\u00e9ni", 
            "zip": "16671", 
            "country": "Greece", 
            "longitude": 23.782620055291002, 
            "state": "", 
            "street": "Leoforos Poseidonos 17", 
            "latitude": 37.811466613264997
          }
        }, 
        {
          "category": "Restaurant/cafe", 
          "name": "Pancake & Waffle House", 
          "id": "601540513240268", 
          "category_list": [
            {
              "id": "192108214153222", 
              "name": "Breakfast & Brunch Restaurant"
            }
          ], 
          "location": {
            "city": "Dubai", 
            "zip": "", 
            "country": "United Arab Emirates", 
            "longitude": 55.238790540695, 
            "state": "", 
            "street": "Jumeirah 2", 
            "latitude": 25.199095291003999
          }
        }, 
        {
          "category": "Local business", 
          "name": "Waffle House Restaurant", 
          "id": "135624653168702", 
          "category_list": [
            {
              "id": "192831537402299", 
              "name": "Family Style Restaurant"
            }
          ], 
          "location": {
            "city": "Snellville", 
            "zip": "", 
            "country": "United States", 
            "longitude": -84.006057623800004, 
            "state": "GA", 
            "street": "", 
            "latitude": 33.899906168199998
          }
        }, 
        {
          "category": "Restaurant/cafe", 
          "name": "The Waffle House, St Albans", 
          "id": "141015332609298", 
          "category_list": [
            {
              "id": "192831537402299", 
              "name": "Family Style Restaurant"
            }, 
            {
              "id": "187153754656815", 
              "name": "Dessert Restaurant"
            }, 
            {
              "id": "128673187201735", 
              "name": "Coffee Shop"
            }
          ], 
          "location": {
            "city": "Saint Albans", 
            "zip": "AL3 4SJ", 
            "country": "United Kingdom", 
            "longitude": -0.35252286408581002, 
            "state": "", 
            "street": "Kingsbury Watermill, St Michaels Street", 
            "latitude": 51.754539680004001
          }
        }, 
        {
          "category": "Local business", 
          "name": "Waffle House", 
          "id": "254030754642197", 
          "category_list": [
            {
              "id": "192831537402299", 
              "name": "Family Style Restaurant"
            }
          ], 
          "location": {
            "city": "Houston", 
            "zip": "77017", 
            "country": "United States", 
            "longitude": -95.249558089299995, 
            "state": "TX", 
            "street": "1720 College Ave", 
            "latitude": 29.652920367983
          }
        }, 
        {
          "category": "Restaurant/cafe", 
          "name": "Buffalo Wild Wings - Laurel, MS", 
          "id": "97019697826", 
          "category_list": [
            {
              "id": "273819889375819", 
              "name": "Restaurant"
            }
          ], 
          "location": {
            "city": "Laurel", 
            "zip": "39440", 
            "country": "United States", 
            "longitude": -89.150555262685998, 
            "state": "MS", 
            "street": "1826 Jefferson Street (past Waffle House)", 
            "latitude": 31.684987952193001
          }
        }, 
        {
          "category": "Local business", 
          "name": "Waffle House", 
          "id": "263948950312255", 
          "category_list": [
            {
              "id": "192831537402299", 
              "name": "Family Style Restaurant"
            }
          ], 
          "location": {
            "city": "Osceola", 
            "zip": "34747", 
            "country": "United States", 
            "longitude": -81.523977699062002, 
            "state": "FL", 
            "street": "5991 W Irlo Bronson", 
            "latitude": 28.333237918479998
          }
        }, 
        {
          "category": "Local business", 
          "name": "Waffle House", 
          "id": "162207243867544", 
          "category_list": [
            {
              "id": "192831537402299", 
              "name": "Family Style Restaurant"
            }
          ], 
          "location": {
            "city": "Farmers Branch", 
            "zip": "75234", 
            "country": "United States", 
            "longitude": -96.855934193436994, 
            "state": "TX", 
            "street": "14951 Marsh Lane", 
            "latitude": 32.952055433158002
          }
        }, 
        {
          "category": "Local business", 
          "name": "Waffle House", 
          "id": "196249873759465", 
          "category_list": [
            {
              "id": "192831537402299", 
              "name": "Family Style Restaurant"
            }, 
            {
              "id": "197871390225897", 
              "name": "Cafe"
            }, 
            {
              "id": "187153754656815", 
              "name": "Dessert Restaurant"
            }
          ], 
          "location": {
            "city": "Antalya", 
            "zip": "", 
            "country": "Turkey", 
            "longitude": 28.822822232795001, 
            "state": "", 
            "street": "", 
            "latitude": 40.959147136437998
          }
        }, 
        {
          "category": "Local business", 
          "name": "Waffle House", 
          "id": "219403798121031", 
          "category_list": [
            {
              "id": "192831537402299", 
              "name": "Family Style Restaurant"
            }
          ], 
          "location": {
            "city": "Houston", 
            "zip": "77073", 
            "country": "United States", 
            "longitude": -95.422874102370997, 
            "state": "TX", 
            "street": "406 Fm 1960", 
            "latitude": 30.022582148613001
          }
        }, 
        {
          "category": "Local business", 
          "name": "Waffle House", 
          "id": "166053960145585", 
          "category_list": [
            {
              "id": "192831537402299", 
              "name": "Family Style Restaurant"
            }
          ], 
          "location": {
            "city": "Mesquite", 
            "zip": "75149", 
            "country": "United States", 
            "longitude": -96.624230163473001, 
            "state": "TX", 
            "street": "1722 Scyene Road", 
            "latitude": 32.768376026257002
          }
        }, 
        {
          "category": "Local business", 
          "name": "Waffle House Restaurant", 
          "id": "125153560892714", 
          "category_list": [
            {
              "id": "192831537402299", 
              "name": "Family Style Restaurant"
            }
          ], 
          "location": {
            "city": "Deltona", 
            "zip": "32725", 
            "country": "United States", 
            "longitude": -81.280630862999999, 
            "state": "FL", 
            "street": "", 
            "latitude": 28.872764671700001
          }
        }, 
        {
          "category": "Local business", 
          "name": "Waffle House", 
          "id": "373504562683406", 
          "category_list": [
            {
              "id": "192831537402299", 
              "name": "Family Style Restaurant"
            }
          ], 
          "location": {
            "city": "Erevan", 
            "zip": "", 
            "country": "Armenia", 
            "longitude": 44.516333313925003, 
            "state": "", 
            "street": "", 
            "latitude": 40.183527436086997
          }
        }, 
        {
          "category": "Restaurant/cafe", 
          "name": "Johnny D's Waffle House", 
          "id": "203919709777225", 
          "category_list": [
            {
              "id": "192108214153222", 
              "name": "Breakfast & Brunch Restaurant"
            }, 
            {
              "id": "187827497907070", 
              "name": "Bakery"
            }
          ], 
          "location": {
            "city": "Myrtle Beach", 
            "zip": "29577", 
            "country": "United States", 
            "longitude": -78.860647836400005, 
            "state": "SC", 
            "street": "3301 N Kings Hwy", 
            "latitude": 33.712083317999998
          }
        }, 
        {
          "category": "Local business", 
          "name": "Waffle House >_<", 
          "id": "439536972726260", 
          "category_list": [
            {
              "id": "192831537402299", 
              "name": "Family Style Restaurant"
            }, 
            {
              "id": "167954166588517", 
              "name": "Diner"
            }, 
            {
              "id": "192108214153222", 
              "name": "Breakfast & Brunch Restaurant"
            }
          ], 
          "location": {
            "city": "Austin", 
            "zip": "78754", 
            "country": "United States", 
            "longitude": -97.919668999999999, 
            "state": "TX", 
            "street": "8800 US HWY 290", 
            "latitude": 30.233250000000002
          }
        }, 
        {
          "category": "Local business", 
          "name": "Waffle House", 
          "id": "291069717576281", 
          "category_list": [
            {
              "id": "192831537402299", 
              "name": "Family Style Restaurant"
            }
          ], 
          "location": {
            "city": "Nashville", 
            "zip": "37214", 
            "country": "United States", 
            "longitude": -86.686120746384006, 
            "state": "TN", 
            "street": "2340 Elm Hill Pike", 
            "latitude": 36.153740194070998
          }
        }, 
        {
          "category": "Local business", 
          "name": "Waffle House", 
          "id": "292615467432157", 
          "category_list": [
            {
              "id": "192831537402299", 
              "name": "Family Style Restaurant"
            }
          ], 
          "location": {
            "city": "Pensacola", 
            "zip": "32501", 
            "country": "United States", 
            "longitude": -87.205383549635997, 
            "state": "FL", 
            "street": "401A East Gregory St", 
            "latitude": 30.417029653922
          }
        }, 
        {
          "category": "Local business", 
          "name": "Waffle House", 
          "id": "155863864498741", 
          "category_list": [
            {
              "id": "192108214153222", 
              "name": "Breakfast & Brunch Restaurant"
            }, 
            {
              "id": "192831537402299", 
              "name": "Family Style Restaurant"
            }
          ], 
          "location": {
            "latitude": 29.878589346068001, 
            "street": "", 
            "zip": "77095", 
            "longitude": -95.677154280802
          }
        }, 
        {
          "category": "Local business", 
          "name": "Waffle House-Centennial Olympic Park", 
          "id": "127714584080829", 
          "category_list": [
            {
              "id": "192831537402299", 
              "name": "Family Style Restaurant"
            }, 
            {
              "id": "192108214153222", 
              "name": "Breakfast & Brunch Restaurant"
            }
          ], 
          "location": {
            "city": "Atlanta", 
            "zip": "30303", 
            "country": "United States", 
            "longitude": -84.391931974456995, 
            "state": "GA", 
            "street": "Andrew Young International Blvd", 
            "latitude": 33.759869476871998
          }
        }, 
        {
          "category": "Local business", 
          "name": "Waffle House", 
          "id": "165164906829110", 
          "category_list": [
            {
              "id": "192108214153222", 
              "name": "Breakfast & Brunch Restaurant"
            }, 
            {
              "id": "192831537402299", 
              "name": "Family Style Restaurant"
            }
          ], 
          "location": {
            "city": "Arlington", 
            "zip": "76011-4316", 
            "country": "United States", 
            "longitude": -97.097376900186006, 
            "state": "TX", 
            "street": "1910 N Collins St", 
            "latitude": 32.764617199458002
          }
        }, 
        {
          "category": "Local business", 
          "name": "Waffle House", 
          "id": "181533471921408", 
          "category_list": [
            {
              "id": "192831537402299", 
              "name": "Family Style Restaurant"
            }
          ], 
          "location": {
            "city": "Phoenix", 
            "zip": "85040", 
            "country": "United States", 
            "longitude": -112.00812583382999, 
            "state": "AZ", 
            "street": "3363 E University Dr", 
            "latitude": 33.415490542318999
          }
        }, 
        {
          "category": "Local business", 
          "name": "The Waffle House - Norwich", 
          "id": "146939985342164", 
          "category_list": [
            {
              "id": "273819889375819", 
              "name": "Restaurant"
            }
          ], 
          "location": {
            "city": "Norwich", 
            "zip": "NR2 1JN", 
            "country": "United Kingdom", 
            "longitude": 1.2895464605268001, 
            "state": "", 
            "street": "39 St. Giles Street", 
            "latitude": 52.629398777577997
          }
        }, 
        {
          "category": "Restaurant/cafe", 
          "name": "The Waffle House - Ramsgate", 
          "id": "202624186430970", 
          "category_list": [
            {
              "id": "192831537402299", 
              "name": "Family Style Restaurant"
            }
          ], 
          "location": {
            "city": "Ramsgate", 
            "zip": "4275", 
            "country": "South Africa", 
            "longitude": 30.347899174481999, 
            "state": "", 
            "street": "Marine Drive", 
            "latitude": -30.888005750402002
          }
        }, 
        {
          "category": "Local business", 
          "name": "Waffle House", 
          "id": "224418174283307", 
          "category_list": [
            {
              "id": "192831537402299", 
              "name": "Family Style Restaurant"
            }
          ], 
          "location": {
            "city": "Houston", 
            "zip": "77060", 
            "country": "United States", 
            "longitude": -95.384183926117004, 
            "state": "TX", 
            "street": "728 N Sam Houston E", 
            "latitude": 29.938294342828002
          }
        }, 
        {
          "category": "Local business", 
          "name": "Waffle House", 
          "id": "253827364652565", 
          "category_list": [
            {
              "id": "192831537402299", 
              "name": "Family Style Restaurant"
            }
          ], 
          "location": {
            "city": "Plano", 
            "zip": "75074", 
            "country": "United States", 
            "longitude": -96.68832215578, 
            "state": "TX", 
            "street": "1740 E Spring Creek", 
            "latitude": 33.056648987726
          }
        }, 
        {
          "category": "Local business", 
          "name": "Waffle House", 
          "id": "123472344368906", 
          "category_list": [
            {
              "id": "192831537402299", 
              "name": "Family Style Restaurant"
            }, 
            {
              "id": "197871390225897", 
              "name": "Cafe"
            }, 
            {
              "id": "192108214153222", 
              "name": "Breakfast & Brunch Restaurant"
            }
          ], 
          "location": {
            "city": "Pasadena", 
            "zip": "77505", 
            "country": "United States", 
            "longitude": -95.166670157460004, 
            "state": "TX", 
            "street": "5004 Fairmont Parkway", 
            "latitude": 29.649507102329999
          }
        }, 
        {
          "category": "Local business", 
          "name": "Waffle House", 
          "id": "297471543600405", 
          "category_list": [
            {
              "id": "192831537402299", 
              "name": "Family Style Restaurant"
            }
          ], 
          "location": {
            "city": "Charlotte", 
            "zip": "28212", 
            "country": "United States", 
            "longitude": -80.744107277870995, 
            "state": "NC", 
            "street": "6631 E. Independence", 
            "latitude": 35.170649917700999
          }
        }, 
        {
          "category": "Local business", 
          "name": "Waffle House", 
          "id": "199241780145515", 
          "category_list": [
            {
              "id": "192831537402299", 
              "name": "Family Style Restaurant"
            }
          ], 
          "location": {
            "city": "Louisville", 
            "zip": "40213", 
            "country": "United States", 
            "longitude": -85.712135106381993, 
            "state": "KY", 
            "street": "2805 Fern Valley Rd", 
            "latitude": 38.157516757355999
          }
        }, 
        {
          "category": "Local business", 
          "name": "Waffle House", 
          "id": "153957887950573", 
          "category_list": [
            {
              "id": "192831537402299", 
              "name": "Family Style Restaurant"
            }, 
            {
              "id": "192108214153222", 
              "name": "Breakfast & Brunch Restaurant"
            }
          ], 
          "location": {
            "city": "Crowley", 
            "zip": "70526", 
            "country": "United States", 
            "longitude": -92.387115821386004, 
            "state": "LA", 
            "street": "", 
            "latitude": 30.236451711326001
          }
        }, 
        {
          "category": "Local business", 
          "name": "Waffle House", 
          "id": "116391258389871", 
          "category_list": [
            {
              "id": "192831537402299", 
              "name": "Family Style Restaurant"
            }, 
            {
              "id": "192108214153222", 
              "name": "Breakfast & Brunch Restaurant"
            }
          ], 
          "location": {
            "city": "Galveston", 
            "zip": "77551-2002", 
            "country": "United States", 
            "longitude": -94.827695578120995, 
            "state": "TX", 
            "street": "2825 1/2 61st St", 
            "latitude": 29.268447474858998
          }
        }, 
        {
          "category": "Local business", 
          "name": "Waffle House", 
          "id": "264294723604685", 
          "category_list": [
            {
              "id": "192831537402299", 
              "name": "Family Style Restaurant"
            }
          ], 
          "location": {
            "city": "Durham", 
            "zip": "27705", 
            "country": "United States", 
            "longitude": -78.950398908509996, 
            "state": "NC", 
            "street": "3500 Hillsborough Rd", 
            "latitude": 36.021370281971002
          }
        }, 
        {
          "category": "Restaurant/cafe", 
          "name": "Waffle House Family Restaurant", 
          "id": "551791921530778", 
          "category_list": [
            {
              "id": "273819889375819", 
              "name": "Restaurant"
            }
          ], 
          "location": {
            "city": "Yerevan", 
            "zip": "", 
            "country": "Armenia", 
            "longitude": 44.516428615099997, 
            "state": "", 
            "street": "Tumanyan 32/35", 
            "latitude": 40.183413060100001
          }
        }, 
        {
          "category": "Food/grocery", 
          "name": "Aswan Waffle House", 
          "id": "1444001375812452", 
          "category_list": [
            {
              "id": "187153754656815", 
              "name": "Dessert Restaurant"
            }
          ], 
          "location": {
            "city": "Aswan", 
            "zip": "", 
            "country": "Egypt", 
            "longitude": 32.901542645264001, 
            "state": "", 
            "street": "Atlas area infront of new abo simbel hotel", 
            "latitude": 24.104357357935999
          }
        }, 
        {
          "category": "Local business", 
          "name": "Waffle House", 
          "id": "347110741989877", 
          "category_list": [
            {
              "id": "192108214153222", 
              "name": "Breakfast & Brunch Restaurant"
            }, 
            {
              "id": "192831537402299", 
              "name": "Family Style Restaurant"
            }
          ], 
          "location": {
            "city": "Terrytown", 
            "zip": "70056", 
            "country": "United States", 
            "longitude": -90.018372164748996, 
            "state": "LA", 
            "street": "", 
            "latitude": 29.903171537951
          }
        }, 
        {
          "category": "Restaurant/cafe", 
          "name": "Vic's Waffle House", 
          "id": "148639035147730", 
          "category_list": [
            {
              "id": "192108214153222", 
              "name": "Breakfast & Brunch Restaurant"
            }, 
            {
              "id": "192831537402299", 
              "name": "Family Style Restaurant"
            }
          ], 
          "location": {
            "city": "Tewksbury", 
            "zip": "01876", 
            "country": "United States", 
            "longitude": -71.263578406118995, 
            "state": "MA", 
            "street": "283 Old Main Street", 
            "latitude": 42.622556862059
          }
        }, 
        {
          "category": "Restaurant/cafe", 
          "name": "JK Grill Waffle & Steak House", 
          "id": "514666845291473", 
          "category_list": [
            {
              "id": "273819889375819", 
              "name": "Restaurant"
            }
          ], 
          "location": {
            "city": "Colima", 
            "zip": "28000", 
            "country": "Mexico", 
            "longitude": -103.729434768, 
            "state": "", 
            "street": "Degollado 93, Frente al Teatro Hidalgo, Centro", 
            "latitude": 19.242859315099999
          }
        }, 
        {
          "category": "Local business", 
          "name": "Roscoe House Of Chicken And Waffles", 
          "id": "256505354453427", 
          "category_list": [
            {
              "id": "110107385737667", 
              "name": "New American Restaurant"
            }, 
            {
              "id": "110113695730808", 
              "name": "Chicken Restaurant"
            }, 
            {
              "id": "156757354384541", 
              "name": "Soul Food Restaurant"
            }
          ], 
          "location": {
            "city": "Los Angeles", 
            "zip": "90028", 
            "country": "United States", 
            "longitude": -118.32226863028001, 
            "state": "CA", 
            "street": "1514 N. Gower St.", 
            "latitude": 34.098624452625998
          }
        }, 
        {
          "category": "Local business", 
          "name": "Waffle House Cafe & Restaurant Capac\u0131ty", 
          "id": "409239712485913", 
          "category_list": [
            {
              "id": "2500", 
              "name": "Local Business"
            }
          ], 
          "location": {
            "city": "Istanbul", 
            "zip": "", 
            "country": "Turkey", 
            "longitude": 28.8709953372, 
            "state": "", 
            "street": "", 
            "latitude": 40.977797402999997
          }
        }, 
        {
          "category": "Restaurant/cafe", 
          "name": "Waffle House Egypt", 
          "id": "152614564762762", 
          "category_list": [
            {
              "id": "187153754656815", 
              "name": "Dessert Restaurant"
            }, 
            {
              "id": "414430838570027", 
              "name": "Candy Store"
            }, 
            {
              "id": "197871390225897", 
              "name": "Cafe"
            }
          ], 
          "location": {
            "city": "Cairo", 
            "zip": "", 
            "country": "Egypt", 
            "longitude": 31.317183586399999, 
            "state": "", 
            "street": "5, Mohamed El-Mahdi st. from Nabil El-Wakkad st. behind Golf Pharmacy, Ard El-Golf, Heliopolis", 
            "latitude": 30.111747749799999
          }
        }, 
        {
          "category": "Local business", 
          "name": "Waffle House Incorporated", 
          "id": "109531042417247", 
          "category_list": [
            {
              "id": "192831537402299", 
              "name": "Family Style Restaurant"
            }, 
            {
              "id": "192108214153222", 
              "name": "Breakfast & Brunch Restaurant"
            }, 
            {
              "id": "161811347201528", 
              "name": "Lodging"
            }
          ], 
          "location": {
            "city": "Orlando", 
            "zip": "32836-6730", 
            "country": "United States", 
            "longitude": -81.504468680561999, 
            "state": "FL", 
            "street": "12805 State Road 535", 
            "latitude": 28.379174783779
          }
        }, 
        {
          "category": "Restaurant/cafe", 
          "name": "Waffle House Family Restaurant", 
          "id": "606762519365287", 
          "category_list": [
            {
              "id": "165679780146824", 
              "name": "Food & Restaurant"
            }
          ], 
          "location": {
            "city": "Yerevan", 
            "zip": "", 
            "country": "Armenia", 
            "longitude": 44.519746955902001, 
            "state": "", 
            "street": "2-35 TUMANIAN  str. EREVAN, ARMENIA", 
            "latitude": 40.185675622815999
          }
        }, 
        {
          "category": "Local business", 
          "name": "Waffle House Incorporated", 
          "id": "109432052428292", 
          "category_list": [
            {
              "id": "192831537402299", 
              "name": "Family Style Restaurant"
            }, 
            {
              "id": "192108214153222", 
              "name": "Breakfast & Brunch Restaurant"
            }
          ], 
          "location": {
            "city": "Oakland Park", 
            "zip": "33309-3808", 
            "country": "United States", 
            "longitude": -80.154903602068998, 
            "state": "FL", 
            "street": "4840 Powerline Rd", 
            "latitude": 26.186975213044999
          }
        }, 
        {
          "category": "Restaurant/cafe", 
          "name": "The Waffle House - Hyderabad, PAK.", 
          "id": "269028339889043", 
          "category_list": [
            {
              "id": "200863816597800", 
              "name": "Ice Cream Parlor"
            }
          ], 
          "location": {
            "city": "Hyderabad", 
            "zip": "", 
            "country": "Pakistan", 
            "longitude": 68.3590997835, 
            "state": "", 
            "street": "Airport Road, Near Globe Chowrangi, Latifabad", 
            "latitude": 25.365692649
          }
        }, 
        {
          "category": "Local business", 
          "name": "Sak\u0131zz Waffle House ~Ala\u00e7at\u0131~", 
          "id": "137579196319309", 
          "category_list": [
            {
              "id": "192831537402299", 
              "name": "Family Style Restaurant"
            }, 
            {
              "id": "187827497907070", 
              "name": "Bakery"
            }
          ], 
          "location": {
            "latitude": 38.284340971272002, 
            "street": "", 
            "zip": "", 
            "longitude": 26.375074360393999
          }
        }, 
        {
          "category": "Restaurant/cafe", 
          "name": "Waffles house-13 H\u00e0ng M\u00e0nh", 
          "id": "123969597788860", 
          "category_list": [
            {
              "id": "192803624072087", 
              "name": "Fast Food Restaurant"
            }
          ], 
          "location": {
            "city": "Hanoi", 
            "zip": "", 
            "country": "Vietnam", 
            "longitude": 105.84821790700001, 
            "state": "", 
            "street": "Hanoi", 
            "latitude": 21.031863746999999
          }
        }, 
        {
          "category": "Local business", 
          "name": "Grandma Sally's Waffle and Pancake House Restaurant of Glen Ellyn", 
          "id": "116598271691373", 
          "category_list": [
            {
              "id": "192831537402299", 
              "name": "Family Style Restaurant"
            }
          ], 
          "location": {
            "city": "Glen Ellyn", 
            "zip": "60137-5643", 
            "country": "United States", 
            "longitude": -88.074043000000003, 
            "state": "IL", 
            "street": "369 Roosevelt Rd", 
            "latitude": 41.858879000000002
          }
        }
      ]
    }
  }, 
  {
    "business_name": "Rumbi Island Grill", 
    "business_id": "EOCQ5E0lakUyBvUH0L9--g", 
    "fb_pages": {
      "paging": {
        "next": "https://graph.facebook.com/search?type=place&access_token=229546593895315|yPLlHqq6YvDLIH4nL0kjJtIFSlU&limit=5000&offset=5000&__after_id=231263730251938"
      }, 
      "data": [
        {
          "category": "Restaurant/cafe", 
          "name": "Rumbi Island Grill", 
          "id": "197294970288670", 
          "category_list": [
            {
              "id": "191876627510158", 
              "name": "Hawaiian Restaurant"
            }, 
            {
              "id": "191765907520539", 
              "name": "Caribbean Restaurant"
            }, 
            {
              "id": "188296324525457", 
              "name": "Sandwich Shop"
            }
          ], 
          "location": {
            "city": "Salt Lake City", 
            "zip": "84109", 
            "country": "United States", 
            "longitude": -111.795242, 
            "state": "UT", 
            "street": "3865 S. Wasatch Blvd., Suite 300", 
            "latitude": 40.687801
          }
        }, 
        {
          "category": "Local business", 
          "name": "Rumbi Island Grill", 
          "id": "111815695522187", 
          "category_list": [
            {
              "id": "273819889375819", 
              "name": "Restaurant"
            }
          ], 
          "location": {
            "city": "Mesa", 
            "zip": "85204-7382", 
            "country": "United States", 
            "longitude": -111.75441388446001, 
            "state": "AZ", 
            "street": "1902 South Val Vista Drive", 
            "latitude": 33.380598892267002
          }
        }, 
        {
          "category": "Local business", 
          "name": "Rumbi Island Grill", 
          "id": "111552545551735", 
          "category_list": [
            {
              "id": "273819889375819", 
              "name": "Restaurant"
            }
          ], 
          "location": {
            "city": "Avondale", 
            "zip": "85392-4896", 
            "country": "United States", 
            "longitude": -112.27304224336, 
            "state": "AZ", 
            "street": "9915 W Mcdowell Rd", 
            "latitude": 33.464318313596998
          }
        }, 
        {
          "category": "Local business", 
          "name": "Rumbi Island Grill", 
          "id": "185852091440319", 
          "category_list": [
            {
              "id": "273819889375819", 
              "name": "Restaurant"
            }
          ], 
          "location": {
            "city": "West Jordan", 
            "zip": "84084", 
            "country": "United States", 
            "longitude": -111.97892241853999, 
            "state": "UT", 
            "street": "", 
            "latitude": 40.619503543359997
          }
        }, 
        {
          "category": "Local business", 
          "name": "Rumbi Island Grill", 
          "id": "270443102992423", 
          "category_list": [
            {
              "id": "273819889375819", 
              "name": "Restaurant"
            }
          ], 
          "location": {
            "city": "Meridian", 
            "zip": "83646", 
            "country": "United States", 
            "longitude": -116.35607644737, 
            "state": "ID", 
            "street": "", 
            "latitude": 43.635216918167004
          }
        }, 
        {
          "category": "Local business", 
          "name": "Rumbi Island Grill", 
          "id": "218180578212541", 
          "category_list": [
            {
              "id": "273819889375819", 
              "name": "Restaurant"
            }
          ], 
          "location": {
            "city": "Ammon", 
            "zip": "83406", 
            "country": "United States", 
            "longitude": -111.98400111397, 
            "state": "ID", 
            "street": "2035 South 25th East (Hitt Rd) ", 
            "latitude": 43.478961436412
          }
        }, 
        {
          "category": "Local business", 
          "name": "Rumbi Island Grill", 
          "id": "151946351498194", 
          "category_list": [
            {
              "id": "191765907520539", 
              "name": "Caribbean Restaurant"
            }
          ], 
          "location": {
            "city": "Orem", 
            "zip": "84097", 
            "country": "United States", 
            "longitude": -111.68983856483, 
            "state": "UT", 
            "street": "", 
            "latitude": 40.273883225409001
          }
        }, 
        {
          "category": "Restaurant/cafe", 
          "name": "Rumbi Island Grill", 
          "id": "431269240293932", 
          "category_list": [
            {
              "id": "149803325077018", 
              "name": "American Restaurant"
            }
          ], 
          "location": {
            "city": "Las Vegas", 
            "zip": "89119", 
            "country": "United States", 
            "longitude": -115.136698491, 
            "state": "NV", 
            "street": "4680 S Maryland Pkwy, Suite 300", 
            "latitude": 36.104441474200001
          }
        }, 
        {
          "category": "Local business", 
          "name": "Rumbi Island Grill", 
          "id": "114085781956705", 
          "category_list": [
            {
              "id": "109527622457518", 
              "name": "Shopping Mall"
            }, 
            {
              "id": "191765907520539", 
              "name": "Caribbean Restaurant"
            }, 
            {
              "id": "191876627510158", 
              "name": "Hawaiian Restaurant"
            }
          ], 
          "location": {
            "city": "Salt Lake City", 
            "zip": "84101-1324", 
            "country": "United States", 
            "longitude": -111.90354722235, 
            "state": "UT", 
            "street": "90 S 400 W Ste 12", 
            "latitude": 40.765721576834999
          }
        }, 
        {
          "category": "Local business", 
          "name": "Rumbi Island Grill", 
          "id": "135991209786563", 
          "category_list": [
            {
              "id": "150534008338515", 
              "name": "Barbecue Restaurant"
            }
          ], 
          "location": {
            "city": "Chandler", 
            "zip": "85226-1528", 
            "country": "United States", 
            "longitude": -111.96789786938, 
            "state": "AZ", 
            "street": "885 N 54th St Ste 5", 
            "latitude": 33.317408558910998
          }
        }, 
        {
          "category": "Local business", 
          "name": "Rumbi Island Grill", 
          "id": "120263991319550", 
          "category_list": [
            {
              "id": "149803325077018", 
              "name": "American Restaurant"
            }
          ], 
          "location": {
            "city": "Layton", 
            "zip": "84041-1637", 
            "country": "United States", 
            "longitude": -111.97981198769, 
            "state": "UT", 
            "street": "748 W Antelope Dr", 
            "latitude": 41.089469187295997
          }
        }, 
        {
          "category": "Local business", 
          "name": "Rumbi Island Grill", 
          "id": "116165045078119", 
          "category_list": [
            {
              "id": "191765907520539", 
              "name": "Caribbean Restaurant"
            }
          ], 
          "location": {
            "city": "Sandy", 
            "zip": "84070-4114", 
            "country": "United States", 
            "longitude": -111.89030432209, 
            "state": "UT", 
            "street": "10365 S State St", 
            "latitude": 40.563242424751003
          }
        }, 
        {
          "category": "Local business", 
          "name": "Rumbi Island Grill", 
          "id": "168130769869159", 
          "category_list": [
            {
              "id": "150534008338515", 
              "name": "Barbecue Restaurant"
            }, 
            {
              "id": "191765907520539", 
              "name": "Caribbean Restaurant"
            }
          ], 
          "location": {
            "city": "American Fork", 
            "zip": "84003", 
            "country": "United States", 
            "longitude": -111.823863123, 
            "state": "UT", 
            "street": "", 
            "latitude": 40.388200524200002
          }
        }, 
        {
          "category": "Local business", 
          "name": "Rumbi Island Grill", 
          "id": "115992208421725", 
          "category_list": [
            {
              "id": "218838724804749", 
              "name": "Ramen Restaurant"
            }
          ], 
          "location": {
            "city": "Ogden", 
            "zip": "84405-3509", 
            "country": "United States", 
            "longitude": -111.98618754132001, 
            "state": "UT", 
            "street": "4193 Riverdale Rd", 
            "latitude": 41.186528121302999
          }
        }, 
        {
          "category": "Local business", 
          "name": "Rumbi Island Grill", 
          "id": "111626382211373", 
          "category_list": [
            {
              "id": "150534008338515", 
              "name": "Barbecue Restaurant"
            }, 
            {
              "id": "149803325077018", 
              "name": "American Restaurant"
            }
          ], 
          "location": {
            "city": "Bountiful", 
            "zip": "84010-7176", 
            "country": "United States", 
            "longitude": -111.89263569432001, 
            "state": "UT", 
            "street": "71 N 500 W Ste C", 
            "latitude": 40.890028981411
          }
        }, 
        {
          "category": "Local business", 
          "name": "Rumbi Island Grill", 
          "id": "104908892885782", 
          "category_list": [
            {
              "id": "176960322351733", 
              "name": "Mediterranean Restaurant"
            }
          ], 
          "location": {
            "city": "Salt Lake City", 
            "zip": "84107-4828", 
            "country": "United States", 
            "longitude": -111.88698811987, 
            "state": "UT", 
            "street": "5269 S State St", 
            "latitude": 40.656589025405999
          }
        }, 
        {
          "category": "Restaurant/cafe", 
          "name": "Rumbi Island Grill", 
          "id": "321394094619262", 
          "category_list": [
            {
              "id": "273819889375819", 
              "name": "Restaurant"
            }
          ], 
          "location": {
            "city": "Logan", 
            "zip": "84302", 
            "country": "United States", 
            "longitude": -111.83748051000001, 
            "state": "UT", 
            "street": "970 South Main Street", 
            "latitude": 41.713273260100003
          }
        }, 
        {
          "category": "Local business", 
          "name": "Rumbi Island Grill", 
          "id": "115517455138007", 
          "category_list": [
            {
              "id": "273819889375819", 
              "name": "Restaurant"
            }, 
            {
              "id": "109527622457518", 
              "name": "Shopping Mall"
            }
          ], 
          "location": {
            "city": "Salt Lake City", 
            "zip": "84102-2161", 
            "country": "United States", 
            "longitude": -111.87182555118, 
            "state": "UT", 
            "street": "358 S 700 E", 
            "latitude": 40.761384773666002
          }
        }, 
        {
          "category": "Local business", 
          "name": "Rumbi Island Grill", 
          "id": "396641410349154", 
          "category_list": [
            {
              "id": "273819889375819", 
              "name": "Restaurant"
            }
          ], 
          "location": {
            "city": "West Valley City", 
            "zip": "84119", 
            "country": "United States", 
            "longitude": -111.95748752900001, 
            "state": "UT", 
            "street": "", 
            "latitude": 40.6942053613
          }
        }, 
        {
          "category": "Local business", 
          "name": "Rumbi Island Grill", 
          "id": "108159485892760", 
          "category_list": [
            {
              "id": "191765907520539", 
              "name": "Caribbean Restaurant"
            }
          ], 
          "location": {
            "city": "Midvale", 
            "zip": "84047-1714", 
            "country": "United States", 
            "longitude": -111.86498425079, 
            "state": "UT", 
            "street": "936 Fort Union Blvd", 
            "latitude": 40.621581275406001
          }
        }, 
        {
          "category": "Local business", 
          "name": "Rumbi Island Grill", 
          "id": "113473778685435", 
          "category_list": [
            {
              "id": "191765907520539", 
              "name": "Caribbean Restaurant"
            }
          ], 
          "location": {
            "city": "Draper", 
            "zip": "84020-7964", 
            "country": "United States", 
            "longitude": -111.88642036568, 
            "state": "UT", 
            "street": "148 E 12300 S", 
            "latitude": 40.526238884655001
          }
        }, 
        {
          "category": "Local business", 
          "name": "Rumbi Island Grill", 
          "id": "116087801753605", 
          "category_list": [
            {
              "id": "191876627510158", 
              "name": "Hawaiian Restaurant"
            }
          ], 
          "location": {
            "city": "Salt Lake City", 
            "zip": "84106-1887", 
            "country": "United States", 
            "longitude": -111.87136545176, 
            "state": "UT", 
            "street": "675 E 2100 S", 
            "latitude": 40.725782972146
          }
        }, 
        {
          "category": "Local business", 
          "name": "Rumbi Island Grill", 
          "id": "122349344539916", 
          "category_list": [
            {
              "id": "273819889375819", 
              "name": "Restaurant"
            }
          ], 
          "location": {
            "city": "Aurora", 
            "zip": "80016", 
            "country": "United States", 
            "longitude": -104.709157862, 
            "state": "CO", 
            "street": "", 
            "latitude": 39.600509456600001
          }
        }, 
        {
          "category": "Local business", 
          "name": "Rumbi Island Grill", 
          "id": "100885023289311", 
          "category_list": [
            {
              "id": "150534008338515", 
              "name": "Barbecue Restaurant"
            }
          ], 
          "location": {
            "city": "Rancho Santa Margarita", 
            "zip": "92688-3937", 
            "country": "United States", 
            "longitude": -117.59956099999999, 
            "state": "CA", 
            "street": "30465 Avenida De Las Flores", 
            "latitude": 33.641739999999999
          }
        }, 
        {
          "category": "Local business", 
          "name": "Rumbi Island Grill", 
          "id": "104924009550442", 
          "category_list": [
            {
              "id": "174483852595760", 
              "name": "Chinese Restaurant"
            }
          ], 
          "location": {
            "city": "Phoenix", 
            "zip": "85018-5374", 
            "country": "United States", 
            "longitude": -111.98936, 
            "state": "AZ", 
            "street": "4280 E Indian School Rd Ste 101", 
            "latitude": 33.495072
          }
        }, 
        {
          "category": "Local business", 
          "name": "Rumbi Island Grill", 
          "id": "113491838683841", 
          "category_list": [
            {
              "id": "150534008338515", 
              "name": "Barbecue Restaurant"
            }, 
            {
              "id": "110290705711626", 
              "name": "Bar"
            }
          ], 
          "location": {
            "city": "Colorado Springs", 
            "zip": "80920-3190", 
            "country": "United States", 
            "longitude": -104.798277, 
            "state": "CO", 
            "street": "7395 N Academy Blvd", 
            "latitude": 38.938749999999999
          }
        }, 
        {
          "category": "Local business", 
          "name": "Rumbi Island Grill", 
          "id": "117531844933299", 
          "category_list": [
            {
              "id": "150534008338515", 
              "name": "Barbecue Restaurant"
            }
          ], 
          "location": {
            "city": "Torrance", 
            "zip": "90503-6604", 
            "country": "United States", 
            "longitude": -118.353103, 
            "state": "CA", 
            "street": "21535 Hawthorne Blvd", 
            "latitude": 33.832810000000002
          }
        }, 
        {
          "category": "Local business", 
          "name": "Rumbi Island Grill", 
          "id": "155857847786970", 
          "category_list": [
            {
              "id": "150534008338515", 
              "name": "Barbecue Restaurant"
            }
          ], 
          "location": {
            "city": "Mission Viejo", 
            "zip": "92691-3929", 
            "country": "United States", 
            "longitude": -117.679749, 
            "state": "CA", 
            "street": "24000 Alicia Pkwy", 
            "latitude": 33.613919000000003
          }
        }, 
        {
          "category": "Local business", 
          "name": "Rumbi Island Grill", 
          "id": "163264483697786", 
          "category_list": [
            {
              "id": "150534008338515", 
              "name": "Barbecue Restaurant"
            }
          ], 
          "location": {
            "city": "Draper", 
            "zip": "84020-8041", 
            "country": "United States", 
            "longitude": -111.887158, 
            "state": "UT", 
            "street": "169 Wasatch Point Ln Apt 30105", 
            "latitude": 40.505367
          }
        }, 
        {
          "category": "Local business", 
          "name": "Rumbi Island Grill", 
          "id": "187507941375879", 
          "category_list": [
            {
              "id": "2500", 
              "name": "Local Business"
            }
          ], 
          "location": {
            "city": "West Jordan", 
            "zip": "84088", 
            "country": "United States", 
            "longitude": -111.93844, 
            "state": "UT", 
            "street": "", 
            "latitude": 40.589280000000002
          }
        }, 
        {
          "category": "Local business", 
          "name": "Rumbi Island Grill", 
          "id": "231263730251938", 
          "category_list": [
            {
              "id": "2500", 
              "name": "Local Business"
            }
          ], 
          "location": {
            "city": "Westminster", 
            "zip": "", 
            "country": "United States", 
            "longitude": -105.02247, 
            "state": "CO", 
            "street": "", 
            "latitude": 39.893419999999999
          }
        }
      ]
    }
  }, 
  {
    "business_name": "Prestige Cleaners", 
    "business_id": "q7DzFSkt1ColaWrAOw7rFw", 
    "fb_pages": {
      "paging": {
        "next": "https://graph.facebook.com/search?type=place&access_token=229546593895315|yPLlHqq6YvDLIH4nL0kjJtIFSlU&limit=5000&offset=5000&__after_id=273323152816034"
      }, 
      "data": [
        {
          "category": "Local business", 
          "name": "Prestige Cleaners", 
          "id": "120643310657", 
          "category_list": [
            {
              "id": "133148010085253", 
              "name": "Dry Cleaner"
            }
          ], 
          "location": {
            "city": "Knoxville", 
            "zip": "37838", 
            "country": "United States", 
            "longitude": -83.986839000000003, 
            "state": "TN", 
            "street": "7536 Taggart Lane", 
            "latitude": 36.055228999999997
          }
        }, 
        {
          "category": "Local business", 
          "name": "Prestige Cleaners", 
          "id": "176686895834199", 
          "category_list": [
            {
              "id": "176831012360626", 
              "name": "Professional Services"
            }, 
            {
              "id": "133148010085253", 
              "name": "Dry Cleaner"
            }
          ], 
          "location": {
            "city": "College Station", 
            "zip": "77845", 
            "country": "United States", 
            "longitude": -96.310058999999995, 
            "state": "TX", 
            "street": "1712 Southwest Parkway", 
            "latitude": 30.605936
          }
        }, 
        {
          "category": "Local business", 
          "name": "Prestige Cleaners", 
          "id": "250625687776", 
          "category_list": [
            {
              "id": "133148010085253", 
              "name": "Dry Cleaner"
            }
          ], 
          "location": {
            "city": "Sacramento", 
            "zip": "95838", 
            "country": "United States", 
            "longitude": -121.411095, 
            "state": "CA", 
            "street": "4333 Winters Street", 
            "latitude": 38.646317000000003
          }
        }, 
        {
          "category": "Professional services", 
          "name": "Prestige Cleaners", 
          "id": "103717382998", 
          "category_list": [
            {
              "id": "133148010085253", 
              "name": "Dry Cleaner"
            }
          ], 
          "location": {
            "city": "Lake Oswego", 
            "zip": "97035", 
            "country": "United States", 
            "longitude": -122.737724, 
            "state": "OR", 
            "street": "17450 SW Lower Boones Ferry Road", 
            "latitude": 45.399090000000001
          }
        }, 
        {
          "category": "Professional services", 
          "name": "Prestige", 
          "id": "644390858907316", 
          "category_list": [
            {
              "id": "133148010085253", 
              "name": "Dry Cleaner"
            }
          ], 
          "location": {
            "city": "Amman", 
            "zip": "", 
            "country": "Jordan", 
            "longitude": 35.845560656867001, 
            "state": "", 
            "street": "", 
            "latitude": 31.979506855600999
          }
        }, 
        {
          "category": "Local business", 
          "name": "Prestige Cleaners", 
          "id": "169006949782062", 
          "category_list": [
            {
              "id": "133148010085253", 
              "name": "Dry Cleaner"
            }
          ], 
          "location": {
            "city": "Knoxville", 
            "zip": "37919-8823", 
            "country": "United States", 
            "longitude": -84.017477999999997, 
            "state": "TN", 
            "street": "7421 S Northshore Dr", 
            "latitude": 35.906274000000003
          }
        }, 
        {
          "category": "Local business", 
          "name": "Prestige Cleaners", 
          "id": "156302241076930", 
          "category_list": [
            {
              "id": "133148010085253", 
              "name": "Dry Cleaner"
            }
          ], 
          "location": {
            "city": "Nashville", 
            "zip": "37211-2616", 
            "country": "United States", 
            "longitude": -86.711844999999997, 
            "state": "TN", 
            "street": "304 E Thompson Ln", 
            "latitude": 36.125736000000003
          }
        }, 
        {
          "category": "Local business", 
          "name": "Prestige Cleaners", 
          "id": "122232207834756", 
          "category_list": [
            {
              "id": "186230924744328", 
              "name": "Clothing Store"
            }, 
            {
              "id": "133148010085253", 
              "name": "Dry Cleaner"
            }
          ], 
          "location": {
            "city": "Bryan", 
            "zip": "77807-1010", 
            "country": "United States", 
            "longitude": -96.377218999999997, 
            "state": "TX", 
            "street": "503 N Harvey Mitchell Pkwy", 
            "latitude": 30.631145
          }
        }, 
        {
          "category": "Local business", 
          "name": "Prestige Cleaners", 
          "id": "136519039731057", 
          "category_list": [
            {
              "id": "133148010085253", 
              "name": "Dry Cleaner"
            }
          ], 
          "location": {
            "city": "Suffern", 
            "zip": "10901-5200", 
            "country": "United States", 
            "longitude": -74.113551000000001, 
            "state": "NY", 
            "street": "214 Route 59 Ste 3", 
            "latitude": 41.112586
          }
        }, 
        {
          "category": "Local business", 
          "name": "Prestige Cleaners", 
          "id": "154870041215263", 
          "category_list": [
            {
              "id": "133148010085253", 
              "name": "Dry Cleaner"
            }
          ], 
          "location": {
            "city": "Knoxville", 
            "zip": "37934-3915", 
            "country": "United States", 
            "longitude": -84.163376999999997, 
            "state": "TN", 
            "street": "11428 Kingston Pike", 
            "latitude": 35.879714999999997
          }
        }, 
        {
          "category": "Local business", 
          "name": "Prestige Cleaners", 
          "id": "160957620593854", 
          "category_list": [
            {
              "id": "133148010085253", 
              "name": "Dry Cleaner"
            }
          ], 
          "location": {
            "city": "Lansing", 
            "zip": "48911-3302", 
            "country": "United States", 
            "longitude": -84.602901000000003, 
            "state": "MI", 
            "street": "5127 S Waverly Rd", 
            "latitude": 42.682699999999997
          }
        }, 
        {
          "category": "Local business", 
          "name": "Prestige Cleaners", 
          "id": "163146973709108", 
          "category_list": [
            {
              "id": "133148010085253", 
              "name": "Dry Cleaner"
            }
          ], 
          "location": {
            "city": "Arlington Heights", 
            "zip": "60004-4008", 
            "country": "United States", 
            "longitude": -87.972716000000005, 
            "state": "IL", 
            "street": "816 E Rand Rd", 
            "latitude": 42.107647
          }
        }, 
        {
          "category": "Local business", 
          "name": "Prestige Cleaners", 
          "id": "169669153050115", 
          "category_list": [
            {
              "id": "133148010085253", 
              "name": "Dry Cleaner"
            }
          ], 
          "location": {
            "city": "Humble", 
            "zip": "77346-2702", 
            "country": "United States", 
            "longitude": -95.169756000000007, 
            "state": "TX", 
            "street": "7116 Fm 1960 Rd E", 
            "latitude": 29.998176000000001
          }
        }, 
        {
          "category": "Local business", 
          "name": "Prestige Cleaners", 
          "id": "228162153885107", 
          "category_list": [
            {
              "id": "133148010085253", 
              "name": "Dry Cleaner"
            }
          ], 
          "location": {
            "city": "Bloomingdale", 
            "zip": "60108", 
            "country": "United States", 
            "longitude": -88.109802000000002, 
            "state": "IL", 
            "street": "360 W Schick Rd", 
            "latitude": 41.952984000000001
          }
        }, 
        {
          "category": "Local business", 
          "name": "Prestige Cleaners", 
          "id": "312652022166088", 
          "category_list": [
            {
              "id": "2500", 
              "name": "Local Business"
            }
          ], 
          "location": {
            "city": "Barrington", 
            "zip": "02806", 
            "country": "United States", 
            "longitude": -71.309227000000007, 
            "state": "RI", 
            "street": "286 County Road", 
            "latitude": 41.740509000000003
          }
        }, 
        {
          "category": "Local business", 
          "name": "Prestige Cleaners", 
          "id": "442780145801081", 
          "category_list": [
            {
              "id": "2500", 
              "name": "Local Business"
            }
          ], 
          "location": {
            "city": "New York", 
            "zip": "10028", 
            "country": "United States", 
            "longitude": -73.958793999999997, 
            "state": "NY", 
            "street": "1161 Madison Ave.", 
            "latitude": 40.780555999999997
          }
        }, 
        {
          "category": "Local business", 
          "name": "Prestige Cleaners", 
          "id": "102213893155771", 
          "category_list": [
            {
              "id": "133148010085253", 
              "name": "Dry Cleaner"
            }, 
            {
              "id": "192134360811676", 
              "name": "Church"
            }
          ], 
          "location": {
            "city": "Pacific Palisades", 
            "zip": "90272-3812", 
            "country": "United States", 
            "longitude": -118.523984, 
            "state": "CA", 
            "street": "970 Monument St Ste 101", 
            "latitude": 34.046714000000001
          }
        }, 
        {
          "category": "Local business", 
          "name": "Prestige Cleaners", 
          "id": "109921002403926", 
          "category_list": [
            {
              "id": "133148010085253", 
              "name": "Dry Cleaner"
            }
          ], 
          "location": {
            "city": "Seekonk", 
            "zip": "02771-5627", 
            "country": "United States", 
            "longitude": -71.333815000000001, 
            "state": "MA", 
            "street": "753 Fall River Ave", 
            "latitude": 41.806570000000001
          }
        }, 
        {
          "category": "Local business", 
          "name": "Prestige Cleaners", 
          "id": "110891125641458", 
          "category_list": [
            {
              "id": "133148010085253", 
              "name": "Dry Cleaner"
            }
          ], 
          "location": {
            "city": "Madison", 
            "zip": "39110-8406", 
            "country": "United States", 
            "longitude": -90.113372999999996, 
            "state": "MS", 
            "street": "956 Highway 51", 
            "latitude": 32.456741000000001
          }
        }, 
        {
          "category": "Local business", 
          "name": "Prestige Cleaners", 
          "id": "111206742275752", 
          "category_list": [
            {
              "id": "133148010085253", 
              "name": "Dry Cleaner"
            }
          ], 
          "location": {
            "city": "Tallahassee", 
            "zip": "32303-5217", 
            "country": "United States", 
            "longitude": -84.269813999999997, 
            "state": "FL", 
            "street": "1908 Thomasville Rd", 
            "latitude": 30.465857
          }
        }, 
        {
          "category": "Local business", 
          "name": "Prestige Cleaners", 
          "id": "115556528473814", 
          "category_list": [
            {
              "id": "192134360811676", 
              "name": "Church"
            }, 
            {
              "id": "133148010085253", 
              "name": "Dry Cleaner"
            }
          ], 
          "location": {
            "city": "Santa Monica", 
            "zip": "90403-5509", 
            "country": "United States", 
            "longitude": -118.485557, 
            "state": "CA", 
            "street": "1731 Wilshire Blvd", 
            "latitude": 34.029659000000002
          }
        }, 
        {
          "category": "Local business", 
          "name": "Prestige Cleaners", 
          "id": "115847551810333", 
          "category_list": [
            {
              "id": "133148010085253", 
              "name": "Dry Cleaner"
            }
          ], 
          "location": {
            "city": "Bay Shore", 
            "zip": "11706-7027", 
            "country": "United States", 
            "longitude": -73.228950999999995, 
            "state": "NY", 
            "street": "81 Saxon Ave", 
            "latitude": 40.734219000000003
          }
        }, 
        {
          "category": "Local business", 
          "name": "Prestige Cleaners", 
          "id": "116577225069432", 
          "category_list": [
            {
              "id": "133148010085253", 
              "name": "Dry Cleaner"
            }
          ], 
          "location": {
            "city": "Palm Beach Gardens", 
            "zip": "33418-3967", 
            "country": "United States", 
            "longitude": -80.105565999999996, 
            "state": "FL", 
            "street": "4525 Pga Blvd", 
            "latitude": 26.838491000000001
          }
        }, 
        {
          "category": "Local business", 
          "name": "Prestige Cleaners", 
          "id": "117268931666926", 
          "category_list": [
            {
              "id": "133148010085253", 
              "name": "Dry Cleaner"
            }
          ], 
          "location": {
            "city": "Grandview", 
            "zip": "64030-1102", 
            "country": "United States", 
            "longitude": -94.530433000000002, 
            "state": "KS", 
            "street": "12200 Blue Ridge Ext", 
            "latitude": 38.903793
          }
        }, 
        {
          "category": "Local business", 
          "name": "Prestige Cleaners", 
          "id": "121097047946453", 
          "category_list": [
            {
              "id": "133148010085253", 
              "name": "Dry Cleaner"
            }
          ], 
          "location": {
            "city": "Bronx", 
            "zip": "10451-5923", 
            "country": "United States", 
            "longitude": -73.926682, 
            "state": "NY", 
            "street": "223 E 141st St", 
            "latitude": 40.814914000000002
          }
        }, 
        {
          "category": "Local business", 
          "name": "Prestige Cleaners", 
          "id": "121297534593219", 
          "category_list": [
            {
              "id": "133148010085253", 
              "name": "Dry Cleaner"
            }
          ], 
          "location": {
            "city": "Westminster", 
            "zip": "92683-7053", 
            "country": "United States", 
            "longitude": -117.95407899999999, 
            "state": "CA", 
            "street": "10034 Mcfadden Ave", 
            "latitude": 33.737569999999998
          }
        }, 
        {
          "category": "Local business", 
          "name": "Prestige Cleaners", 
          "id": "122344734488224", 
          "category_list": [
            {
              "id": "133148010085253", 
              "name": "Dry Cleaner"
            }
          ], 
          "location": {
            "city": "St. Louis", 
            "zip": "63121-5024", 
            "country": "United States", 
            "longitude": -90.294628000000003, 
            "state": "MO", 
            "street": "7248 Natural Bridge Rd", 
            "latitude": 38.702722000000001
          }
        }, 
        {
          "category": "Local business", 
          "name": "Prestige Cleaners", 
          "id": "122345604490975", 
          "category_list": [
            {
              "id": "133148010085253", 
              "name": "Dry Cleaner"
            }
          ], 
          "location": {
            "city": "Scottsdale", 
            "zip": "85251-4324", 
            "country": "United States", 
            "longitude": -111.930682, 
            "state": "AZ", 
            "street": "3908 N Goldwater Blvd", 
            "latitude": 33.492820999999999
          }
        }, 
        {
          "category": "Local business", 
          "name": "Prestige Cleaners", 
          "id": "122941531097594", 
          "category_list": [
            {
              "id": "186564191378474", 
              "name": "Cleaning Service"
            }, 
            {
              "id": "133148010085253", 
              "name": "Dry Cleaner"
            }
          ], 
          "location": {
            "city": "Pembroke Pines", 
            "zip": "33029-1413", 
            "country": "United States", 
            "longitude": -80.392380000000003, 
            "state": "FL", 
            "street": "18391 Pines Blvd", 
            "latitude": 26.007867000000001
          }
        }, 
        {
          "category": "Local business", 
          "name": "Prestige Cleaners", 
          "id": "123135147743032", 
          "category_list": [
            {
              "id": "133148010085253", 
              "name": "Dry Cleaner"
            }
          ], 
          "location": {
            "city": "Cedar Falls", 
            "zip": "50613-1878", 
            "country": "United States", 
            "longitude": -92.475075000000004, 
            "state": "IA", 
            "street": "122 N Magnolia Dr", 
            "latitude": 42.538196999999997
          }
        }, 
        {
          "category": "Local business", 
          "name": "Prestige Cleaners", 
          "id": "126032747450677", 
          "category_list": [
            {
              "id": "133148010085253", 
              "name": "Dry Cleaner"
            }
          ], 
          "location": {
            "city": "Waterloo", 
            "zip": "50702-5740", 
            "country": "United States", 
            "longitude": -92.357023999999996, 
            "state": "IA", 
            "street": "1039 Peoples Sq", 
            "latitude": 42.458168000000001
          }
        }, 
        {
          "category": "Local business", 
          "name": "Prestige Cleaners", 
          "id": "126164647439108", 
          "category_list": [
            {
              "id": "133148010085253", 
              "name": "Dry Cleaner"
            }
          ], 
          "location": {
            "city": "Knoxville", 
            "zip": "37922-5254", 
            "country": "United States", 
            "longitude": -84.070227000000003, 
            "state": "TN", 
            "street": "8901 Linksvue Dr", 
            "latitude": 35.895361999999999
          }
        }, 
        {
          "category": "Local business", 
          "name": "Prestige Cleaners", 
          "id": "130043527062799", 
          "category_list": [
            {
              "id": "2500", 
              "name": "Local Business"
            }
          ], 
          "location": {
            "city": "Meriden", 
            "zip": "06450", 
            "country": "United States", 
            "longitude": -72.761842000000001, 
            "state": "CT", 
            "street": "1231 East Main Street", 
            "latitude": 41.525314000000002
          }
        }, 
        {
          "category": "Local business", 
          "name": "Prestige Cleaners", 
          "id": "132751800109874", 
          "category_list": [
            {
              "id": "133148010085253", 
              "name": "Dry Cleaner"
            }, 
            {
              "id": "286280034782160", 
              "name": "Laundromat"
            }
          ], 
          "location": {
            "city": "Knoxville", 
            "zip": "37932-1407", 
            "country": "United States", 
            "longitude": -84.160110000000003, 
            "state": "TN", 
            "street": "10716 Hardin Valley Rd", 
            "latitude": 35.946429999999999
          }
        }, 
        {
          "category": "Local business", 
          "name": "Prestige Cleaners", 
          "id": "134776983240541", 
          "category_list": [
            {
              "id": "133148010085253", 
              "name": "Dry Cleaner"
            }
          ], 
          "location": {
            "city": "Scottsdale", 
            "zip": "85254-5238", 
            "country": "United States", 
            "longitude": -111.926872, 
            "state": "AZ", 
            "street": "7126 E Sahuaro Dr", 
            "latitude": 33.584781999999997
          }
        }, 
        {
          "category": "Local business", 
          "name": "Prestige Cleaners", 
          "id": "135209446528366", 
          "category_list": [
            {
              "id": "133148010085253", 
              "name": "Dry Cleaner"
            }
          ], 
          "location": {
            "city": "Geneva", 
            "zip": "60134-3911", 
            "country": "United States", 
            "longitude": -88.341489999999993, 
            "state": "IL", 
            "street": "1117 Randall Ct", 
            "latitude": 41.876145999999999
          }
        }, 
        {
          "category": "Local business", 
          "name": "Prestige Cleaners", 
          "id": "136609099721917", 
          "category_list": [
            {
              "id": "133148010085253", 
              "name": "Dry Cleaner"
            }
          ], 
          "location": {
            "city": "New York", 
            "zip": "10016-3214", 
            "country": "United States", 
            "longitude": -73.971648999999999, 
            "state": "NY", 
            "street": "646 1st Ave", 
            "latitude": 40.745724000000003
          }
        }, 
        {
          "category": "Local business", 
          "name": "Prestige Cleaners", 
          "id": "143625102350739", 
          "category_list": [
            {
              "id": "133148010085253", 
              "name": "Dry Cleaner"
            }
          ], 
          "location": {
            "city": "Bronx", 
            "zip": "10463-1650", 
            "country": "United States", 
            "longitude": -73.910257000000001, 
            "state": "NY", 
            "street": "563 W 235th St", 
            "latitude": 40.885849999999998
          }
        }, 
        {
          "category": "Local business", 
          "name": "Prestige Cleaners", 
          "id": "147202811991478", 
          "category_list": [
            {
              "id": "133148010085253", 
              "name": "Dry Cleaner"
            }
          ], 
          "location": {
            "city": "Bloomington", 
            "zip": "55420-4718", 
            "country": "United States", 
            "longitude": -93.289693, 
            "state": "MN", 
            "street": "724 W 98th St", 
            "latitude": 44.826507999999997
          }
        }, 
        {
          "category": "Local business", 
          "name": "Prestige Cleaners", 
          "id": "151886011520411", 
          "category_list": [
            {
              "id": "133148010085253", 
              "name": "Dry Cleaner"
            }
          ], 
          "location": {
            "city": "Highland Park", 
            "zip": "60035-3708", 
            "country": "United States", 
            "longitude": -87.822663000000006, 
            "state": "IL", 
            "street": "1624 Deerfield Rd", 
            "latitude": 42.176285
          }
        }, 
        {
          "category": "Local business", 
          "name": "Prestige Cleaners", 
          "id": "152037651504781", 
          "category_list": [
            {
              "id": "133148010085253", 
              "name": "Dry Cleaner"
            }
          ], 
          "location": {
            "city": "Overland Park", 
            "zip": "66223-2206", 
            "country": "United States", 
            "longitude": -94.669098000000005, 
            "state": "KS", 
            "street": "14860 Metcalf Ave", 
            "latitude": 38.859248999999998
          }
        }, 
        {
          "category": "Local business", 
          "name": "Prestige Cleaners", 
          "id": "153347714702117", 
          "category_list": [
            {
              "id": "140784189318631", 
              "name": "Sewing & Seamstress"
            }, 
            {
              "id": "133148010085253", 
              "name": "Dry Cleaner"
            }
          ], 
          "location": {
            "city": "Oak Ridge", 
            "zip": "37830-6422", 
            "country": "United States", 
            "longitude": -84.248289, 
            "state": "TN", 
            "street": "1143 Oak Ridge Tpke Ste 101", 
            "latitude": 36.018836
          }
        }, 
        {
          "category": "Local business", 
          "name": "Prestige Cleaners", 
          "id": "154864994552537", 
          "category_list": [
            {
              "id": "133148010085253", 
              "name": "Dry Cleaner"
            }
          ], 
          "location": {
            "city": "Columbus", 
            "zip": "43219-2832", 
            "country": "United States", 
            "longitude": -82.929893000000007, 
            "state": "OH", 
            "street": "2762 E 5th Ave", 
            "latitude": 39.985320999999999
          }
        }, 
        {
          "category": "Local business", 
          "name": "Prestige Cleaners", 
          "id": "155110077857553", 
          "category_list": [
            {
              "id": "133148010085253", 
              "name": "Dry Cleaner"
            }
          ], 
          "location": {
            "city": "Aurora", 
            "zip": "60504-5163", 
            "country": "United States", 
            "longitude": -88.242419999999996, 
            "state": "IL", 
            "street": "3015 E New York St Ste A12", 
            "latitude": 41.759149000000001
          }
        }, 
        {
          "category": "Local business", 
          "name": "Prestige Cleaners", 
          "id": "156416121064226", 
          "category_list": [
            {
              "id": "133148010085253", 
              "name": "Dry Cleaner"
            }
          ], 
          "location": {
            "city": "Harbor City", 
            "zip": "90710-1136", 
            "country": "United States", 
            "longitude": -118.30759999999999, 
            "state": "CA", 
            "street": "1640 Sepulveda Blvd", 
            "latitude": 33.816401999999997
          }
        }, 
        {
          "category": "Local business", 
          "name": "Prestige Cleaners", 
          "id": "157508760956297", 
          "category_list": [
            {
              "id": "133148010085253", 
              "name": "Dry Cleaner"
            }, 
            {
              "id": "140784189318631", 
              "name": "Sewing & Seamstress"
            }, 
            {
              "id": "186564191378474", 
              "name": "Cleaning Service"
            }
          ], 
          "location": {
            "city": "Trexlertown", 
            "zip": "18087-9900", 
            "country": "United States", 
            "longitude": -75.597977, 
            "state": "PA", 
            "street": "7150 Hamilton Blvd", 
            "latitude": 40.548302
          }
        }, 
        {
          "category": "Local business", 
          "name": "Prestige Cleaners", 
          "id": "157523514282473", 
          "category_list": [
            {
              "id": "133148010085253", 
              "name": "Dry Cleaner"
            }
          ], 
          "location": {
            "city": "Houston", 
            "zip": "77044-5099", 
            "country": "United States", 
            "longitude": -95.176338999999999, 
            "state": "TX", 
            "street": "14102 W Lake Houston Pkwy", 
            "latitude": 29.930759999999999
          }
        }, 
        {
          "category": "Local business", 
          "name": "Prestige Cleaners", 
          "id": "158295750869084", 
          "category_list": [
            {
              "id": "133148010085253", 
              "name": "Dry Cleaner"
            }
          ], 
          "location": {
            "city": "West Helena", 
            "zip": "72390-1822", 
            "country": "United States", 
            "longitude": -90.650514999999999, 
            "state": "AR", 
            "street": "707 N Sebastian", 
            "latitude": 34.552492999999998
          }
        }, 
        {
          "category": "Local business", 
          "name": "Prestige Cleaners", 
          "id": "159881284031989", 
          "category_list": [
            {
              "id": "133148010085253", 
              "name": "Dry Cleaner"
            }
          ], 
          "location": {
            "city": "Midvale", 
            "zip": "84047-4498", 
            "country": "United States", 
            "longitude": -111.86588999999999, 
            "state": "UT", 
            "street": "7301 S 900 E Ste 12", 
            "latitude": 40.618639999999999
          }
        }, 
        {
          "category": "Local business", 
          "name": "Prestige Cleaners", 
          "id": "160211377335614", 
          "category_list": [
            {
              "id": "133148010085253", 
              "name": "Dry Cleaner"
            }
          ], 
          "location": {
            "city": "Downers Grove", 
            "zip": "60515-2621", 
            "country": "United States", 
            "longitude": -88.033935, 
            "state": "IL", 
            "street": "2015 Ogden Ave", 
            "latitude": 41.807572999999998
          }
        }, 
        {
          "category": "Local business", 
          "name": "Prestige Cleaners", 
          "id": "160608453960305", 
          "category_list": [
            {
              "id": "133148010085253", 
              "name": "Dry Cleaner"
            }
          ], 
          "location": {
            "city": "Atlanta", 
            "zip": "30328-1422", 
            "country": "United States", 
            "longitude": -84.365560000000002, 
            "state": "GA", 
            "street": "7316 Roswell Rd NE", 
            "latitude": 33.954276999999998
          }
        }, 
        {
          "category": "Local business", 
          "name": "Prestige Cleaners", 
          "id": "161487317208805", 
          "category_list": [
            {
              "id": "133148010085253", 
              "name": "Dry Cleaner"
            }
          ], 
          "location": {
            "city": "Overland Park", 
            "zip": "66224-5909", 
            "country": "United States", 
            "longitude": -94.613219999999998, 
            "state": "KS", 
            "street": "2325 W 143rd St", 
            "latitude": 38.868758999999997
          }
        }, 
        {
          "category": "Local business", 
          "name": "Prestige Cleaners", 
          "id": "162228617139222", 
          "category_list": [
            {
              "id": "133148010085253", 
              "name": "Dry Cleaner"
            }
          ], 
          "location": {
            "city": "Brooklyn", 
            "zip": "11204-1902", 
            "country": "United States", 
            "longitude": -73.985741000000004, 
            "state": "NY", 
            "street": "5722 18th Ave", 
            "latitude": 40.623764000000001
          }
        }, 
        {
          "category": "Local business", 
          "name": "Prestige Cleaners", 
          "id": "163018087056576", 
          "category_list": [
            {
              "id": "133148010085253", 
              "name": "Dry Cleaner"
            }
          ], 
          "location": {
            "city": "Livonia", 
            "zip": "48154-1543", 
            "country": "United States", 
            "longitude": -83.414265999999998, 
            "state": "MI", 
            "street": "37633 5 Mile Rd", 
            "latitude": 42.396186999999998
          }
        }, 
        {
          "category": "Local business", 
          "name": "Prestige Cleaners", 
          "id": "163252660366489", 
          "category_list": [
            {
              "id": "133148010085253", 
              "name": "Dry Cleaner"
            }, 
            {
              "id": "286280034782160", 
              "name": "Laundromat"
            }
          ], 
          "location": {
            "city": "Livonia", 
            "zip": "48152-1026", 
            "country": "United States", 
            "longitude": -83.414266999999995, 
            "state": "MI", 
            "street": "19219 Newburgh Rd", 
            "latitude": 42.426583000000001
          }
        }, 
        {
          "category": "Local business", 
          "name": "Prestige Cleaners", 
          "id": "163314803696666", 
          "category_list": [
            {
              "id": "133148010085253", 
              "name": "Dry Cleaner"
            }
          ], 
          "location": {
            "city": "Overland Park", 
            "zip": "66213-4747", 
            "country": "United States", 
            "longitude": -94.685912999999999, 
            "state": "KS", 
            "street": "8652 W 133rd St", 
            "latitude": 38.887118999999998
          }
        }, 
        {
          "category": "Local business", 
          "name": "Prestige Cleaners", 
          "id": "163714060313802", 
          "category_list": [
            {
              "id": "133148010085253", 
              "name": "Dry Cleaner"
            }
          ], 
          "location": {
            "city": "McMinnville", 
            "zip": "37110-1635", 
            "country": "United States", 
            "longitude": -85.780563999999998, 
            "state": "TN", 
            "street": "1107 Smithville Hwy", 
            "latitude": 35.699325999999999
          }
        }, 
        {
          "category": "Local business", 
          "name": "Prestige Cleaners", 
          "id": "164058963612104", 
          "category_list": [
            {
              "id": "133148010085253", 
              "name": "Dry Cleaner"
            }
          ], 
          "location": {
            "city": "Knoxville", 
            "zip": "37912-3547", 
            "country": "United States", 
            "longitude": -83.973549000000006, 
            "state": "TN", 
            "street": "314 Merchant Dr Ste L", 
            "latitude": 36.008204999999997
          }
        }, 
        {
          "category": "Local business", 
          "name": "Prestige Cleaners", 
          "id": "166069623405376", 
          "category_list": [
            {
              "id": "133148010085253", 
              "name": "Dry Cleaner"
            }
          ], 
          "location": {
            "city": "Los Alamitos", 
            "zip": "90720-2302", 
            "country": "United States", 
            "longitude": -118.071698, 
            "state": "CA", 
            "street": "10774 Los Alamitos Blvd", 
            "latitude": 33.806004000000001
          }
        }, 
        {
          "category": "Local business", 
          "name": "Prestige Cleaners", 
          "id": "167890016556664", 
          "category_list": [
            {
              "id": "133148010085253", 
              "name": "Dry Cleaner"
            }
          ], 
          "location": {
            "city": "Bohemia", 
            "zip": "11716-4605", 
            "country": "United States", 
            "longitude": -73.114446000000001, 
            "state": "NY", 
            "street": "4591 Sunrise Hwy", 
            "latitude": 40.755313000000001
          }
        }, 
        {
          "category": "Local business", 
          "name": "Prestige Cleaners", 
          "id": "168673429810740", 
          "category_list": [
            {
              "id": "133148010085253", 
              "name": "Dry Cleaner"
            }, 
            {
              "id": "286280034782160", 
              "name": "Laundromat"
            }
          ], 
          "location": {
            "city": "Kansas City", 
            "zip": "64114-4510", 
            "country": "United States", 
            "longitude": -94.605495000000005, 
            "state": "MO", 
            "street": "1036 W 103rd St", 
            "latitude": 38.942084999999999
          }
        }, 
        {
          "category": "Local business", 
          "name": "Prestige Cleaners", 
          "id": "169135716433511", 
          "category_list": [
            {
              "id": "133148010085253", 
              "name": "Dry Cleaner"
            }
          ], 
          "location": {
            "city": "Rocky Mount", 
            "zip": "27801-5455", 
            "country": "United States", 
            "longitude": -77.786147999999997, 
            "state": "NC", 
            "street": "620 E Thomas St", 
            "latitude": 35.942081000000002
          }
        }, 
        {
          "category": "Local business", 
          "name": "Prestige Cleaners", 
          "id": "169204699802197", 
          "category_list": [
            {
              "id": "133148010085253", 
              "name": "Dry Cleaner"
            }
          ], 
          "location": {
            "city": "North Bethesda", 
            "zip": "20814", 
            "country": "United States", 
            "longitude": -77.127028999999993, 
            "state": "MD", 
            "street": "10400 Old Georgetown Rd", 
            "latitude": 39.025638999999998
          }
        }, 
        {
          "category": "Local business", 
          "name": "Prestige Cleaners", 
          "id": "169327583077668", 
          "category_list": [
            {
              "id": "133148010085253", 
              "name": "Dry Cleaner"
            }
          ], 
          "location": {
            "city": "Scottsdale", 
            "zip": "85258-3758", 
            "country": "United States", 
            "longitude": -111.90596499999999, 
            "state": "AZ", 
            "street": "7345 N Via Paseo Del Sur Ste 610", 
            "latitude": 33.542900000000003
          }
        }, 
        {
          "category": "Local business", 
          "name": "Prestige Cleaners", 
          "id": "183661065105125", 
          "category_list": [
            {
              "id": "200600219953504", 
              "name": "Shopping & Retail"
            }
          ], 
          "location": {
            "city": "Aliso Viejo", 
            "zip": "", 
            "country": "United States", 
            "longitude": -117.72139485005, 
            "state": "CA", 
            "street": "", 
            "latitude": 33.587697939979002
          }
        }, 
        {
          "category": "Local business", 
          "name": "Prestige Cleaners", 
          "id": "199262493432177", 
          "category_list": [
            {
              "id": "2500", 
              "name": "Local Business"
            }
          ], 
          "location": {
            "city": "Bellingham", 
            "zip": "02019", 
            "country": "United States", 
            "longitude": -71.483844000000005, 
            "state": "WA", 
            "street": "829 S Main Street ", 
            "latitude": 42.053995999999998
          }
        }, 
        {
          "category": "Local business", 
          "name": "Prestige Cleaners", 
          "id": "217330734964115", 
          "category_list": [
            {
              "id": "133148010085253", 
              "name": "Dry Cleaner"
            }
          ], 
          "location": {
            "city": "Old Jefferson", 
            "zip": "70817", 
            "country": "United States", 
            "longitude": -91.003479999999996, 
            "state": "LA", 
            "street": "16970 Jefferson Hwy Ste F", 
            "latitude": 30.362085
          }
        }, 
        {
          "category": "Local business", 
          "name": "Prestige Cleaners Inc", 
          "id": "164040543615236", 
          "category_list": [
            {
              "id": "133148010085253", 
              "name": "Dry Cleaner"
            }
          ], 
          "location": {
            "city": "Scottsdale", 
            "zip": "85260-1910", 
            "country": "United States", 
            "longitude": -111.891262, 
            "state": "AZ", 
            "street": "15480 N Pima Rd", 
            "latitude": 33.625765999999999
          }
        }, 
        {
          "category": "Local business", 
          "name": "Prestige Cleaners Inc", 
          "id": "100893099992087", 
          "category_list": [
            {
              "id": "133148010085253", 
              "name": "Dry Cleaner"
            }
          ], 
          "location": {
            "city": "Rapid City", 
            "zip": "57702", 
            "country": "United States", 
            "longitude": -103.25784299999999, 
            "state": "SD", 
            "street": "2315 Jackson Blvd", 
            "latitude": 44.071280999999999
          }
        }, 
        {
          "category": "Local business", 
          "name": "Prestige Cleaners & Tailors", 
          "id": "126048697450289", 
          "category_list": [
            {
              "id": "133148010085253", 
              "name": "Dry Cleaner"
            }
          ], 
          "location": {
            "city": "Stamford", 
            "zip": "06907-2104", 
            "country": "United States", 
            "longitude": -73.518494000000004, 
            "state": "CT", 
            "street": "1008 Hope St", 
            "latitude": 41.093440999999999
          }
        }, 
        {
          "category": "Local business", 
          "name": "Prestige Cleaners Inc", 
          "id": "147488758628585", 
          "category_list": [
            {
              "id": "133148010085253", 
              "name": "Dry Cleaner"
            }
          ], 
          "location": {
            "city": "Tallahassee", 
            "zip": "32309-2642", 
            "country": "United States", 
            "longitude": -84.224373, 
            "state": "FL", 
            "street": "3620 Shamrock St W", 
            "latitude": 30.514620000000001
          }
        }, 
        {
          "category": "Local business", 
          "name": "Prestige Cleaners & Tailors II", 
          "id": "151331648243177", 
          "category_list": [
            {
              "id": "133148010085253", 
              "name": "Dry Cleaner"
            }
          ], 
          "location": {
            "city": "Glen Rock", 
            "zip": "07452", 
            "country": "United States", 
            "longitude": -74.145658999999995, 
            "state": "NJ", 
            "street": "943 Lincoln Ave", 
            "latitude": 40.950825999999999
          }
        }, 
        {
          "category": "Local business", 
          "name": "Prestige Cleaners & Alterations", 
          "id": "162452767113366", 
          "category_list": [
            {
              "id": "133148010085253", 
              "name": "Dry Cleaner"
            }
          ], 
          "location": {
            "city": "Chicago", 
            "zip": "60620-5760", 
            "country": "United States", 
            "longitude": -87.674743000000007, 
            "state": "IL", 
            "street": "2049 W 79th St", 
            "latitude": 41.750064999999999
          }
        }, 
        {
          "category": "Shopping/retail", 
          "name": "Prestige Dry Cleaners", 
          "id": "308549779280939", 
          "category_list": [
            {
              "id": "133148010085253", 
              "name": "Dry Cleaner"
            }
          ], 
          "location": {
            "city": "Frodsham", 
            "zip": "cheshire", 
            "country": "United Kingdom", 
            "longitude": -2.72421574583, 
            "state": "", 
            "street": "25a Church Street", 
            "latitude": 53.294686198599997
          }
        }, 
        {
          "category": "Local business", 
          "name": "Prestige", 
          "id": "158430100844813", 
          "category_list": [
            {
              "id": "133148010085253", 
              "name": "Dry Cleaner"
            }
          ], 
          "location": {
            "city": "North Kingstown", 
            "zip": "02852-3809", 
            "country": "United States", 
            "longitude": -71.464212000000003, 
            "state": "RI", 
            "street": "11 Gray Dr", 
            "latitude": 41.586899000000003
          }
        }, 
        {
          "category": "Local business", 
          "name": "Prestige", 
          "id": "161998507152792", 
          "category_list": [
            {
              "id": "133148010085253", 
              "name": "Dry Cleaner"
            }
          ], 
          "location": {
            "city": "Atlanta", 
            "zip": "30306-2106", 
            "country": "United States", 
            "longitude": -84.338453999999999, 
            "state": "GA", 
            "street": "1708 Briarcliff Rd NE", 
            "latitude": 33.803745999999997
          }
        }, 
        {
          "category": "Local business", 
          "name": "A & A Prestige Cleaners", 
          "id": "165825523442892", 
          "category_list": [
            {
              "id": "133148010085253", 
              "name": "Dry Cleaner"
            }
          ], 
          "location": {
            "city": "Redding", 
            "zip": "96002-0738", 
            "country": "United States", 
            "longitude": -122.35354599999999, 
            "state": "CA", 
            "street": "2170 Churn Creek Rd", 
            "latitude": 40.576557000000001
          }
        }, 
        {
          "category": "Business services", 
          "name": "The prestige Cleaners.net", 
          "id": "105767369583646", 
          "category_list": [
            {
              "id": "187133811318958", 
              "name": "Business Services"
            }
          ], 
          "location": {
            "city": "Clifton", 
            "zip": "07011", 
            "country": "United States", 
            "longitude": -74.138735999999994, 
            "state": "NJ", 
            "street": "1115 main ave", 
            "latitude": 40.874186000000002
          }
        }, 
        {
          "category": "Local business", 
          "name": "Howard's Prestige Cleaners", 
          "id": "134502789933716", 
          "category_list": [
            {
              "id": "133148010085253", 
              "name": "Dry Cleaner"
            }, 
            {
              "id": "186564191378474", 
              "name": "Cleaning Service"
            }
          ], 
          "location": {
            "city": "Olympia", 
            "zip": "98501-1430", 
            "country": "United States", 
            "longitude": -122.89418000000001, 
            "state": "WA", 
            "street": "606 Union Ave SE", 
            "latitude": 47.039669000000004
          }
        }, 
        {
          "category": "Local business", 
          "name": "The Prestige Cleaners", 
          "id": "168211699858626", 
          "category_list": [
            {
              "id": "133148010085253", 
              "name": "Dry Cleaner"
            }
          ], 
          "location": {
            "city": "Pembroke Pines", 
            "zip": "33024-4650", 
            "country": "United States", 
            "longitude": -80.266441999999998, 
            "state": "FL", 
            "street": "9075 Taft St", 
            "latitude": 26.023292999999999
          }
        }, 
        {
          "category": "Local business", 
          "name": "Prestige Laundromat", 
          "id": "150232558348162", 
          "category_list": [
            {
              "id": "133148010085253", 
              "name": "Dry Cleaner"
            }
          ], 
          "location": {
            "city": "Bronx", 
            "zip": "10469", 
            "country": "United States", 
            "longitude": -73.854789511947999, 
            "state": "NY", 
            "street": "", 
            "latitude": 40.872122404743003
          }
        }, 
        {
          "category": "Local business", 
          "name": "Prestige Dry Cleaners", 
          "id": "111273672285553", 
          "category_list": [
            {
              "id": "133148010085253", 
              "name": "Dry Cleaner"
            }, 
            {
              "id": "176831012360626", 
              "name": "Professional Services"
            }
          ], 
          "location": {
            "city": "Phillipsburg", 
            "zip": "08865", 
            "country": "United States", 
            "longitude": -75.154577524999993, 
            "state": "NJ", 
            "street": "", 
            "latitude": 40.700675429999997
          }
        }, 
        {
          "category": "Local business", 
          "name": "Prestige Dry Cleaners", 
          "id": "112837722127927", 
          "category_list": [
            {
              "id": "133148010085253", 
              "name": "Dry Cleaner"
            }
          ], 
          "location": {
            "city": "San Diego", 
            "zip": "", 
            "country": "United States", 
            "longitude": -117.18294355800001, 
            "state": "CA", 
            "street": "", 
            "latitude": 32.766541323399998
          }
        }, 
        {
          "category": "Local business", 
          "name": "Prestige Dry Cleaners", 
          "id": "149081641801211", 
          "category_list": [
            {
              "id": "133148010085253", 
              "name": "Dry Cleaner"
            }
          ], 
          "location": {
            "city": "Greensboro", 
            "zip": "27406-6529", 
            "country": "United States", 
            "longitude": -79.805813000000001, 
            "state": "NC", 
            "street": "3204 Randleman Rd", 
            "latitude": 36.007218999999999
          }
        }, 
        {
          "category": "Local business", 
          "name": "Prestige Dry Cleaners", 
          "id": "155341151171598", 
          "category_list": [
            {
              "id": "133148010085253", 
              "name": "Dry Cleaner"
            }
          ], 
          "location": {
            "city": "Crown Point", 
            "zip": "46307-7615", 
            "country": "United States", 
            "longitude": -87.238829999999993, 
            "state": "IN", 
            "street": "10759 Randolph St", 
            "latitude": 41.421484
          }
        }, 
        {
          "category": "Local business", 
          "name": "Prestige Dry Cleaners", 
          "id": "164913380209239", 
          "category_list": [
            {
              "id": "133148010085253", 
              "name": "Dry Cleaner"
            }
          ], 
          "location": {
            "city": "Orleans", 
            "zip": "", 
            "country": "United States", 
            "longitude": -69.982471000000004, 
            "state": "MA", 
            "street": "", 
            "latitude": 41.799038000000003
          }
        }, 
        {
          "category": "Local business", 
          "name": "Prestige Care Cleaners", 
          "id": "148004368577180", 
          "category_list": [
            {
              "id": "133148010085253", 
              "name": "Dry Cleaner"
            }
          ], 
          "location": {
            "city": "Alpharetta", 
            "zip": "30022-1660", 
            "country": "United States", 
            "longitude": -84.278487999999996, 
            "state": "GA", 
            "street": "2850 Holcomb Bridge Rd", 
            "latitude": 33.991177
          }
        }, 
        {
          "category": "Automotive", 
          "name": "Prestige car cleaners", 
          "id": "504249626313250", 
          "category_list": [
            {
              "id": "162295707155272", 
              "name": "Car Wash & Detailing"
            }
          ], 
          "location": {
            "city": "Sheffield", 
            "zip": "s95eu", 
            "country": "United Kingdom", 
            "longitude": -1.4666999999999999, 
            "state": "", 
            "street": "calvert road", 
            "latitude": 53.383299999999998
          }
        }, 
        {
          "category": "Local business", 
          "name": "Prestige Custom Cleaners", 
          "id": "162048270486557", 
          "category_list": [
            {
              "id": "133148010085253", 
              "name": "Dry Cleaner"
            }
          ], 
          "location": {
            "city": "Cresskill", 
            "zip": "07626-2011", 
            "country": "United States", 
            "longitude": -73.963515999999998, 
            "state": "NJ", 
            "street": "20 Madison Ave", 
            "latitude": 40.941597000000002
          }
        }, 
        {
          "category": "Professional services", 
          "name": "Lavanderia Prestige", 
          "id": "639806866076811", 
          "category_list": [
            {
              "id": "133148010085253", 
              "name": "Dry Cleaner"
            }
          ], 
          "location": {
            "city": "Lissone", 
            "zip": "20035", 
            "country": "Italy", 
            "longitude": 9.2417103496084003, 
            "state": "", 
            "street": "Via Tiziano Vecellio N.23", 
            "latitude": 45.619308174943001
          }
        }, 
        {
          "category": "Professional services", 
          "name": "Prestige Window Cleaners", 
          "id": "243666718993827", 
          "category_list": [
            {
              "id": "176831012360626", 
              "name": "Professional Services"
            }
          ], 
          "location": {
            "city": "Totton", 
            "zip": "so19 7lr", 
            "country": "United Kingdom", 
            "longitude": -1.36538, 
            "state": "", 
            "street": "88 Blackthorn Road", 
            "latitude": 50.908410000000003
          }
        }, 
        {
          "category": "Local business", 
          "name": "Han Prestige Dry Cleaners", 
          "id": "159841044046409", 
          "category_list": [
            {
              "id": "140784189318631", 
              "name": "Sewing & Seamstress"
            }, 
            {
              "id": "133148010085253", 
              "name": "Dry Cleaner"
            }
          ], 
          "location": {
            "city": "Bethlehem", 
            "zip": "18017-4282", 
            "country": "United States", 
            "longitude": -75.340601000000007, 
            "state": "PA", 
            "street": "2910 Easton Ave", 
            "latitude": 40.648063
          }
        }, 
        {
          "category": "Local business", 
          "name": "Prestige Specialty Cleaners", 
          "id": "168137286533339", 
          "category_list": [
            {
              "id": "140784189318631", 
              "name": "Sewing & Seamstress"
            }, 
            {
              "id": "186564191378474", 
              "name": "Cleaning Service"
            }, 
            {
              "id": "133148010085253", 
              "name": "Dry Cleaner"
            }
          ], 
          "location": {
            "city": "Seattle", 
            "zip": "98119-3607", 
            "country": "United States", 
            "longitude": -122.36908, 
            "state": "WA", 
            "street": "901 Elliott Ave W", 
            "latitude": 47.626598000000001
          }
        }, 
        {
          "category": "Local business", 
          "name": "Prestige Laundry", 
          "id": "151887691551843", 
          "category_list": [
            {
              "id": "133148010085253", 
              "name": "Dry Cleaner"
            }
          ], 
          "location": {
            "city": "Bay Shore", 
            "zip": "11706", 
            "country": "United States", 
            "longitude": -73.228950999999995, 
            "state": "NY", 
            "street": "81 Saxon Ave", 
            "latitude": 40.734219000000003
          }
        }, 
        {
          "category": "Local business", 
          "name": "Prestige Fabricare", 
          "id": "137911576256007", 
          "category_list": [
            {
              "id": "133148010085253", 
              "name": "Dry Cleaner"
            }
          ], 
          "location": {
            "city": "Lubbock", 
            "zip": "79407-3710", 
            "country": "United States", 
            "longitude": -101.940155, 
            "state": "TX", 
            "street": "3410 Frankford Ave", 
            "latitude": 33.562618000000001
          }
        }, 
        {
          "category": "Local business", 
          "name": "Prestige Laundry", 
          "id": "139233906124612", 
          "category_list": [
            {
              "id": "133148010085253", 
              "name": "Dry Cleaner"
            }
          ], 
          "location": {
            "city": "Garden City", 
            "zip": "67846-5257", 
            "country": "United States", 
            "longitude": -100.87984, 
            "state": "KS", 
            "street": "507 W Kansas Ave", 
            "latitude": 37.975245999999999
          }
        }, 
        {
          "category": "Local business", 
          "name": "Prestige Laundry", 
          "id": "165752016784509", 
          "category_list": [
            {
              "id": "133148010085253", 
              "name": "Dry Cleaner"
            }
          ], 
          "location": {
            "city": "New York", 
            "zip": "10024-6280", 
            "country": "United States", 
            "longitude": -73.977755000000002, 
            "state": "NY", 
            "street": "409 Amsterdam Ave", 
            "latitude": 40.783603999999997
          }
        }, 
        {
          "category": "Local business", 
          "name": "Prestige Laundry", 
          "id": "138997106148696", 
          "category_list": [
            {
              "id": "133148010085253", 
              "name": "Dry Cleaner"
            }
          ], 
          "location": {
            "city": "New York", 
            "zip": "10016-3234", 
            "country": "United States", 
            "longitude": -73.973877999999999, 
            "state": "NY", 
            "street": "311 E 37th St", 
            "latitude": 40.746578
          }
        }, 
        {
          "category": "Local business", 
          "name": "Prestige Laundry", 
          "id": "167216566623946", 
          "category_list": [
            {
              "id": "133148010085253", 
              "name": "Dry Cleaner"
            }, 
            {
              "id": "286280034782160", 
              "name": "Laundromat"
            }
          ], 
          "location": {
            "city": "Liberal", 
            "zip": "67901-4032", 
            "country": "United States", 
            "longitude": -100.92730899999999, 
            "state": "KS", 
            "street": "249 W Pancake Blvd", 
            "latitude": 37.032508999999997
          }
        }, 
        {
          "category": "Spas/beauty/personal care", 
          "name": "Prestige Cleaning Center", 
          "id": "156376051089798", 
          "category_list": [
            {
              "id": "133148010085253", 
              "name": "Dry Cleaner"
            }
          ], 
          "location": {
            "city": "Minneapolis", 
            "zip": "55410", 
            "country": "United States", 
            "longitude": -93.326824000000002, 
            "state": "MN", 
            "street": "3711 West 44th Street", 
            "latitude": 44.922604999999997
          }
        }, 
        {
          "category": "Local business", 
          "name": "Prestige Dry Clean", 
          "id": "141530415892636", 
          "category_list": [
            {
              "id": "133148010085253", 
              "name": "Dry Cleaner"
            }
          ], 
          "location": {
            "city": "Huntington Station", 
            "zip": "11746-7516", 
            "country": "United States", 
            "longitude": -73.381657000000004, 
            "state": "NY", 
            "street": "799 E Jericho Tpke", 
            "latitude": 40.834699000000001
          }
        }, 
        {
          "category": "Local business", 
          "name": "Prestige Laundromat", 
          "id": "101150969953100", 
          "category_list": [
            {
              "id": "133148010085253", 
              "name": "Dry Cleaner"
            }, 
            {
              "id": "286280034782160", 
              "name": "Laundromat"
            }
          ], 
          "location": {
            "city": "Yonkers", 
            "zip": "10703-2711", 
            "country": "United States", 
            "longitude": -73.885750000000002, 
            "state": "NY", 
            "street": "151 Lake Ave", 
            "latitude": 40.946917999999997
          }
        }, 
        {
          "category": "Local business", 
          "name": "Prestige Fabricare", 
          "id": "109625182433973", 
          "category_list": [
            {
              "id": "133148010085253", 
              "name": "Dry Cleaner"
            }
          ], 
          "location": {
            "city": "Brownfield", 
            "zip": "79316-4324", 
            "country": "United States", 
            "longitude": -102.277749, 
            "state": "TX", 
            "street": "314 W Main St", 
            "latitude": 33.179082000000001
          }
        }, 
        {
          "category": "Local business", 
          "name": "Prestige Fabricare", 
          "id": "129857730426770", 
          "category_list": [
            {
              "id": "133148010085253", 
              "name": "Dry Cleaner"
            }
          ], 
          "location": {
            "city": "Lubbock", 
            "zip": "79423", 
            "country": "United States", 
            "longitude": -101.88911400000001, 
            "state": "TX", 
            "street": "8004 Indiana", 
            "latitude": 33.520988000000003
          }
        }, 
        {
          "category": "Local business", 
          "name": "Prestige Fabricare", 
          "id": "167043209973530", 
          "category_list": [
            {
              "id": "133148010085253", 
              "name": "Dry Cleaner"
            }
          ], 
          "location": {
            "city": "Lubbock", 
            "zip": "79416-4188", 
            "country": "United States", 
            "longitude": -101.93926999999999, 
            "state": "TX", 
            "street": "429 Frankford Ave", 
            "latitude": 33.590770999999997
          }
        }, 
        {
          "category": "Local business", 
          "name": "Prestige Dry Cleaner", 
          "id": "162281303800793", 
          "category_list": [
            {
              "id": "133148010085253", 
              "name": "Dry Cleaner"
            }
          ], 
          "location": {
            "city": "Provincetown", 
            "zip": "02657-1318", 
            "country": "United States", 
            "longitude": -70.192848999999995, 
            "state": "MA", 
            "street": "15 Shank Painter Rd", 
            "latitude": 42.048824000000003
          }
        }, 
        {
          "category": "Local business", 
          "name": "Prestige Maintenance", 
          "id": "121248524598025", 
          "category_list": [
            {
              "id": "133148010085253", 
              "name": "Dry Cleaner"
            }
          ], 
          "location": {
            "city": "Bridgeview", 
            "zip": "60455-2407", 
            "country": "United States", 
            "longitude": -87.807918999999998, 
            "state": "IL", 
            "street": "7560 W 100th Pl", 
            "latitude": 41.709505999999998
          }
        }, 
        {
          "category": "Local business", 
          "name": "Prestige Linen Service", 
          "id": "169113746437940", 
          "category_list": [
            {
              "id": "133148010085253", 
              "name": "Dry Cleaner"
            }
          ], 
          "location": {
            "city": "Sterling", 
            "zip": "20166-9436", 
            "country": "United States", 
            "longitude": -77.425583000000003, 
            "state": "VA", 
            "street": "504 Shaw Rd", 
            "latitude": 38.989021000000001
          }
        }, 
        {
          "category": "Local business", 
          "name": "Prestige Cleaning Center", 
          "id": "103357836397985", 
          "category_list": [
            {
              "id": "133148010085253", 
              "name": "Dry Cleaner"
            }
          ], 
          "location": {
            "city": "Minneapolis", 
            "zip": "55408-2549", 
            "country": "United States", 
            "longitude": -93.302419, 
            "state": "MN", 
            "street": "1614 W Lake St", 
            "latitude": 44.948509999999999
          }
        }, 
        {
          "category": "Local business", 
          "name": "Prestige Maintenance USA", 
          "id": "135391536513772", 
          "category_list": [
            {
              "id": "133148010085253", 
              "name": "Dry Cleaner"
            }
          ], 
          "location": {
            "city": "Milwaukee", 
            "zip": "53219-1582", 
            "country": "United States", 
            "longitude": -87.981702999999996, 
            "state": "WI", 
            "street": "2081 S 55th St", 
            "latitude": 43.007072000000001
          }
        }, 
        {
          "category": "Business services", 
          "name": "Prestige Drycleaning Services", 
          "id": "124889904348191", 
          "category_list": [
            {
              "id": "133148010085253", 
              "name": "Dry Cleaner"
            }
          ], 
          "location": {
            "city": "Lagos", 
            "zip": "23401", 
            "country": "Nigeria", 
            "longitude": 3.3958300000000001, 
            "state": "", 
            "street": "13, Oyenekan street, off aborishade road, Lawanson", 
            "latitude": 6.4530599999999998
          }
        }, 
        {
          "category": "Local business", 
          "name": "Prestige-An Exceptional Cleaner", 
          "id": "134006729983850", 
          "category_list": [
            {
              "id": "133148010085253", 
              "name": "Dry Cleaner"
            }, 
            {
              "id": "140784189318631", 
              "name": "Sewing & Seamstress"
            }
          ], 
          "location": {
            "city": "Silver Spring", 
            "zip": "20910-1434", 
            "country": "United States", 
            "longitude": -77.041045999999994, 
            "state": "MD", 
            "street": "9420 Georgia Ave", 
            "latitude": 39.009360999999998
          }
        }, 
        {
          "category": "Local business", 
          "name": "Prestige Dry Cleaning Centers Ozark", 
          "id": "143688132343405", 
          "category_list": [
            {
              "id": "133148010085253", 
              "name": "Dry Cleaner"
            }
          ], 
          "location": {
            "city": "Ozark", 
            "zip": "65721-9030", 
            "country": "United States", 
            "longitude": -93.219790000000003, 
            "state": "MO", 
            "street": "1729 S 15th St", 
            "latitude": 37.003970000000002
          }
        }, 
        {
          "category": "Local business", 
          "name": "Prestige Inc.", 
          "id": "318052871617911", 
          "category_list": [
            {
              "id": "2500", 
              "name": "Local Business"
            }
          ], 
          "location": {
            "city": "Madison", 
            "zip": "35758", 
            "country": "United States", 
            "longitude": -86.713973999999993, 
            "state": "AL", 
            "street": "1871 Slaughter Rd. Suite T", 
            "latitude": 34.752457
          }
        }, 
        {
          "category": "Professional services", 
          "name": "Prestige Carpet Clean", 
          "id": "649377841741733", 
          "category_list": [
            {
              "id": "210709755608101", 
              "name": "Carpet Cleaner"
            }
          ], 
          "location": {
            "city": "Bison", 
            "zip": "73720", 
            "country": "United States", 
            "longitude": -97.889700000000005, 
            "state": "OK", 
            "street": "1128 E Lucien", 
            "latitude": 36.196399999999997
          }
        }, 
        {
          "category": "Professional services", 
          "name": "Prestige Services LLC", 
          "id": "113219638840804", 
          "category_list": [
            {
              "id": "210709755608101", 
              "name": "Carpet Cleaner"
            }, 
            {
              "id": "199442556739626", 
              "name": "Upholstery Service"
            }
          ], 
          "location": {
            "city": "Douglasville", 
            "zip": "30134", 
            "country": "United States", 
            "longitude": -84.723100000000002, 
            "state": "GA", 
            "street": "", 
            "latitude": 33.749699999999997
          }
        }, 
        {
          "category": "Local business", 
          "name": "Prestige Chem-Dry", 
          "id": "157866297579364", 
          "category_list": [
            {
              "id": "210709755608101", 
              "name": "Carpet Cleaner"
            }
          ], 
          "location": {
            "city": "Charlotte", 
            "zip": "28269-0300", 
            "country": "United States", 
            "longitude": -80.810096999999999, 
            "state": "NC", 
            "street": "9237 Heritage Woods Pl", 
            "latitude": 35.344372
          }
        }, 
        {
          "category": "Local business", 
          "name": "Prestige Carpet", 
          "id": "126160394104664", 
          "category_list": [
            {
              "id": "210709755608101", 
              "name": "Carpet Cleaner"
            }
          ], 
          "location": {
            "city": "San Diego", 
            "zip": "92116-3245", 
            "country": "United States", 
            "longitude": -117.129852, 
            "state": "CA", 
            "street": "4625 30th St", 
            "latitude": 32.761538999999999
          }
        }, 
        {
          "category": "Local business", 
          "name": "Prestige Fabric Care", 
          "id": "391434354250877", 
          "category_list": [
            {
              "id": "210709755608101", 
              "name": "Carpet Cleaner"
            }
          ], 
          "location": {
            "city": "Fresno", 
            "zip": "93722", 
            "country": "United States", 
            "longitude": -119.846485, 
            "state": "CA", 
            "street": "3021 W. Dakota Ave. Suite 101", 
            "latitude": 36.785935000000002
          }
        }, 
        {
          "category": "Local business", 
          "name": "Prestige Services", 
          "id": "105107912890136", 
          "category_list": [
            {
              "id": "210709755608101", 
              "name": "Carpet Cleaner"
            }
          ], 
          "location": {
            "city": "Summerville", 
            "zip": "29483", 
            "country": "United States", 
            "longitude": -80.164630000000002, 
            "state": "SC", 
            "street": "907 Miles Jamison Rd", 
            "latitude": 32.99259
          }
        }, 
        {
          "category": "Local business", 
          "name": "Prestige Catering", 
          "id": "146967745347586", 
          "category_list": [
            {
              "id": "210709755608101", 
              "name": "Carpet Cleaner"
            }, 
            {
              "id": "139433292785470", 
              "name": "Caterer"
            }
          ], 
          "location": {
            "city": "Lakeland", 
            "zip": "33812-4321", 
            "country": "United States", 
            "longitude": -81.877701000000002, 
            "state": "FL", 
            "street": "5503 Us Highway 98 S", 
            "latitude": 27.964165000000001
          }
        }, 
        {
          "category": "Local business", 
          "name": "Prestige Multi Clean", 
          "id": "138794489501004", 
          "category_list": [
            {
              "id": "210709755608101", 
              "name": "Carpet Cleaner"
            }
          ], 
          "location": {
            "city": "Buffalo", 
            "zip": "14224-2606", 
            "country": "United States", 
            "longitude": -78.796477999999993, 
            "state": "NY", 
            "street": "14 Wichita Rd", 
            "latitude": 42.844715000000001
          }
        }, 
        {
          "category": "Home improvement", 
          "name": "Prestige Carpet Care", 
          "id": "222997031210417", 
          "category_list": [
            {
              "id": "210709755608101", 
              "name": "Carpet Cleaner"
            }
          ], 
          "location": {
            "city": "Rotorua", 
            "zip": "3010", 
            "country": "New Zealand", 
            "longitude": 176.23342, 
            "state": "", 
            "street": "Riverholm Drive", 
            "latitude": -38.135649999999998
          }
        }, 
        {
          "category": "Professional services", 
          "name": "Prestige Systems Carpet & Furniture Cleaning", 
          "id": "58005983622", 
          "category_list": [
            {
              "id": "210709755608101", 
              "name": "Carpet Cleaner"
            }
          ], 
          "location": {
            "city": "Lexington", 
            "zip": "29073", 
            "country": "United States", 
            "longitude": -81.179496999999998, 
            "state": "SC", 
            "street": "348 two notch rd.", 
            "latitude": 33.969864000000001
          }
        }, 
        {
          "category": "Local business", 
          "name": "Prestige Dry Cleaning", 
          "id": "162925610399326", 
          "category_list": [
            {
              "id": "210709755608101", 
              "name": "Carpet Cleaner"
            }, 
            {
              "id": "133148010085253", 
              "name": "Dry Cleaner"
            }
          ], 
          "location": {
            "city": "South Dennis", 
            "zip": "02660-2577", 
            "country": "United States", 
            "longitude": -70.153510999999995, 
            "state": "MA", 
            "street": "860 Route 134", 
            "latitude": 41.714118999999997
          }
        }, 
        {
          "category": "Local business", 
          "name": "Prestige Carpet Cleaning / Prestige Duct Cleaning", 
          "id": "281144965328498", 
          "category_list": [
            {
              "id": "210709755608101", 
              "name": "Carpet Cleaner"
            }
          ], 
          "location": {
            "city": "Whitby", 
            "zip": "L1N 2C4", 
            "country": "Canada", 
            "longitude": -78.919605258855995, 
            "state": "ON", 
            "street": "107 Warren Rd.", 
            "latitude": 43.877954427890003
          }
        }, 
        {
          "category": "Local business", 
          "name": "Prestige Service & Supply", 
          "id": "105323482867446", 
          "category_list": [
            {
              "id": "210709755608101", 
              "name": "Carpet Cleaner"
            }
          ], 
          "location": {
            "city": "Utica", 
            "zip": "48315-3233", 
            "country": "United States", 
            "longitude": -82.987967999999995, 
            "state": "MI", 
            "street": "14120 Simone Dr", 
            "latitude": 42.666767
          }
        }, 
        {
          "category": "Local business", 
          "name": "Pfaehler's Prestige Clng", 
          "id": "162480820442346", 
          "category_list": [
            {
              "id": "210709755608101", 
              "name": "Carpet Cleaner"
            }
          ], 
          "location": {
            "city": "Florence", 
            "zip": "41042-2025", 
            "country": "United States", 
            "longitude": -84.622589000000005, 
            "state": "IN", 
            "street": "17 Dortha Ave", 
            "latitude": 39.001350000000002
          }
        }, 
        {
          "category": "Local business", 
          "name": "Prestige Carpet Cleaning", 
          "id": "165510403475907", 
          "category_list": [
            {
              "id": "210709755608101", 
              "name": "Carpet Cleaner"
            }
          ], 
          "location": {
            "city": "Flower Mound", 
            "zip": "75028-3854", 
            "country": "United States", 
            "longitude": -97.050139999999999, 
            "state": "TX", 
            "street": "1504 Old Oak Trl", 
            "latitude": 33.066853000000002
          }
        }, 
        {
          "category": "Local business", 
          "name": "Prestige Carpet Cleaning", 
          "id": "103075926424475", 
          "category_list": [
            {
              "id": "210709755608101", 
              "name": "Carpet Cleaner"
            }, 
            {
              "id": "186564191378474", 
              "name": "Cleaning Service"
            }
          ], 
          "location": {
            "city": "Phoenix", 
            "zip": "85008-1627", 
            "country": "United States", 
            "longitude": -111.972221, 
            "state": "AZ", 
            "street": "5030 E Virginia Ave", 
            "latitude": 33.476654000000003
          }
        }, 
        {
          "category": "Local business", 
          "name": "Prestige Carpet Cleaning", 
          "id": "117278585000431", 
          "category_list": [
            {
              "id": "210709755608101", 
              "name": "Carpet Cleaner"
            }
          ], 
          "location": {
            "city": "Schenectady", 
            "zip": "12305-2004", 
            "country": "United States", 
            "longitude": -73.939712999999998, 
            "state": "NY", 
            "street": "156 Barrett St", 
            "latitude": 42.812320999999997
          }
        }, 
        {
          "category": "Local business", 
          "name": "Prestige Carpet Cleaning", 
          "id": "135007739882339", 
          "category_list": [
            {
              "id": "210709755608101", 
              "name": "Carpet Cleaner"
            }
          ], 
          "location": {
            "city": "Manteca", 
            "zip": "95336-3752", 
            "country": "United States", 
            "longitude": -121.20972399999999, 
            "state": "CA", 
            "street": "627 Hawes St", 
            "latitude": 37.808151000000002
          }
        }, 
        {
          "category": "Local business", 
          "name": "Prestige Carpet Cleaning", 
          "id": "168675986476534", 
          "category_list": [
            {
              "id": "210709755608101", 
              "name": "Carpet Cleaner"
            }
          ], 
          "location": {
            "city": "Bethalto", 
            "zip": "62010-1181", 
            "country": "United States", 
            "longitude": -90.052620000000005, 
            "state": "IL", 
            "street": "124 Valleywood Ct", 
            "latitude": 38.919231000000003
          }
        }, 
        {
          "category": "Local business", 
          "name": "Prestige Cleaning Services", 
          "id": "125944960792220", 
          "category_list": [
            {
              "id": "210709755608101", 
              "name": "Carpet Cleaner"
            }, 
            {
              "id": "186564191378474", 
              "name": "Cleaning Service"
            }
          ], 
          "location": {
            "city": "Englewood", 
            "zip": "34224-7759", 
            "country": "United States", 
            "longitude": -82.299507000000006, 
            "state": "FL", 
            "street": "9176 Spring Valley Rd", 
            "latitude": 26.885674999999999
          }
        }, 
        {
          "category": "Local business", 
          "name": "Prestige Carpet & Upholstery C", 
          "id": "145651305479794", 
          "category_list": [
            {
              "id": "210709755608101", 
              "name": "Carpet Cleaner"
            }
          ], 
          "location": {
            "city": "Mesa", 
            "zip": "85212-1992", 
            "country": "United States", 
            "longitude": -111.591553, 
            "state": "AZ", 
            "street": "11230 E Pratt Ave", 
            "latitude": 33.354958000000003
          }
        }, 
        {
          "category": "Local business", 
          "name": "Prestige Unlimited Services", 
          "id": "150838944957710", 
          "category_list": [
            {
              "id": "210709755608101", 
              "name": "Carpet Cleaner"
            }, 
            {
              "id": "124555004283973", 
              "name": "Masonry"
            }, 
            {
              "id": "196285793716152", 
              "name": "Damage Restoration Service"
            }
          ], 
          "location": {
            "city": "Covington", 
            "zip": "41011-2041", 
            "country": "United States", 
            "longitude": -84.521124, 
            "state": "KY", 
            "street": "615 W 9th St", 
            "latitude": 39.079096999999997
          }
        }, 
        {
          "category": "Local business", 
          "name": "Prestige Carpet and Floor Care", 
          "id": "145466848832130", 
          "category_list": [
            {
              "id": "210709755608101", 
              "name": "Carpet Cleaner"
            }
          ], 
          "location": {
            "city": "Boerne", 
            "zip": "78006-2950", 
            "country": "United States", 
            "longitude": -98.716903000000002, 
            "state": "TX", 
            "street": "110 Hughs St", 
            "latitude": 29.78098
          }
        }, 
        {
          "category": "Local business", 
          "name": "Prestige Carpet & Upholstery Cleaning", 
          "id": "104988486233164", 
          "category_list": [
            {
              "id": "210709755608101", 
              "name": "Carpet Cleaner"
            }
          ], 
          "location": {
            "city": "Rochester", 
            "zip": "14617-4648", 
            "country": "United States", 
            "longitude": -77.610512, 
            "state": "NY", 
            "street": "270 Simpson Rd", 
            "latitude": 43.200367
          }
        }, 
        {
          "category": "Local business", 
          "name": "Prestige Carpet & Upholstery Cleaning", 
          "id": "121923241199736", 
          "category_list": [
            {
              "id": "210709755608101", 
              "name": "Carpet Cleaner"
            }
          ], 
          "location": {
            "city": "Mesa", 
            "zip": "85208-7336", 
            "country": "United States", 
            "longitude": -111.60935000000001, 
            "state": "AZ", 
            "street": "862 S Chatsworth Cir", 
            "latitude": 33.399365000000003
          }
        }, 
        {
          "category": "Local business", 
          "name": "Prestige Steamethod Carpet Cleaning", 
          "id": "158500200850096", 
          "category_list": [
            {
              "id": "210709755608101", 
              "name": "Carpet Cleaner"
            }
          ], 
          "location": {
            "city": "Lansing", 
            "zip": "60438-2912", 
            "country": "United States", 
            "longitude": -87.549276000000006, 
            "state": "IL", 
            "street": "18204 School St", 
            "latitude": 41.564548000000002
          }
        }, 
        {
          "category": "Local business", 
          "name": "Prestige Carpet & Upholstery Cleaning", 
          "id": "159266470760555", 
          "category_list": [
            {
              "id": "210709755608101", 
              "name": "Carpet Cleaner"
            }
          ], 
          "location": {
            "city": "Morgan Hill", 
            "zip": "95037-5919", 
            "country": "United States", 
            "longitude": -121.63655900000001, 
            "state": "CA", 
            "street": "14935 Olive Ave", 
            "latitude": 37.097293999999998
          }
        }, 
        {
          "category": "Local business", 
          "name": "Prestige Carpet & Upholstery Cleaning", 
          "id": "160646043955680", 
          "category_list": [
            {
              "id": "210709755608101", 
              "name": "Carpet Cleaner"
            }
          ], 
          "location": {
            "city": "Bellmore", 
            "zip": "11710-2435", 
            "country": "United States", 
            "longitude": -73.528244000000001, 
            "state": "NY", 
            "street": "2795 Maple Ave", 
            "latitude": 40.684933000000001
          }
        }, 
        {
          "category": "Home improvement", 
          "name": "Prestige Carpet and Upholstery Cleaning", 
          "id": "273323152816034", 
          "category_list": [
            {
              "id": "210709755608101", 
              "name": "Carpet Cleaner"
            }
          ], 
          "location": {
            "city": "Colchester", 
            "zip": "", 
            "country": "United Kingdom", 
            "longitude": 0.90300000000000002, 
            "state": "", 
            "street": "Winnock Road", 
            "latitude": 51.8917
          }
        }
      ]
    }
  }
]