[
  {
    "business_name": "Los Compadres Mexican Food", 
    "business_id": "BM0-dgPJMBMmcmO9PVCJfQ", 
    "fb_pages": {
      "paging": {
        "next": "https://graph.facebook.com/search?type=place&access_token=229546593895315|yPLlHqq6YvDLIH4nL0kjJtIFSlU&limit=5000&offset=5000&__after_id=517079664996683"
      }, 
      "data": [
        {
          "category": "Local business", 
          "name": "Los Compadres Mexican Food", 
          "id": "115225601830010", 
          "category_list": [
            {
              "id": "273819889375819", 
              "name": "Restaurant"
            }
          ], 
          "location": {
            "city": "Hayward", 
            "zip": "94541-5123", 
            "country": "United States", 
            "longitude": -122.08266049189, 
            "state": "CA", 
            "street": "944 C St", 
            "latitude": 37.671469008587998
          }
        }, 
        {
          "category": "Local business", 
          "name": "Los Compadres Mexican Food", 
          "id": "109388859100374", 
          "category_list": [
            {
              "id": "199377230079198", 
              "name": "Mexican Restaurant"
            }
          ], 
          "location": {
            "city": "Phoenix", 
            "zip": "85013-2905", 
            "country": "United States", 
            "longitude": -112.08271602492999, 
            "state": "AZ", 
            "street": "4414 N 7th Ave", 
            "latitude": 33.500760465435
          }
        }, 
        {
          "category": "Local business", 
          "name": "Los Compadres Mexican Food", 
          "id": "113969905300589", 
          "category_list": [
            {
              "id": "199377230079198", 
              "name": "Mexican Restaurant"
            }
          ], 
          "location": {
            "city": "Santa Ana", 
            "zip": "92707-1835", 
            "country": "United States", 
            "longitude": -117.86765221432999, 
            "state": "CA", 
            "street": "1717 S Main St", 
            "latitude": 33.724792136685998
          }
        }, 
        {
          "category": "Food/grocery", 
          "name": "Pozoleria los compadres", 
          "id": "481229435230421", 
          "category_list": [
            {
              "id": "199377230079198", 
              "name": "Mexican Restaurant"
            }
          ], 
          "location": {
            "city": "Tijuana", 
            "zip": "", 
            "country": "Mexico", 
            "longitude": -116.99906562, 
            "state": "", 
            "street": "av.hipodromo #12-B col. hipodromo", 
            "latitude": 32.505512370700004
          }
        }, 
        {
          "category": "Local business", 
          "name": "Los 3 Compadres Mexican Food", 
          "id": "115955021759377", 
          "category_list": [
            {
              "id": "199377230079198", 
              "name": "Mexican Restaurant"
            }
          ], 
          "location": {
            "city": "Foothill Ranch", 
            "zip": "92610-3408", 
            "country": "United States", 
            "longitude": -117.667451, 
            "state": "CA", 
            "street": "19232 Alton Pkwy", 
            "latitude": 33.682443999999997
          }
        }, 
        {
          "category": "Food/grocery", 
          "name": "Barbacoa los compadres", 
          "id": "170013283186994", 
          "category_list": [
            {
              "id": "199377230079198", 
              "name": "Mexican Restaurant"
            }
          ], 
          "location": {
            "city": "Chihuahua", 
            "zip": "31060", 
            "country": "Mexico", 
            "longitude": -106.05417161750999, 
            "state": "", 
            "street": "calle 27 y ponce de leon ", 
            "latitude": 28.633403584187
          }
        }, 
        {
          "category": "Food/grocery", 
          "name": "Los Compadres Mexican Store and Restaurant", 
          "id": "576203719091688", 
          "category_list": [
            {
              "id": "150108431712141", 
              "name": "Food & Grocery"
            }
          ], 
          "location": {
            "city": "Great Bend", 
            "zip": "67530", 
            "country": "United States", 
            "longitude": -98.759189000000006, 
            "state": "KS", 
            "street": "1516 7th st.", 
            "latitude": 38.358376
          }
        }, 
        {
          "category": "Food/grocery", 
          "name": "Copteles y mariscos \"LOS Compadres\"", 
          "id": "517079664996683", 
          "category_list": [
            {
              "id": "199377230079198", 
              "name": "Mexican Restaurant"
            }
          ], 
          "location": {
            "city": "Tlaxcala", 
            "zip": "90460", 
            "country": "Mexico", 
            "longitude": -98.241699999999994, 
            "state": "", 
            "street": "av. de las americas colonia venustiano carranza", 
            "latitude": 19.3139
          }
        }
      ]
    }
  }, 
  {
    "business_name": "Small Change", 
    "business_id": "hhEVueXimvA7-mVtFE5gWw", 
    "fb_pages": {
      "paging": {
        "next": "https://graph.facebook.com/search?type=place&access_token=229546593895315|yPLlHqq6YvDLIH4nL0kjJtIFSlU&limit=5000&offset=5000&__after_id=406899452691385"
      }, 
      "data": [
        {
          "category": "Small business", 
          "name": "Change", 
          "id": "351080465022272", 
          "category_list": [
            {
              "id": "183205338384747", 
              "name": "Discount Store"
            }
          ], 
          "location": {
            "city": "Kochi", 
            "zip": "682031", 
            "country": "India", 
            "longitude": 76.276436577007004, 
            "state": "", 
            "street": "Change\u2122, Bay Pride Mall, Marine Drive", 
            "latitude": 9.9774989572311004
          }
        }, 
        {
          "category": "Local business", 
          "name": "Small Changes Kids", 
          "id": "158265050309", 
          "category_list": [
            {
              "id": "183205338384747", 
              "name": "Discount Store"
            }
          ], 
          "location": {
            "city": "League City", 
            "zip": "77573", 
            "country": "United States", 
            "longitude": -95.103904999999997, 
            "state": "TX", 
            "street": "920 W. Main ", 
            "latitude": 29.505989
          }
        }, 
        {
          "category": "Local business", 
          "name": "Small Change Finery", 
          "id": "142747609169055", 
          "category_list": [
            {
              "id": "188031587886173", 
              "name": "Jewelry Store"
            }, 
            {
              "id": "417935738217839", 
              "name": "Antiques & Vintage"
            }, 
            {
              "id": "182387268467261", 
              "name": "Metals"
            }
          ], 
          "location": {
            "city": "New Orleans", 
            "zip": "70119", 
            "country": "United States", 
            "longitude": -90.093689999999995, 
            "state": "LA", 
            "street": "", 
            "latitude": 29.971319999999999
          }
        }, 
        {
          "category": "Local business", 
          "name": "Small Change", 
          "id": "228894953898665", 
          "category_list": [
            {
              "id": "200600219953504", 
              "name": "Shopping & Retail"
            }
          ], 
          "location": {
            "city": "Abingdon", 
            "zip": "24210", 
            "country": "United States", 
            "longitude": -82.053787, 
            "state": "VA", 
            "street": "17329 Lee Highway", 
            "latitude": 36.672412999999999
          }
        }, 
        {
          "category": "Local business", 
          "name": "Small Change Nappies & Accessories", 
          "id": "534842159891008", 
          "category_list": [
            {
              "id": "2500", 
              "name": "Local Business"
            }
          ], 
          "location": {
            "city": "Singleton", 
            "zip": "2330", 
            "country": "Australia", 
            "longitude": 151.18299999999999, 
            "state": "NSW", 
            "street": "", 
            "latitude": -32.566699999999997
          }
        }, 
        {
          "category": "Local business", 
          "name": "Small Change", 
          "id": "132558670127792", 
          "category_list": [
            {
              "id": "192614304101075", 
              "name": "Children's Clothing Store"
            }, 
            {
              "id": "128753240528981", 
              "name": "Women's Clothing Store"
            }, 
            {
              "id": "180410821995109", 
              "name": "Automotive"
            }
          ], 
          "location": {
            "city": "Bakersfield", 
            "zip": "93306-2765", 
            "country": "United States", 
            "longitude": -118.95056, 
            "state": "CA", 
            "street": "3797 Auburn St", 
            "latitude": 35.397584000000002
          }
        }, 
        {
          "category": "Shopping/retail", 
          "name": "Small Change Consignment", 
          "id": "129194793815661", 
          "category_list": [
            {
              "id": "200600219953504", 
              "name": "Shopping & Retail"
            }
          ], 
          "location": {
            "city": "Reston", 
            "zip": "20190", 
            "country": "United States", 
            "longitude": -77.340439000000003, 
            "state": "VA", 
            "street": "1629 Washington Plaza", 
            "latitude": 38.968482999999999
          }
        }, 
        {
          "category": "Local business", 
          "name": "SMALL CHANGE", 
          "id": "130315200338327", 
          "category_list": [
            {
              "id": "2500", 
              "name": "Local Business"
            }
          ], 
          "location": {
            "city": "La Grange", 
            "zip": "60525", 
            "country": "United States", 
            "longitude": -87.869179000000003, 
            "state": "IL", 
            "street": "31  1/2 South LaGrange Road", 
            "latitude": 41.814779999999999
          }
        }, 
        {
          "category": "Small business", 
          "name": "Small Changes Yield Profound Results", 
          "id": "508550905893696", 
          "category_list": [
            {
              "id": "2237", 
              "name": "Small Business"
            }
          ], 
          "location": {
            "city": "Manasquan", 
            "zip": "08736", 
            "country": "United States", 
            "longitude": -74.059646999999998, 
            "state": "NJ", 
            "street": "95 Mohegan Road", 
            "latitude": 40.123019999999997
          }
        }, 
        {
          "category": "Restaurant/cafe", 
          "name": "Small Change Coffee", 
          "id": "788044508002157", 
          "category_list": [
            {
              "id": "197871390225897", 
              "name": "Cafe"
            }
          ], 
          "location": {
            "city": "Liberec", 
            "zip": "46000", 
            "country": "Czech Republic", 
            "longitude": 15.058629799870999, 
            "state": "", 
            "street": "Z\u00e1me\u010dnick\u00e1 ulice, u Moskevsk\u00e9", 
            "latitude": 50.767244528112002
          }
        }, 
        {
          "category": "Local business", 
          "name": "Small Change", 
          "id": "205822696107540", 
          "category_list": [
            {
              "id": "2500", 
              "name": "Local Business"
            }
          ], 
          "location": {
            "city": "Brisbane", 
            "zip": "", 
            "country": "Australia", 
            "longitude": 153.02473000000001, 
            "state": "QLD", 
            "street": "", 
            "latitude": -27.46743
          }
        }, 
        {
          "category": "Local business", 
          "name": "Small Change", 
          "id": "118891068162959", 
          "category_list": [
            {
              "id": "174177802634376", 
              "name": "Hair Salon"
            }, 
            {
              "id": "180410821995109", 
              "name": "Automotive"
            }
          ], 
          "location": {
            "city": "Sedgwick", 
            "zip": "80749", 
            "country": "United States", 
            "longitude": -102.523821, 
            "state": "CO", 
            "street": "121 Main Ave", 
            "latitude": 40.933433999999998
          }
        }, 
        {
          "category": "Local business", 
          "name": "Small Change", 
          "id": "117754694951829", 
          "category_list": [
            {
              "id": "183205338384747", 
              "name": "Discount Store"
            }, 
            {
              "id": "180410821995109", 
              "name": "Automotive"
            }
          ], 
          "location": {
            "city": "Cassville", 
            "zip": "65625-1448", 
            "country": "United States", 
            "longitude": -93.867506000000006, 
            "state": "MO", 
            "street": "300 E 5th St", 
            "latitude": 36.677377
          }
        }, 
        {
          "category": "Local business", 
          "name": "Small Change", 
          "id": "146061825439284", 
          "category_list": [
            {
              "id": "187133811318958", 
              "name": "Business Services"
            }, 
            {
              "id": "169056916473899", 
              "name": "Broadcasting & Media Production"
            }, 
            {
              "id": "180410821995109", 
              "name": "Automotive"
            }
          ], 
          "location": {
            "city": "Berkeley", 
            "zip": "94710-2604", 
            "country": "United States", 
            "longitude": -122.292039, 
            "state": "CA", 
            "street": "2702 8th St", 
            "latitude": 37.857019999999999
          }
        }, 
        {
          "category": "Business services", 
          "name": "One Small Change", 
          "id": "397025700403051", 
          "category_list": [
            {
              "id": "145118935550090", 
              "name": "Medical & Health"
            }
          ], 
          "location": {
            "city": "Pincher Creek", 
            "zip": "T0K1W0", 
            "country": "Canada", 
            "longitude": -113.95, 
            "state": "AB", 
            "street": "Box 633", 
            "latitude": 49.4833
          }
        }, 
        {
          "category": "Bank/financial services", 
          "name": "Small Changes", 
          "id": "418542621500814", 
          "category_list": [
            {
              "id": "211381282212118", 
              "name": "Financial Planning"
            }
          ], 
          "location": {
            "city": "Vancouver", 
            "zip": "98684", 
            "country": "United States", 
            "longitude": -122.52030000000001, 
            "state": "WA", 
            "street": "", 
            "latitude": 45.630600000000001
          }
        }, 
        {
          "category": "Shopping/retail", 
          "name": "Small Change Children's Store", 
          "id": "293802417344403", 
          "category_list": [
            {
              "id": "200600219953504", 
              "name": "Shopping & Retail"
            }
          ], 
          "location": {
            "city": "Ashland", 
            "zip": "97520", 
            "country": "United States", 
            "longitude": -122.715935, 
            "state": "OR", 
            "street": "5 N. Main St", 
            "latitude": 42.196765999999997
          }
        }, 
        {
          "category": "Consulting/business services", 
          "name": "Small Changes Big Impact, Personal Training", 
          "id": "316670228391162", 
          "category_list": [
            {
              "id": "191681657527859", 
              "name": "Fitness Center"
            }
          ], 
          "location": {
            "city": "Ewa Beach", 
            "zip": "96706", 
            "country": "United States", 
            "longitude": -158.02186599999999, 
            "state": "HI", 
            "street": "91-1059 Opaehuna Street", 
            "latitude": 21.367719999999998
          }
        }, 
        {
          "category": "Non-profit organization", 
          "name": "Small Change Collective", 
          "id": "106721439389522", 
          "category_list": [
            {
              "id": "2603", 
              "name": "Non-Profit Organization"
            }
          ], 
          "location": {
            "city": "Chicago", 
            "zip": "60626", 
            "country": "United States", 
            "longitude": -87.669600000000003, 
            "state": "IL", 
            "street": "P.O. Box 268323", 
            "latitude": 42.0092
          }
        }, 
        {
          "category": "Local business", 
          "name": "Small Change Personal Training", 
          "id": "237390999266", 
          "category_list": [
            {
              "id": "2500", 
              "name": "Local Business"
            }
          ], 
          "location": {
            "city": "Madison", 
            "zip": "53562", 
            "country": "United States", 
            "longitude": -89.493649000000005, 
            "state": "WI", 
            "street": "2564 Branch St Suite B9", 
            "latitude": 43.102777000000003
          }
        }, 
        {
          "category": "Education", 
          "name": "Small Change Personal Finance Expo", 
          "id": "206218359447175", 
          "category_list": [
            {
              "id": "151676848220295", 
              "name": "Education"
            }
          ], 
          "location": {
            "city": "Victoria", 
            "zip": "V8W 3M7", 
            "country": "Canada", 
            "longitude": -123.3833084, 
            "state": "BC", 
            "street": "Event Location: Victoria Conference Centre - 720 Douglas Street", 
            "latitude": 48.435230300000001
          }
        }, 
        {
          "category": "Non-profit organization", 
          "name": "Small Change For Change", 
          "id": "213188645418758", 
          "category_list": [
            {
              "id": "2603", 
              "name": "Non-Profit Organization"
            }
          ], 
          "location": {
            "city": "Adelaide", 
            "zip": "5061", 
            "country": "Australia", 
            "longitude": 138.61147876699999, 
            "state": "SA", 
            "street": "44 Marlborough Street", 
            "latitude": -34.9587859333
          }
        }, 
        {
          "category": "Local business", 
          "name": "Small Change Kids Clothing", 
          "id": "74134463555", 
          "category_list": [
            {
              "id": "200600219953504", 
              "name": "Shopping & Retail"
            }
          ], 
          "location": {
            "city": "New York", 
            "zip": "10028", 
            "country": "United States", 
            "longitude": -73.957930000000005, 
            "state": "NY", 
            "street": "1196 Lexington Avenue", 
            "latitude": 40.776544999999999
          }
        }, 
        {
          "category": "Health/beauty", 
          "name": "One Small Change", 
          "id": "303933273076382", 
          "category_list": [
            {
              "id": "2214", 
              "name": "Health/Beauty"
            }
          ], 
          "location": {
            "city": "Provo", 
            "zip": "84604", 
            "country": "United States", 
            "longitude": -111.679337, 
            "state": "UT", 
            "street": "1192 W 1870 N", 
            "latitude": 40.259234999999997
          }
        }, 
        {
          "category": "Local business", 
          "name": "Small Change Motors", 
          "id": "153013148100716", 
          "category_list": [
            {
              "id": "180410821995109", 
              "name": "Automotive"
            }
          ], 
          "location": {
            "city": "Sacramento", 
            "zip": "95831", 
            "country": "United States", 
            "longitude": -121.508428354, 
            "state": "CA", 
            "street": "", 
            "latitude": 38.494201959800002
          }
        }, 
        {
          "category": "Professional services", 
          "name": "Small Change Productions, L.L.C.", 
          "id": "141353752593431", 
          "category_list": [
            {
              "id": "176831012360626", 
              "name": "Professional Services"
            }
          ], 
          "location": {
            "city": "Phoenix", 
            "zip": "85018", 
            "country": "United States", 
            "longitude": -111.962189, 
            "state": "AZ", 
            "street": "5516 East Arcadia Lane", 
            "latitude": 33.499682999999997
          }
        }, 
        {
          "category": "Shopping/retail", 
          "name": "Small Change II", 
          "id": "293662733983583", 
          "category_list": [
            {
              "id": "200600219953504", 
              "name": "Shopping & Retail"
            }
          ], 
          "location": {
            "city": "Gresham", 
            "zip": "97030", 
            "country": "United States", 
            "longitude": -122.420067, 
            "state": "OR", 
            "street": "1075 E Powell Blvd", 
            "latitude": 45.498421
          }
        }, 
        {
          "category": "Small business", 
          "name": "Small Change: BIG Difference", 
          "id": "388550317868773", 
          "category_list": [
            {
              "id": "2237", 
              "name": "Small Business"
            }
          ], 
          "location": {
            "city": "Edinburgh", 
            "zip": "EH11 1LW", 
            "country": "United Kingdom", 
            "longitude": -3.2162825499754999, 
            "state": "", 
            "street": "Active Health, 2 Polwarth Gardens", 
            "latitude": 55.937551364937001
          }
        }, 
        {
          "category": "Local business", 
          "name": "Small Change Vending", 
          "id": "115907768470644", 
          "category_list": [
            {
              "id": "176831012360626", 
              "name": "Professional Services"
            }
          ], 
          "location": {
            "city": "West Hollywood", 
            "zip": "90069-4810", 
            "country": "United States", 
            "longitude": -118.387337, 
            "state": "CA", 
            "street": "8967 Vista Grande St", 
            "latitude": 34.086880000000001
          }
        }, 
        {
          "category": "Local business", 
          "name": "Small Changes", 
          "id": "125863174135894", 
          "category_list": [
            {
              "id": "139225689474222", 
              "name": "Spa, Beauty & Personal Care"
            }
          ], 
          "location": {
            "city": "Berwyn", 
            "zip": "19312-2410", 
            "country": "United States", 
            "longitude": -75.467201000000003, 
            "state": "PA", 
            "street": "1055 Westlakes Dr", 
            "latitude": 40.063147999999998
          }
        }, 
        {
          "category": "Local business", 
          "name": "Small Change Consignment", 
          "id": "153620208006815", 
          "category_list": [
            {
              "id": "148906328500868", 
              "name": "Hardware Store"
            }, 
            {
              "id": "194127957280024", 
              "name": "Vintage Store"
            }
          ], 
          "location": {
            "city": "Venice", 
            "zip": "34285-4330", 
            "country": "United States", 
            "longitude": -82.433014, 
            "state": "FL", 
            "street": "773 Us Highway 41 Byp S", 
            "latitude": 27.092198
          }
        }, 
        {
          "category": "Local business", 
          "name": "Small Change Diaper/Commercial Laundry Service", 
          "id": "154628677909117", 
          "category_list": [
            {
              "id": "133148010085253", 
              "name": "Dry Cleaner"
            }, 
            {
              "id": "200046713342752", 
              "name": "Shopping Service"
            }
          ], 
          "location": {
            "city": "La Crescent", 
            "zip": "55947-1117", 
            "country": "United States", 
            "longitude": -91.300832, 
            "state": "MN", 
            "street": "62 N 3rd St", 
            "latitude": 43.831969000000001
          }
        }, 
        {
          "category": "Local business", 
          "name": "Small Changes Design", 
          "id": "167365569946529", 
          "category_list": [
            {
              "id": "108472109230615", 
              "name": "Computer Services"
            }, 
            {
              "id": "139225689474222", 
              "name": "Spa, Beauty & Personal Care"
            }
          ], 
          "location": {
            "city": "San Diego", 
            "zip": "92037-5826", 
            "country": "United States", 
            "longitude": -117.244293, 
            "state": "CA", 
            "street": "6575 Caminito Scioto", 
            "latitude": 32.835017999999998
          }
        }, 
        {
          "category": "Local business", 
          "name": "Small Changes", 
          "id": "168075416539642", 
          "category_list": [
            {
              "id": "133510666716809", 
              "name": "Comic Book Store"
            }, 
            {
              "id": "139225689474222", 
              "name": "Spa, Beauty & Personal Care"
            }
          ], 
          "location": {
            "city": "Seattle", 
            "zip": "98107-3737", 
            "country": "United States", 
            "longitude": -122.37460299999999, 
            "state": "WA", 
            "street": "1418 NW 53rd St", 
            "latitude": 47.667389
          }
        }, 
        {
          "category": "Food/grocery", 
          "name": "Small Changes", 
          "id": "449154681855822", 
          "category_list": [
            {
              "id": "150108431712141", 
              "name": "Food & Grocery"
            }
          ], 
          "location": {
            "city": "Idaho Falls", 
            "zip": "83402", 
            "country": "United States", 
            "longitude": -112.077808, 
            "state": "ID", 
            "street": "475 buckboard ln", 
            "latitude": 43.498466000000001
          }
        }, 
        {
          "category": "Small business", 
          "name": "Klorophyl racing", 
          "id": "174522632557743", 
          "category_list": [
            {
              "id": "2237", 
              "name": "Small Business"
            }
          ], 
          "location": {
            "city": "Vorey sur Arzon", 
            "zip": "43800", 
            "country": "France", 
            "longitude": 3.9215900000000001, 
            "state": "", 
            "street": "changeac", 
            "latitude": 45.179699999999997
          }
        }, 
        {
          "category": "Local business", 
          "name": "The A & A Small Changes", 
          "id": "110307192366899", 
          "category_list": [
            {
              "id": "180833545285725", 
              "name": "Carpenter"
            }, 
            {
              "id": "139225689474222", 
              "name": "Spa, Beauty & Personal Care"
            }
          ], 
          "location": {
            "city": "Ashby", 
            "zip": "01431-2312", 
            "country": "United States", 
            "longitude": -71.826819999999998, 
            "state": "MA", 
            "street": "1031 Main St", 
            "latitude": 42.679844000000003
          }
        }, 
        {
          "category": "Health/medical/pharmacy", 
          "name": "Small steps, big changes health coaching", 
          "id": "1392136584378864", 
          "category_list": [
            {
              "id": "185900881450649", 
              "name": "Personal Coaching"
            }
          ], 
          "location": {
            "city": "Cherry Hill", 
            "zip": "08002", 
            "country": "United States", 
            "longitude": -75.023055999999997, 
            "state": "NJ", 
            "street": "1025 west Marlton pike", 
            "latitude": 39.915923999999997
          }
        }, 
        {
          "category": "Automotive", 
          "name": "Small brake and oil change", 
          "id": "322950034442744", 
          "category_list": [
            {
              "id": "2509", 
              "name": "Automotive"
            }
          ], 
          "location": {
            "city": "Richmond", 
            "zip": "47374", 
            "country": "United States", 
            "longitude": -84.881879999999995, 
            "state": "IN", 
            "street": "1400 new paris pike ", 
            "latitude": 39.843670000000003
          }
        }, 
        {
          "category": "Small business", 
          "name": "LA PETITE BOUTIQUE", 
          "id": "157630487654663", 
          "category_list": [
            {
              "id": "2237", 
              "name": "Small Business"
            }
          ], 
          "location": {
            "city": "Chartres", 
            "zip": "28000", 
            "country": "France", 
            "longitude": 1.4884200000000001, 
            "state": "", 
            "street": "29 rue des changes", 
            "latitude": 48.446678200000001
          }
        }, 
        {
          "category": "Small business", 
          "name": "Haunted Organics Collective", 
          "id": "406899452691385", 
          "category_list": [
            {
              "id": "357645644269220", 
              "name": "Alternative & Holistic Health"
            }, 
            {
              "id": "259030350843802", 
              "name": "Aromatherapy"
            }, 
            {
              "id": "199732070036794", 
              "name": "Artistic Services"
            }
          ], 
          "location": {
            "city": "Austin", 
            "zip": "78702", 
            "country": "United States", 
            "longitude": -97.703909999999993, 
            "state": "TX", 
            "street": "TBD~Winds of Change~", 
            "latitude": 30.261949999999999
          }
        }
      ]
    }
  }, 
  {
    "business_name": "One Voice", 
    "business_id": "eNpy0EsfNdcgGrzfHtHIhw", 
    "fb_pages": {
      "paging": {
        "next": "https://graph.facebook.com/search?type=place&access_token=229546593895315|yPLlHqq6YvDLIH4nL0kjJtIFSlU&limit=5000&offset=5000&__after_id=128505310519156"
      }, 
      "data": [
        {
          "category": "Education", 
          "name": "One Voice", 
          "id": "689308741087220", 
          "category_list": [
            {
              "id": "186983191324114", 
              "name": "Music Lessons & Instruction"
            }
          ], 
          "location": {
            "city": "Santa Clarita", 
            "zip": "91387", 
            "country": "United States", 
            "longitude": -118.506, 
            "state": "CA", 
            "street": "Robinson Ranch ", 
            "latitude": 34.416600000000003
          }
        }, 
        {
          "category": "Media/news/publishing", 
          "name": "One Voice Agency", 
          "id": "1400914343479987", 
          "category_list": [
            {
              "id": "169056916473899", 
              "name": "Broadcasting & Media Production"
            }, 
            {
              "id": "187393124625179", 
              "name": "Web Design"
            }, 
            {
              "id": "200154933429705", 
              "name": "Web Development"
            }
          ], 
          "location": {
            "city": "Glasgow", 
            "zip": "G1 3HL", 
            "country": "United Kingdom", 
            "longitude": -4.2552362752860002, 
            "state": "", 
            "street": "69 Buchanan Street", 
            "latitude": 55.859577744066002
          }
        }, 
        {
          "category": "Church/religious organization", 
          "name": "One Voice Ministries:  Hank and Brenda Kunneman", 
          "id": "129207622999", 
          "category_list": [
            {
              "id": "187714557925874", 
              "name": "Religious Organization"
            }
          ], 
          "location": {
            "city": "Omaha", 
            "zip": "68137", 
            "country": "United States", 
            "longitude": -96.130864000000003, 
            "state": "NE", 
            "street": "5351 S. 139th Plaza", 
            "latitude": 41.203532000000003
          }
        }, 
        {
          "category": "Non-profit organization", 
          "name": "One Voice Mixed Chorus", 
          "id": "91976264132", 
          "category_list": [
            {
              "id": "2603", 
              "name": "Non-Profit Organization"
            }
          ], 
          "location": {
            "city": "Saint Paul", 
            "zip": "55104", 
            "country": "United States", 
            "longitude": -93.131011999999998, 
            "state": "MN", 
            "street": "732 Holly Avenue", 
            "latitude": 44.942711000000003
          }
        }, 
        {
          "category": "Local business", 
          "name": "One Voice Community Center", 
          "id": "241381262617089", 
          "category_list": [
            {
              "id": "2500", 
              "name": "Local Business"
            }
          ], 
          "location": {
            "city": "Phoenix", 
            "zip": "85013", 
            "country": "United States", 
            "longitude": -112.08309383076001, 
            "state": "AZ", 
            "street": "", 
            "latitude": 33.501685222116997
          }
        }, 
        {
          "category": "Non-profit organization", 
          "name": "One Voice Student Missions", 
          "id": "571304826225775", 
          "category_list": [
            {
              "id": "2603", 
              "name": "Non-Profit Organization"
            }
          ], 
          "location": {
            "city": "Northridge", 
            "zip": "91324", 
            "country": "United States", 
            "longitude": -118.556061, 
            "state": "CA", 
            "street": "19408 Londelius St", 
            "latitude": 34.229453999999997
          }
        }, 
        {
          "category": "Local business", 
          "name": "Shir Ami -  Many voices. One song.", 
          "id": "335865591958", 
          "category_list": [
            {
              "id": "139460309451166", 
              "name": "Religious Center"
            }, 
            {
              "id": "187714557925874", 
              "name": "Religious Organization"
            }
          ], 
          "location": {
            "city": "Newtown", 
            "zip": "18940", 
            "country": "United States", 
            "longitude": -74.947626111784999, 
            "state": "PA", 
            "street": "101 Richboro Road", 
            "latitude": 40.224631817320002
          }
        }, 
        {
          "category": "Church/religious organization", 
          "name": "One Voice Ministries, Inc.", 
          "id": "163886143799052", 
          "category_list": [
            {
              "id": "187714557925874", 
              "name": "Religious Organization"
            }
          ], 
          "location": {
            "city": "Dothan", 
            "zip": "", 
            "country": "United States", 
            "longitude": -85.403201899999999, 
            "state": "AL", 
            "street": "", 
            "latitude": 31.155617199999998
          }
        }, 
        {
          "category": "Media/news/publishing", 
          "name": "One Voice Media", 
          "id": "481044615343053", 
          "category_list": [
            {
              "id": "133436743388217", 
              "name": "Arts & Entertainment"
            }, 
            {
              "id": "189483194405517", 
              "name": "Music Production"
            }, 
            {
              "id": "169056916473899", 
              "name": "Broadcasting & Media Production"
            }
          ], 
          "location": {
            "city": "Otisville", 
            "zip": "", 
            "country": "United States", 
            "longitude": -74.539500000000004, 
            "state": "NY", 
            "street": "", 
            "latitude": 41.470700000000001
          }
        }, 
        {
          "category": "Non-profit organization", 
          "name": "One Voice", 
          "id": "286366754794726", 
          "category_list": [
            {
              "id": "188662441155211", 
              "name": "Community & Government"
            }
          ], 
          "location": {
            "city": "Jackson", 
            "zip": "39203", 
            "country": "United States", 
            "longitude": -90.203911000000005, 
            "state": "MS", 
            "street": "1072 W. Lynch Street, Suite 7", 
            "latitude": 32.297905
          }
        }, 
        {
          "category": "Non-profit organization", 
          "name": "One VOICE", 
          "id": "271339116326906", 
          "category_list": [
            {
              "id": "2603", 
              "name": "Non-Profit Organization"
            }
          ], 
          "location": {
            "city": "Tracy", 
            "zip": "95304", 
            "country": "United States", 
            "longitude": -121.4559, 
            "state": "CA", 
            "street": "3200 N Naglee Rd ", 
            "latitude": 37.762388999999999
          }
        }, 
        {
          "category": "Non-governmental organization (ngo)", 
          "name": "ONE VOICE nigeria", 
          "id": "224040697743974", 
          "category_list": [
            {
              "id": "188662441155211", 
              "name": "Community & Government"
            }
          ], 
          "location": {
            "city": "Abuja", 
            "zip": "234", 
            "country": "Nigeria", 
            "longitude": 7.4832999999999998, 
            "state": "", 
            "street": "", 
            "latitude": 9.0667000000000009
          }
        }, 
        {
          "category": "Church/religious organization", 
          "name": "One Voice Ministries", 
          "id": "523294684391621", 
          "category_list": [
            {
              "id": "187714557925874", 
              "name": "Religious Organization"
            }
          ], 
          "location": {
            "city": "Putrajaya", 
            "zip": "", 
            "country": "Malaysia", 
            "longitude": 101.7, 
            "state": "", 
            "street": "", 
            "latitude": 3.1666699999999999
          }
        }, 
        {
          "category": "School", 
          "name": "Voice One", 
          "id": "112690317546", 
          "category_list": [
            {
              "id": "365182493518892", 
              "name": "School"
            }, 
            {
              "id": "173883042668223", 
              "name": "Theatre"
            }
          ], 
          "location": {
            "city": "San Francisco", 
            "zip": "94107", 
            "country": "United States", 
            "longitude": -122.392842484, 
            "state": "CA", 
            "street": "665 Third St. Suite 227", 
            "latitude": 37.779673986600002
          }
        }, 
        {
          "category": "Non-profit organization", 
          "name": "Operation One Voice", 
          "id": "134413081794", 
          "category_list": [
            {
              "id": "2603", 
              "name": "Non-Profit Organization"
            }
          ], 
          "location": {
            "city": "Duluth", 
            "zip": "30096", 
            "country": "United States", 
            "longitude": -84.176291139599996, 
            "state": "GA", 
            "street": "PO Box 2559", 
            "latitude": 34.154265926100003
          }
        }, 
        {
          "category": "Local business", 
          "name": "One Voice One Team", 
          "id": "137159543051907", 
          "category_list": [
            {
              "id": "2500", 
              "name": "Local Business"
            }
          ], 
          "location": {
            "city": "Brampton", 
            "zip": "L6X 1A4", 
            "country": "Canada", 
            "longitude": -79.761932400000006, 
            "state": "ON", 
            "street": "100 Queen St. W", 
            "latitude": 43.684059099999999
          }
        }, 
        {
          "category": "Church/religious organization", 
          "name": "One Voice Savannah", 
          "id": "252419218222698", 
          "category_list": [
            {
              "id": "187714557925874", 
              "name": "Religious Organization"
            }
          ], 
          "location": {
            "city": "Savannah", 
            "zip": "31404", 
            "country": "United States", 
            "longitude": -81.091971999999998, 
            "state": "GA", 
            "street": " 1112 East 69th", 
            "latitude": 32.026718000000002
          }
        }, 
        {
          "category": "Event planning/event services", 
          "name": "One Voice Photography", 
          "id": "205745629593796", 
          "category_list": [
            {
              "id": "181475575221097", 
              "name": "Photographer"
            }
          ], 
          "location": {
            "city": "New Boston", 
            "zip": "", 
            "country": "United States", 
            "longitude": -83.403099999999995, 
            "state": "MI", 
            "street": "Oakland County Area", 
            "latitude": 42.162500000000001
          }
        }, 
        {
          "category": "Local business", 
          "name": "One Voice", 
          "id": "378440215644", 
          "category_list": [
            {
              "id": "2500", 
              "name": "Local Business"
            }
          ], 
          "location": {
            "city": "Englewood", 
            "zip": "45322", 
            "country": "United States", 
            "longitude": -84.300579999999997, 
            "state": "OH", 
            "street": "722 albert st.", 
            "latitude": 39.870002999999997
          }
        }, 
        {
          "category": "Organization", 
          "name": "One Voice", 
          "id": "116029671773367", 
          "category_list": [
            {
              "id": "198503866828628", 
              "name": "Organization"
            }
          ], 
          "location": {
            "city": "Parkersburg", 
            "zip": "26105", 
            "country": "United States", 
            "longitude": -81.527610999999993, 
            "state": "WV", 
            "street": "1777 Rosemar Rd.", 
            "latitude": 39.318474000000002
          }
        }, 
        {
          "category": "Non-profit organization", 
          "name": "One Voice Network", 
          "id": "184487494979667", 
          "category_list": [
            {
              "id": "2603", 
              "name": "Non-Profit Organization"
            }
          ], 
          "location": {
            "city": "Aurora", 
            "zip": "L4G 3V5", 
            "country": "Canada", 
            "longitude": -79.462540000000004, 
            "state": "ON", 
            "street": "235 Industrial Parkway, Unit 14", 
            "latitude": 44.013280000000002
          }
        }, 
        {
          "category": "Non-profit organization", 
          "name": "One Voice Texas", 
          "id": "448948675148943", 
          "category_list": [
            {
              "id": "2603", 
              "name": "Non-Profit Organization"
            }
          ], 
          "location": {
            "city": "Houston", 
            "zip": "77056", 
            "country": "United States", 
            "longitude": -95.466423000000006, 
            "state": "TX", 
            "street": "5120 Woodway, Suite 6000", 
            "latitude": 29.763248000000001
          }
        }, 
        {
          "category": "Arts/entertainment/nightlife", 
          "name": "One Voice", 
          "id": "547712525321453", 
          "category_list": [
            {
              "id": "203916779633178", 
              "name": "Dance Instruction"
            }
          ], 
          "location": {
            "city": "Hahira", 
            "zip": "31632", 
            "country": "United States", 
            "longitude": -83.369501, 
            "state": "GA", 
            "street": "215 Randall Street ", 
            "latitude": 30.989681999999998
          }
        }, 
        {
          "category": "Education", 
          "name": "One Voice Music", 
          "id": "162965360468987", 
          "category_list": [
            {
              "id": "151676848220295", 
              "name": "Education"
            }
          ], 
          "location": {
            "city": "Letchworth", 
            "zip": "SG62EU", 
            "country": "United Kingdom", 
            "longitude": -0.21928517648699999, 
            "state": "", 
            "street": "40 Bowershott", 
            "latitude": 51.970182890799997
          }
        }, 
        {
          "category": "Community organization", 
          "name": "One Voice of Raleigh County", 
          "id": "208917252574366", 
          "category_list": [
            {
              "id": "152880021441864", 
              "name": "Community Organization"
            }
          ], 
          "location": {
            "city": "Beckley", 
            "zip": "24801", 
            "country": "United States", 
            "longitude": -81.182570999999996, 
            "state": "WV", 
            "street": "613 South Kanawha Street", 
            "latitude": 37.775672999999998
          }
        }, 
        {
          "category": "Health/medical/pharmacy", 
          "name": "One Voice Allied Therapies", 
          "id": "427641903978747", 
          "category_list": [
            {
              "id": "192761027418354", 
              "name": "Speech Pathologist"
            }
          ], 
          "location": {
            "city": "Townsville", 
            "zip": "4818", 
            "country": "Australia", 
            "longitude": 146.72914676665999, 
            "state": "QLD", 
            "street": "1/48 Thuringowa Drive", 
            "latitude": -19.312706622764999
          }
        }, 
        {
          "category": "Non-profit organization", 
          "name": "One Simple Voice", 
          "id": "108903389164400", 
          "category_list": [
            {
              "id": "187714557925874", 
              "name": "Religious Organization"
            }
          ], 
          "location": {
            "city": "Colorado Springs", 
            "zip": "80903", 
            "country": "United States", 
            "longitude": -104.825729, 
            "state": "CO", 
            "street": "228 North Cascade Avenue", 
            "latitude": 38.837955000000001
          }
        }, 
        {
          "category": "Local business", 
          "name": "One Voice", 
          "id": "105146699551993", 
          "category_list": [
            {
              "id": "178669642178193", 
              "name": "Social Services"
            }
          ], 
          "location": {
            "city": "Santa Monica", 
            "zip": "90404-1114", 
            "country": "United States", 
            "longitude": -118.487444, 
            "state": "CA", 
            "street": "1228 15th St Ste C", 
            "latitude": 34.026679000000001
          }
        }, 
        {
          "category": "Political organization", 
          "name": "One Voice", 
          "id": "446766102088428", 
          "category_list": [
            {
              "id": "2261", 
              "name": "Political Organization"
            }
          ], 
          "location": {
            "city": "San Diego", 
            "zip": "92093", 
            "country": "United States", 
            "longitude": -117.23961, 
            "state": "CA", 
            "street": "9500 Gilman Dr  La Jolla, CA 92093", 
            "latitude": 32.875293999999997
          }
        }, 
        {
          "category": "Event planning/event services", 
          "name": "One Voice Entertainment Inc", 
          "id": "128472973993410", 
          "category_list": [
            {
              "id": "193705277324704", 
              "name": "Event Planning"
            }
          ], 
          "location": {
            "city": "Bayamon", 
            "zip": "00957", 
            "country": "Puerto Rico", 
            "longitude": -66.113600000000005, 
            "street": "Rexville", 
            "latitude": 18.1797
          }
        }, 
        {
          "category": "Non-governmental organization (ngo)", 
          "name": "Batikan : ONE VOICE", 
          "id": "553770251340885", 
          "category_list": [
            {
              "id": "2235", 
              "name": "Non-Governmental Organization (NGO)"
            }
          ], 
          "location": {
            "city": "Makati", 
            "zip": "1218", 
            "country": "Philippines", 
            "longitude": 121.029, 
            "state": "", 
            "street": "Barangay 29 , Pembo", 
            "latitude": 14.556900000000001
          }
        }, 
        {
          "category": "Telecommunication", 
          "name": "OneVoice", 
          "id": "196703630372320", 
          "category_list": [
            {
              "id": "2253", 
              "name": "Telecommunication"
            }
          ], 
          "location": {
            "city": "Sterling", 
            "zip": "20166", 
            "country": "United States", 
            "longitude": -77.421588, 
            "state": "VA", 
            "street": "45610 Woodland Road - Suite 250", 
            "latitude": 39.022112
          }
        }, 
        {
          "category": "Community organization", 
          "name": "One Voice SWMO", 
          "id": "403170466467488", 
          "category_list": [
            {
              "id": "152880021441864", 
              "name": "Community Organization"
            }
          ], 
          "location": {
            "city": "Nixa", 
            "zip": "65714", 
            "country": "United States", 
            "longitude": -93.318969999999993, 
            "state": "MO", 
            "street": "207 N Meadow Street", 
            "latitude": 37.04569
          }
        }, 
        {
          "category": "Local business", 
          "name": "One Voice Productions Event Specialists Inc.", 
          "id": "36442056075", 
          "category_list": [
            {
              "id": "166419966738430", 
              "name": "DJ"
            }
          ], 
          "location": {
            "city": "Saint Augustine", 
            "zip": "32084", 
            "country": "United States", 
            "longitude": -81.326468000000006, 
            "state": "FL", 
            "street": "1589 B Old Moultrie Road", 
            "latitude": 29.872985
          }
        }, 
        {
          "category": "Church/religious organization", 
          "name": "One Voice One Prayer", 
          "id": "470461719705916", 
          "category_list": [
            {
              "id": "187714557925874", 
              "name": "Religious Organization"
            }
          ], 
          "location": {
            "city": "Framingham", 
            "zip": "01702", 
            "country": "United States", 
            "longitude": -71.427672000000001, 
            "state": "MA", 
            "street": "102 Fountain Street", 
            "latitude": 42.275651000000003
          }
        }, 
        {
          "category": "Community organization", 
          "name": "One Voice Community Coalition", 
          "id": "129802437185801", 
          "category_list": [
            {
              "id": "152880021441864", 
              "name": "Community Organization"
            }
          ], 
          "location": {
            "city": "Miami", 
            "zip": "33032", 
            "country": "United States", 
            "longitude": -80.436351000000002, 
            "state": "FL", 
            "street": "27500 Old Dixie", 
            "latitude": 25.511429
          }
        }, 
        {
          "category": "Church/religious organization", 
          "name": "One Voice Christian Church Of God, Mount Zion Assembly", 
          "id": "459332957474189", 
          "category_list": [
            {
              "id": "187714557925874", 
              "name": "Religious Organization"
            }
          ], 
          "location": {
            "city": "Blantyre", 
            "zip": "Chichiri ", 
            "country": "Malawi", 
            "longitude": 35.005800000000001, 
            "state": "", 
            "street": "Box 32213 ", 
            "latitude": -15.786099999999999
          }
        }, 
        {
          "category": "Company", 
          "name": "One Voice Studio", 
          "id": "149244581192", 
          "category_list": [
            {
              "id": "2200", 
              "name": "Company"
            }
          ], 
          "location": {
            "city": "Veenwouden", 
            "zip": "9269PE", 
            "country": "Netherlands", 
            "longitude": 5.9882534943971004, 
            "state": "", 
            "street": "", 
            "latitude": 53.236034710638997
          }
        }, 
        {
          "category": "Professional services", 
          "name": "One Voice Communications Inc.", 
          "id": "315651753503", 
          "category_list": [
            {
              "id": "367960506579477", 
              "name": "Arts & Marketing"
            }
          ], 
          "location": {
            "city": "Austin", 
            "zip": "78729", 
            "country": "United States", 
            "longitude": -97.780502999999996, 
            "state": "TX", 
            "street": "13279 Pond Springs Road Suite #5", 
            "latitude": 30.447251999999999
          }
        }, 
        {
          "category": "Non-profit organization", 
          "name": "One Voice Louisiana", 
          "id": "474318049289340", 
          "category_list": [
            {
              "id": "2603", 
              "name": "Non-Profit Organization"
            }
          ], 
          "location": {
            "city": "Baton Rouge", 
            "zip": "70811", 
            "country": "United States", 
            "longitude": -91.054057, 
            "state": "LA", 
            "street": "11606 Southfork #102", 
            "latitude": 30.420548
          }
        }, 
        {
          "category": "Company", 
          "name": "One voice proffessional actors and actresses", 
          "id": "246000348863938", 
          "category_list": [
            {
              "id": "2200", 
              "name": "Company"
            }
          ], 
          "location": {
            "city": "Kampala", 
            "zip": "", 
            "country": "Uganda", 
            "longitude": 32.581099999999999, 
            "state": "", 
            "street": "p.o.box,29560 kampala", 
            "latitude": 0.31359999999999999
          }
        }, 
        {
          "category": "Non-profit organization", 
          "name": "Mission One Voice", 
          "id": "248758961812375", 
          "category_list": [
            {
              "id": "180164648685982", 
              "name": "Bands & Musicians"
            }
          ], 
          "location": {
            "city": "Sunny Isles", 
            "zip": "33160", 
            "country": "United States", 
            "longitude": -80.126327000000003, 
            "state": "FL", 
            "street": "16950 north bay road ", 
            "latitude": 25.931443999999999
          }
        }, 
        {
          "category": "Non-profit organization", 
          "name": "Operation One Voice Special Ops Warrior Challenge", 
          "id": "129206543881881", 
          "category_list": [
            {
              "id": "2603", 
              "name": "Non-Profit Organization"
            }
          ], 
          "location": {
            "city": "Duluth", 
            "zip": "30096", 
            "country": "United States", 
            "longitude": -83.957383492999995, 
            "state": "GA", 
            "street": "", 
            "latitude": 34.1449486558
          }
        }, 
        {
          "category": "Education", 
          "name": "One Voice Institute of Elemental Ethics and Education", 
          "id": "315816195192929", 
          "category_list": [
            {
              "id": "187751327923426", 
              "name": "Educational Organization"
            }
          ], 
          "location": {
            "city": "Glenside", 
            "zip": "19038", 
            "country": "United States", 
            "longitude": -75.177611999999996, 
            "state": "PA", 
            "street": "7921 Deer Run Road", 
            "latitude": 40.097118000000002
          }
        }, 
        {
          "category": "Local business", 
          "name": "One Voice Computer Solutions", 
          "id": "511645368882596", 
          "category_list": [
            {
              "id": "108472109230615", 
              "name": "Computer Services"
            }, 
            {
              "id": "199512783398620", 
              "name": "Computer Store"
            }
          ], 
          "location": {
            "city": "Anantnag", 
            "zip": "192101", 
            "country": "India", 
            "longitude": 75.144785785674998, 
            "state": "", 
            "street": "opp. general bus stand  Anantnag", 
            "latitude": 33.739759602023
          }
        }, 
        {
          "category": "Organization", 
          "name": "One Voice Bible Club", 
          "id": "178371705530352", 
          "category_list": [
            {
              "id": "198503866828628", 
              "name": "Organization"
            }
          ], 
          "location": {
            "city": "Miami Lakes", 
            "zip": "33014", 
            "country": "United States", 
            "longitude": -80.294788999999994, 
            "state": "FL", 
            "street": "5780 nw 158th street, miami lakes, FL 33014", 
            "latitude": 25.916846
          }
        }, 
        {
          "category": "Church/religious organization", 
          "name": "One Voice on Spreading Jesus Word", 
          "id": "217114078461753", 
          "category_list": [
            {
              "id": "170386086340798", 
              "name": "Church of God"
            }
          ], 
          "location": {
            "city": "Dar es Salaam", 
            "zip": "255", 
            "country": "Tanzania", 
            "longitude": 39.283299999999997, 
            "state": "", 
            "street": "Dar es salaam", 
            "latitude": -6.7999999999999998
          }
        }, 
        {
          "category": "Community/government", 
          "name": "Voices of One", 
          "id": "268021523233512", 
          "category_list": [
            {
              "id": "188662441155211", 
              "name": "Community & Government"
            }
          ], 
          "location": {
            "city": "District Heights", 
            "zip": "20747", 
            "country": "United States", 
            "longitude": -76.894470999999996, 
            "state": "MD", 
            "street": "6437 Pennsylvania ave", 
            "latitude": 38.846063999999998
          }
        }, 
        {
          "category": "Local business", 
          "name": "One Voice Chorus", 
          "id": "166912159987254", 
          "category_list": [
            {
              "id": "178669642178193", 
              "name": "Social Services"
            }
          ], 
          "location": {
            "city": "Charlotte", 
            "zip": "28206-2924", 
            "country": "United States", 
            "longitude": -80.846247000000005, 
            "state": "NC", 
            "street": "820 Hamilton St", 
            "latitude": 35.239387000000001
          }
        }, 
        {
          "category": "Community organization", 
          "name": "One Voice Youth Advocacy Project", 
          "id": "369038269872550", 
          "category_list": [
            {
              "id": "152880021441864", 
              "name": "Community Organization"
            }
          ], 
          "location": {
            "city": "Wolverhampton", 
            "zip": "WV1 4EG", 
            "country": "United Kingdom", 
            "longitude": -2.1343447909006001, 
            "state": "", 
            "street": "One Voice, Regent House, Bath Avenue ", 
            "latitude": 52.588383861145999
          }
        }, 
        {
          "category": "Local business", 
          "name": "One Voice Church", 
          "id": "104923206217750", 
          "category_list": [
            {
              "id": "192134360811676", 
              "name": "Church"
            }
          ], 
          "location": {
            "city": "Lynn", 
            "zip": "01901-1336", 
            "country": "United States", 
            "longitude": -70.941320000000005, 
            "state": "MA", 
            "street": "140 Union St", 
            "latitude": 42.466939000000004
          }
        }, 
        {
          "category": "Local business", 
          "name": "ONE VOICE FOR GROWTH", 
          "id": "123566174349258", 
          "category_list": [
            {
              "id": "2500", 
              "name": "Local Business"
            }
          ], 
          "location": {
            "city": "Coronado", 
            "zip": "92118", 
            "country": "United States", 
            "longitude": -117.17353799999999, 
            "state": "CA", 
            "street": "545 B Ave.", 
            "latitude": 32.691127999999999
          }
        }, 
        {
          "category": "Organization", 
          "name": "One Voice One Million", 
          "id": "143460825671470", 
          "category_list": [
            {
              "id": "198503866828628", 
              "name": "Organization"
            }
          ], 
          "location": {
            "city": "Alexander City", 
            "zip": "35010", 
            "country": "United States", 
            "longitude": -85.950514999999996, 
            "state": "AL", 
            "street": "2036 Cherokee Road Suite 193", 
            "latitude": 32.918036000000001
          }
        }, 
        {
          "category": "Professional services", 
          "name": "One Voice Photography and Studio", 
          "id": "171614012939187", 
          "category_list": [
            {
              "id": "176831012360626", 
              "name": "Professional Services"
            }
          ], 
          "location": {
            "city": "Boise", 
            "zip": "83704", 
            "country": "United States", 
            "longitude": -116.260857, 
            "state": "ID", 
            "street": "1708 N Liberty Dr", 
            "latitude": 43.620243000000002
          }
        }, 
        {
          "category": "Non-profit organization", 
          "name": "One Voice Recovery Community Center of Dundalk", 
          "id": "290340991078518", 
          "category_list": [
            {
              "id": "2603", 
              "name": "Non-Profit Organization"
            }
          ], 
          "location": {
            "city": "Dundalk", 
            "zip": "21222", 
            "country": "United States", 
            "longitude": -76.522094999999993, 
            "state": "MD", 
            "street": "63 Shipping Place Suite # 221", 
            "latitude": 39.256850999999997
          }
        }, 
        {
          "category": "Education", 
          "name": "One Voice HCCS Spiritual Leadership Symposiums", 
          "id": "336593653038568", 
          "category_list": [
            {
              "id": "199797140033948", 
              "name": "Educational Consultant"
            }
          ], 
          "location": {
            "city": "North Miami", 
            "zip": "33161", 
            "country": "United States", 
            "longitude": -80.176154999999994, 
            "state": "FL", 
            "street": "1125 North East 125th, Street- Suite 103", 
            "latitude": 25.891186000000001
          }
        }, 
        {
          "category": "Non-profit organization", 
          "name": "One Voice Network Inc", 
          "id": "499293626751727", 
          "category_list": [
            {
              "id": "296862927058877", 
              "name": "Community Center"
            }, 
            {
              "id": "132328993501399", 
              "name": "Counseling & Mental Health"
            }
          ], 
          "location": {
            "city": "Mannum", 
            "zip": "5238", 
            "country": "Australia", 
            "longitude": 139.31791250000001, 
            "state": "SA", 
            "street": "47 Purnong Rd", 
            "latitude": -34.906325589113997
          }
        }, 
        {
          "category": "Education", 
          "name": "ONE VOICE MUSIC Vocals & Instrument Performance", 
          "id": "578302048878123", 
          "category_list": [
            {
              "id": "186983191324114", 
              "name": "Music Lessons & Instruction"
            }
          ], 
          "location": {
            "city": "Doral", 
            "zip": "33178", 
            "country": "United States", 
            "longitude": -80.339821000000001, 
            "state": "FL", 
            "street": " 8855 NW 35th Ln", 
            "latitude": 25.807683999999998
          }
        }, 
        {
          "category": "Local business", 
          "name": "One Voice Advertising Concept", 
          "id": "110304115701122", 
          "category_list": [
            {
              "id": "176831012360626", 
              "name": "Professional Services"
            }
          ], 
          "location": {
            "city": "McHenry", 
            "zip": "60050-7012", 
            "country": "United States", 
            "longitude": -88.285944000000001, 
            "state": "IL", 
            "street": "659 Ridgeview Dr", 
            "latitude": 42.318983000000003
          }
        }, 
        {
          "category": "Local business", 
          "name": "One Voice Insurance Services", 
          "id": "157776650922874", 
          "category_list": [
            {
              "id": "109594239116608", 
              "name": "Insurance Broker"
            }
          ], 
          "location": {
            "city": "Redondo Beach", 
            "zip": "90278-4414", 
            "country": "United States", 
            "longitude": -118.367699, 
            "state": "CA", 
            "street": "2409 Huntington Ln", 
            "latitude": 33.868304999999999
          }
        }, 
        {
          "category": "Local business", 
          "name": "One Voice Communications", 
          "id": "162782170408049", 
          "category_list": [
            {
              "id": "210979565595898", 
              "name": "Mobile Phone Shop"
            }
          ], 
          "location": {
            "city": "Miami", 
            "zip": "33186-5807", 
            "country": "United States", 
            "longitude": -80.410706000000005, 
            "state": "FL", 
            "street": "13396 SW 128th St", 
            "latitude": 25.648031
          }
        }, 
        {
          "category": "Club", 
          "name": "One Voice Sports", 
          "id": "685569624798496", 
          "category_list": [
            {
              "id": "189018581118681", 
              "name": "Sports Club"
            }
          ], 
          "location": {
            "city": "El Paso", 
            "zip": "79924", 
            "country": "United States", 
            "longitude": -106.43879699999999, 
            "state": "TX", 
            "street": "8000 Dyer St ", 
            "latitude": 31.852675999999999
          }
        }, 
        {
          "category": "Organization", 
          "name": "One Woman One Voice Project", 
          "id": "457678430933873", 
          "category_list": [
            {
              "id": "215343825145859", 
              "name": "Social Club"
            }, 
            {
              "id": "296862927058877", 
              "name": "Community Center"
            }, 
            {
              "id": "185900881450649", 
              "name": "Personal Coaching"
            }
          ], 
          "location": {
            "city": "Solebury", 
            "zip": "18963", 
            "country": "United States", 
            "longitude": -75.008600000000001, 
            "state": "PA", 
            "street": "PO Box 371", 
            "latitude": 40.380600000000001
          }
        }, 
        {
          "category": "Local business", 
          "name": "Communications One Voice", 
          "id": "159184350781464", 
          "category_list": [
            {
              "id": "210979565595898", 
              "name": "Mobile Phone Shop"
            }
          ], 
          "location": {
            "city": "Herndon", 
            "zip": "20171-3254", 
            "country": "United States", 
            "longitude": -77.428116000000003, 
            "state": "VA", 
            "street": "13900 Lincoln Park Dr", 
            "latitude": 38.926121000000002
          }
        }, 
        {
          "category": "Education", 
          "name": "Inclusive Illinois: One Campus, Many Voices", 
          "id": "138744632952699", 
          "category_list": [
            {
              "id": "151676848220295", 
              "name": "Education"
            }
          ], 
          "location": {
            "city": "Champaign", 
            "zip": "61820", 
            "country": "United States", 
            "longitude": -88.230186000000003, 
            "state": "IL", 
            "street": "601 East John Street ", 
            "latitude": 40.108981999999997
          }
        }, 
        {
          "category": "Telecommunication", 
          "name": "Clear Voice One", 
          "id": "194451800720536", 
          "category_list": [
            {
              "id": "187215161312096", 
              "name": "Internet Service Provider"
            }, 
            {
              "id": "179672275401610", 
              "name": "Business Consultant"
            }, 
            {
              "id": "108472109230615", 
              "name": "Computer Services"
            }
          ], 
          "location": {
            "city": "Troy", 
            "zip": "45373", 
            "country": "United States", 
            "longitude": -84.193984999999998, 
            "state": "OH", 
            "street": "924 E Main ST", 
            "latitude": 40.034709999999997
          }
        }, 
        {
          "category": "Community organization", 
          "name": "One KC Voice", 
          "id": "58688505893", 
          "category_list": [
            {
              "id": "152880021441864", 
              "name": "Community Organization"
            }
          ], 
          "location": {
            "city": "Kansas City", 
            "zip": "64105", 
            "country": "United States", 
            "longitude": -94.588393999999994, 
            "state": "MO", 
            "street": "600 Broadway St., Suite 200", 
            "latitude": 39.106152000000002
          }
        }, 
        {
          "category": "Community organization", 
          "name": "One Christian Voice", 
          "id": "469554759755863", 
          "category_list": [
            {
              "id": "152880021441864", 
              "name": "Community Organization"
            }
          ], 
          "location": {
            "city": "Palm Beach Gardens", 
            "zip": "33410", 
            "country": "United States", 
            "longitude": -80.076126000000002, 
            "state": "FL", 
            "street": "8 Princewood Ln", 
            "latitude": 26.869012999999999
          }
        }, 
        {
          "category": "Telecommunication", 
          "name": "One Stop Voice", 
          "id": "149346631767659", 
          "category_list": [
            {
              "id": "2253", 
              "name": "Telecommunication"
            }
          ], 
          "location": {
            "city": "Scottsdale", 
            "zip": "85250", 
            "country": "United States", 
            "longitude": -111.924935, 
            "state": "AZ", 
            "street": "5111 N. Scottsdale Rd. Suite 200", 
            "latitude": 33.511775
          }
        }, 
        {
          "category": "Media/news/publishing", 
          "name": "Oneness Voices.fm - Radio for Oneness", 
          "id": "229161913899288", 
          "category_list": [
            {
              "id": "215343825145859", 
              "name": "Social Club"
            }
          ], 
          "location": {
            "city": "Kyiv", 
            "zip": "03070", 
            "country": "Ukraine", 
            "longitude": 30.515696991868001, 
            "street": "", 
            "latitude": 50.460981913067997
          }
        }, 
        {
          "category": "Non-profit organization", 
          "name": "One World One Voice", 
          "id": "165176701167", 
          "category_list": [
            {
              "id": "2603", 
              "name": "Non-Profit Organization"
            }
          ], 
          "location": {
            "city": "San Francisco", 
            "zip": "94104", 
            "country": "United States", 
            "longitude": -122.401161, 
            "state": "CA", 
            "street": "225 Bush Street, 16th Floor", 
            "latitude": 37.790840000000003
          }
        }, 
        {
          "category": "Government organization", 
          "name": "One Hounslow Many Voices", 
          "id": "145401162162631", 
          "category_list": [
            {
              "id": "161422927240513", 
              "name": "Government Organization"
            }
          ], 
          "location": {
            "city": "Hounslow", 
            "zip": "TW3 4DN", 
            "country": "United Kingdom", 
            "longitude": -0.36681999999999998, 
            "state": "", 
            "street": "Civic Centre, Lampton Road", 
            "latitude": 51.469850000000001
          }
        }, 
        {
          "category": "Non-profit organization", 
          "name": "Many Languages One Voice", 
          "id": "251422484901646", 
          "category_list": [
            {
              "id": "2603", 
              "name": "Non-Profit Organization"
            }
          ], 
          "location": {
            "city": "Washington", 
            "zip": "20010", 
            "country": "United States", 
            "longitude": -77.038291999999998, 
            "state": "DC", 
            "street": "3166 Mount Pleasant St. NW", 
            "latitude": 38.930405
          }
        }, 
        {
          "category": "Media/news/publishing", 
          "name": "Air Voice One", 
          "id": "303784416319038", 
          "category_list": [
            {
              "id": "2233", 
              "name": "Media/News/Publishing"
            }
          ], 
          "location": {
            "city": "Cape Coral", 
            "zip": "33914", 
            "country": "United States", 
            "longitude": -82.008595, 
            "state": "FL", 
            "street": "5793 Cape Harbour Drive #919 ", 
            "latitude": 26.545477000000002
          }
        }, 
        {
          "category": "Organization", 
          "name": "One World. One Vision. One Voice", 
          "id": "151687774889743", 
          "category_list": [
            {
              "id": "198503866828628", 
              "name": "Organization"
            }
          ], 
          "location": {
            "city": "London", 
            "zip": "", 
            "country": "United Kingdom", 
            "longitude": -0.1275, 
            "state": "", 
            "street": "Global", 
            "latitude": 51.507199999999997
          }
        }, 
        {
          "category": "Community organization", 
          "name": "All Cultures One Voice", 
          "id": "472514866185833", 
          "category_list": [
            {
              "id": "152880021441864", 
              "name": "Community Organization"
            }
          ], 
          "location": {
            "city": "Longmont", 
            "zip": "80503", 
            "country": "United States", 
            "longitude": -105.166836, 
            "state": "CO", 
            "street": "4901 Nelson Road", 
            "latitude": 40.149422000000001
          }
        }, 
        {
          "category": "Professional services", 
          "name": "The Voice of One", 
          "id": "169903523088156", 
          "category_list": [
            {
              "id": "145118935550090", 
              "name": "Medical & Health"
            }
          ], 
          "location": {
            "city": "Baltimore", 
            "zip": "21218", 
            "country": "United States", 
            "longitude": -76.614761000000001, 
            "state": "MD", 
            "street": "2101 St. Paul St.", 
            "latitude": 39.313434999999998
          }
        }, 
        {
          "category": "Professional services", 
          "name": "One Tru Voice Inc.", 
          "id": "269348639755310", 
          "category_list": [
            {
              "id": "176831012360626", 
              "name": "Professional Services"
            }
          ], 
          "location": {
            "city": "Houston", 
            "zip": "77060", 
            "country": "United States", 
            "longitude": -95.243307999999999, 
            "state": "TX", 
            "street": "9700 Almeda Genoa #403", 
            "latitude": 29.625995
          }
        }, 
        {
          "category": "Local business", 
          "name": "One Poeple One Voice One Purpose One Choice", 
          "id": "192688374120435", 
          "category_list": [
            {
              "id": "2500", 
              "name": "Local Business"
            }
          ], 
          "location": {
            "city": "Fairless Hills", 
            "zip": "19030", 
            "country": "United States", 
            "longitude": -74.855277999999998, 
            "state": "PA", 
            "street": "119 winfield ct", 
            "latitude": 40.171306999999999
          }
        }, 
        {
          "category": "Community organization", 
          "name": "One True Voice Women's Organisation", 
          "id": "189643557736789", 
          "category_list": [
            {
              "id": "152880021441864", 
              "name": "Community Organization"
            }
          ], 
          "location": {
            "city": "London", 
            "zip": "N7 7RJ", 
            "country": "United Kingdom", 
            "longitude": -0.11201208971899999, 
            "state": "", 
            "street": "Andover Community Centre, Corker Walk (off Heather Close)", 
            "latitude": 51.561788331000002
          }
        }, 
        {
          "category": "Non-profit organization", 
          "name": "One Small Voice Foundation", 
          "id": "286956729901", 
          "category_list": [
            {
              "id": "2603", 
              "name": "Non-Profit Organization"
            }
          ], 
          "location": {
            "city": "Elmhurst", 
            "zip": "60126", 
            "country": "United States", 
            "longitude": -87.933664815599997, 
            "state": "IL", 
            "street": "P.O. Box 644", 
            "latitude": 41.890184255400001
          }
        }, 
        {
          "category": "Church/religious organization", 
          "name": "The Voice of One Ministry", 
          "id": "126184054094959", 
          "category_list": [
            {
              "id": "187714557925874", 
              "name": "Religious Organization"
            }
          ], 
          "location": {
            "city": "Southfield", 
            "zip": "48033", 
            "country": "United States", 
            "longitude": -83.277842000000007, 
            "state": "MI", 
            "street": "23800 W. Ten Mile Road #208", 
            "latitude": 42.472706000000002
          }
        }, 
        {
          "category": "Local business", 
          "name": "Voice Mail One Corp", 
          "id": "159101007444720", 
          "category_list": [
            {
              "id": "2500", 
              "name": "Local Business"
            }
          ], 
          "location": {
            "city": "Pittsford", 
            "zip": "14534-1909", 
            "country": "United States", 
            "longitude": -77.515799999999999, 
            "state": "NY", 
            "street": "11 S Main St", 
            "latitude": 43.090637000000001
          }
        }, 
        {
          "category": "Non-profit organization", 
          "name": "\uff13\uff18\u4e07\u4eba\u306e\u672a\u6765\u306b\u3064\u306a\u304c\u308b\uff4f\uff4e\uff45\u3000\uff56\uff4f\uff49\uff43\uff45", 
          "id": "152171984966047", 
          "category_list": [
            {
              "id": "2603", 
              "name": "Non-Profit Organization"
            }
          ], 
          "location": {
            "city": "Toyohashi-shi", 
            "zip": "440-0075", 
            "country": "Japan", 
            "longitude": 137.38560000000001, 
            "state": "Aichi", 
            "street": "\u82b1\u7530\u753a\u77f3\u585a42-1", 
            "latitude": 34.764099999999999
          }
        }, 
        {
          "category": "Media/news/publishing", 
          "name": "Voice of One Online www.voiceofoneonline.com", 
          "id": "242591559087344", 
          "category_list": [
            {
              "id": "2233", 
              "name": "Media/News/Publishing"
            }
          ], 
          "location": {
            "city": "Sicklerville", 
            "zip": "08081", 
            "country": "United States", 
            "longitude": -74.920599999999993, 
            "state": "NJ", 
            "street": "PO Box 193", 
            "latitude": 39.713920000000002
          }
        }, 
        {
          "category": "Local business", 
          "name": "One Strong Voice Productions", 
          "id": "44364709795", 
          "category_list": [
            {
              "id": "2500", 
              "name": "Local Business"
            }
          ], 
          "location": {
            "city": "Providence", 
            "zip": "02908", 
            "country": "United States", 
            "longitude": -71.423523000000003, 
            "state": "RI", 
            "street": "146 Cornwall Street", 
            "latitude": 41.847499999999997
          }
        }, 
        {
          "category": "Local business", 
          "name": "Voice One Message Services", 
          "id": "102822059784156", 
          "category_list": [
            {
              "id": "2500", 
              "name": "Local Business"
            }
          ], 
          "location": {
            "city": "Germantown", 
            "zip": "38138-7841", 
            "country": "United States", 
            "longitude": -89.761627000000004, 
            "state": "TN", 
            "street": "9030 S Corporate Edge Dr", 
            "latitude": 35.063876999999998
          }
        }, 
        {
          "category": "Local business", 
          "name": "Call One - obecnie Voice Contact Center Sp. z o.o.", 
          "id": "179097848787495", 
          "category_list": [
            {
              "id": "2500", 
              "name": "Local Business"
            }
          ], 
          "location": {
            "city": "Warsaw", 
            "zip": "02-678", 
            "country": "Poland", 
            "longitude": 21.013621994181001, 
            "state": "", 
            "street": "ul. Szturmowa 2", 
            "latitude": 52.170751748047998
          }
        }, 
        {
          "category": "Business services", 
          "name": "Voice One Communications Inc", 
          "id": "275044195965185", 
          "category_list": [
            {
              "id": "108472109230615", 
              "name": "Computer Services"
            }
          ], 
          "location": {
            "city": "Concord", 
            "zip": "28025", 
            "country": "United States", 
            "longitude": -80.596123000000006, 
            "state": "NC", 
            "street": "5744 Heron Point Place SW", 
            "latitude": 35.337288000000001
          }
        }, 
        {
          "category": "Business services", 
          "name": "Your voice is the sexiest one i've ever heard", 
          "id": "259900680812717", 
          "category_list": [
            {
              "id": "187133811318958", 
              "name": "Business Services"
            }
          ], 
          "location": {
            "city": "Karachi", 
            "zip": "0123456789", 
            "country": "Pakistan", 
            "longitude": 67.010000000000005, 
            "state": "", 
            "street": "karachi ", 
            "latitude": 24.859999999999999
          }
        }, 
        {
          "category": "Non-profit organization", 
          "name": "OneVoice International Ministries, Inc.", 
          "id": "127704577263789", 
          "category_list": [
            {
              "id": "2603", 
              "name": "Non-Profit Organization"
            }
          ], 
          "location": {
            "city": "Southaven", 
            "zip": "38671", 
            "country": "United States", 
            "longitude": -89.982939999999999, 
            "state": "MS", 
            "street": "PO Box 342", 
            "latitude": 34.984549999999999
          }
        }, 
        {
          "category": "Non-profit organization", 
          "name": "Military Officers Association of America (MOAA)", 
          "id": "28446275521", 
          "category_list": [
            {
              "id": "198503866828628", 
              "name": "Organization"
            }
          ], 
          "location": {
            "city": "Alexandria", 
            "zip": "22314", 
            "country": "United States", 
            "longitude": -77.046370999999994, 
            "state": "VA", 
            "street": "201 N Washington St", 
            "latitude": 38.806418999999998
          }
        }, 
        {
          "category": "Local business", 
          "name": "Carl Williams One Voice Music Music of Legends", 
          "id": "243917315664190", 
          "category_list": [
            {
              "id": "2500", 
              "name": "Local Business"
            }
          ], 
          "location": {
            "city": "Winchester", 
            "zip": "89109", 
            "country": "United States", 
            "longitude": -115.1589908, 
            "state": "NV", 
            "street": "", 
            "latitude": 36.1319193
          }
        }, 
        {
          "category": "Small business", 
          "name": "Voice of Oneness", 
          "id": "128505310519156", 
          "category_list": [
            {
              "id": "2237", 
              "name": "Small Business"
            }
          ], 
          "location": {
            "city": "Temecula", 
            "zip": "92591", 
            "country": "United States", 
            "longitude": -117.152074, 
            "state": "CA", 
            "street": "27393 Ynez Rd. Suite 261", 
            "latitude": 33.506804000000002
          }
        }
      ]
    }
  }, 
  {
    "business_name": "Tom's Thumb Trail", 
    "business_id": "8aXm2jhtITo2eCWBzz7Txg", 
    "fb_pages": {
      "paging": {
        "next": "https://graph.facebook.com/search?type=place&access_token=229546593895315|yPLlHqq6YvDLIH4nL0kjJtIFSlU&limit=5000&offset=5000&__after_id=486381258143232"
      }, 
      "data": [
        {
          "category": "Local business", 
          "name": "Tom's Thumb Trail", 
          "id": "122680591225980", 
          "category_list": [
            {
              "id": "115090141929327", 
              "name": "Park"
            }, 
            {
              "id": "194201147294761", 
              "name": "Mountain"
            }
          ], 
          "location": {
            "city": "Scottsdale", 
            "zip": "85255", 
            "country": "United States", 
            "longitude": -111.832367611, 
            "state": "AZ", 
            "street": "", 
            "latitude": 33.706585272200002
          }
        }, 
        {
          "category": "Local business", 
          "name": "McDowell Sonoran Conservancy - Tom's Thumb Trailhead", 
          "id": "486381258143232", 
          "category_list": [
            {
              "id": "115090141929327", 
              "name": "Park"
            }
          ], 
          "location": {
            "city": "Scottsdale", 
            "zip": "85255", 
            "country": "United States", 
            "longitude": -111.804542, 
            "state": "AZ", 
            "street": "23015 N. 128th St.", 
            "latitude": 33.694685
          }
        }
      ]
    }
  }, 
  {
    "business_name": "Hail Mary's On Priest", 
    "business_id": "Umg9N8SFHm_B53uetHH8JA", 
    "fb_pages": {
      "data": []
    }
  }, 
  {
    "business_name": "Yogurt Mart", 
    "business_id": "IDPhqF84JUB7UWV8YGw76g", 
    "fb_pages": {
      "paging": {
        "next": "https://graph.facebook.com/search?type=place&access_token=229546593895315|yPLlHqq6YvDLIH4nL0kjJtIFSlU&limit=5000&offset=5000&__after_id=162126650622553"
      }, 
      "data": [
        {
          "category": "Restaurant/cafe", 
          "name": "Daydream yogurt", 
          "id": "357232064312331", 
          "category_list": [
            {
              "id": "273819889375819", 
              "name": "Restaurant"
            }
          ], 
          "location": {
            "city": "Martin", 
            "zip": "38237", 
            "country": "United States", 
            "longitude": -88.858281154851994, 
            "state": "TN", 
            "street": "315A university street", 
            "latitude": 36.343365740395001
          }
        }, 
        {
          "category": "Local business", 
          "name": "Ians Yogurt", 
          "id": "148527395171726", 
          "category_list": [
            {
              "id": "187153754656815", 
              "name": "Dessert Restaurant"
            }
          ], 
          "location": {
            "city": "Martinez", 
            "zip": "94553", 
            "country": "United States", 
            "longitude": -122.12033880775, 
            "state": "CA", 
            "street": "530 Center Ave", 
            "latitude": 37.992088741524
          }
        }, 
        {
          "category": "Restaurant/cafe", 
          "name": "TCBY  Martin Luther King Boulevard", 
          "id": "114363955257573", 
          "category_list": [
            {
              "id": "215290398491661", 
              "name": "Frozen Yogurt Shop"
            }
          ], 
          "location": {
            "city": "Austin", 
            "zip": "787011218", 
            "country": "United States", 
            "longitude": -97.740788607284998, 
            "state": "TX", 
            "street": "303 W Martin Luther King Jr Bl", 
            "latitude": 30.281259480814001
          }
        }, 
        {
          "category": "Restaurant/cafe", 
          "name": "Orange Leaf Martinsville", 
          "id": "1399153316979783", 
          "category_list": [
            {
              "id": "215290398491661", 
              "name": "Frozen Yogurt Shop"
            }
          ], 
          "location": {
            "city": "Martinsville", 
            "zip": "46151", 
            "country": "United States", 
            "longitude": -86.408233999999993, 
            "state": "IN", 
            "street": "363 Grand Valley Boulevard ", 
            "latitude": 39.416454999999999
          }
        }, 
        {
          "category": "Food/grocery", 
          "name": "Brendy's Yogurt and Ice Cream/Mini-Mart", 
          "id": "260775303956477", 
          "category_list": [
            {
              "id": "150108431712141", 
              "name": "Food & Grocery"
            }
          ], 
          "location": {
            "city": "Boca Raton", 
            "zip": "33498", 
            "country": "United States", 
            "longitude": -80.205758000000003, 
            "state": "FL", 
            "street": "10075 Yamato Road Suite 1", 
            "latitude": 26.395295000000001
          }
        }, 
        {
          "category": "Local business", 
          "name": "Sweet Frogs", 
          "id": "182584181860901", 
          "category_list": [
            {
              "id": "215290398491661", 
              "name": "Frozen Yogurt Shop"
            }, 
            {
              "id": "200863816597800", 
              "name": "Ice Cream Parlor"
            }
          ], 
          "location": {
            "city": "Martinsburg", 
            "zip": "25428", 
            "country": "United States", 
            "longitude": -77.990816969996004, 
            "state": "WV", 
            "street": "", 
            "latitude": 39.439791712655001
          }
        }, 
        {
          "category": "Local business", 
          "name": "TCBY  Tiger Mart Exxon", 
          "id": "104071096448156", 
          "category_list": [
            {
              "id": "215290398491661", 
              "name": "Frozen Yogurt Shop"
            }
          ], 
          "location": {
            "city": "Lakeland", 
            "zip": "380029722", 
            "country": "United States", 
            "longitude": -89.735839999999996, 
            "state": "TN", 
            "street": "3548 Canada Rd                Tugwell Oil Company Inc.", 
            "latitude": 35.222572
          }
        }, 
        {
          "category": "Local business", 
          "name": "TCBY  KMart Shopping Center", 
          "id": "500102280048537", 
          "category_list": [
            {
              "id": "215290398491661", 
              "name": "Frozen Yogurt Shop"
            }
          ], 
          "location": {
            "city": "Muskegon", 
            "zip": "494414356", 
            "country": "United States", 
            "longitude": -86.263272999999998, 
            "state": "MI", 
            "street": "3468 Henry St", 
            "latitude": 43.188395999999997
          }
        }, 
        {
          "category": "Restaurant/cafe", 
          "name": "Yoyo Twist", 
          "id": "297028513749193", 
          "category_list": [
            {
              "id": "215290398491661", 
              "name": "Frozen Yogurt Shop"
            }
          ], 
          "location": {
            "city": "Martinsburg", 
            "zip": "25404", 
            "country": "United States", 
            "longitude": -77.957138, 
            "state": "WV", 
            "street": "1343 Edwin Miller Blvd", 
            "latitude": 39.478850999999999
          }
        }, 
        {
          "category": "Restaurant/cafe", 
          "name": "My Yog'Ice", 
          "id": "388355697977024", 
          "category_list": [
            {
              "id": "215290398491661", 
              "name": "Frozen Yogurt Shop"
            }, 
            {
              "id": "166339023413399", 
              "name": "Ice Machines"
            }
          ], 
          "location": {
            "city": "Trinit\u00e9", 
            "zip": "97220", 
            "country": "Martinique", 
            "longitude": -60.966700000000003, 
            "street": "Front de Mer de Trinit\u00e9, pr\u00e8s de la place, face au jet d'eau : 24 rue Pierre et Maurice R\u00e9jon", 
            "latitude": 14.7333
          }
        }, 
        {
          "category": "Restaurant/cafe", 
          "name": "Hoosier Frozen Yogurt/burton ln marathon", 
          "id": "126278604200619", 
          "category_list": [
            {
              "id": "273819889375819", 
              "name": "Restaurant"
            }
          ], 
          "location": {
            "city": "Martinsville", 
            "zip": "46151", 
            "country": "United States", 
            "longitude": -86.437607, 
            "state": "IN", 
            "street": "2180 Burton Ln", 
            "latitude": 39.406311000000002
          }
        }, 
        {
          "category": "Local business", 
          "name": "Sweet Frog premium yogurt", 
          "id": "221443971295441", 
          "category_list": [
            {
              "id": "2500", 
              "name": "Local Business"
            }
          ], 
          "location": {
            "city": "Martinsburg", 
            "zip": "25428", 
            "country": "United States", 
            "longitude": -77.990950389999995, 
            "state": "WV", 
            "street": "", 
            "latitude": 39.439730650000001
          }
        }, 
        {
          "category": "Local business", 
          "name": "Sweet Frosty", 
          "id": "162126650622553", 
          "category_list": [
            {
              "id": "215290398491661", 
              "name": "Frozen Yogurt Shop"
            }
          ], 
          "location": {
            "city": "Martinsburg", 
            "zip": "25404", 
            "country": "United States", 
            "longitude": -77.908399000000003, 
            "state": "WV", 
            "street": "5605 Hammonds Mill Rd Suite#B ", 
            "latitude": 39.545031000000002
          }
        }
      ]
    }
  }, 
  {
    "business_name": "Sunland Auto Service", 
    "business_id": "ftd9rD_hN8V5WGGWDv5LWw", 
    "fb_pages": {
      "paging": {
        "next": "https://graph.facebook.com/search?type=place&access_token=229546593895315|yPLlHqq6YvDLIH4nL0kjJtIFSlU&limit=5000&offset=5000&__after_id=117340451660905"
      }, 
      "data": [
        {
          "category": "Local business", 
          "name": "Sunland Auto Service", 
          "id": "155256871181050", 
          "category_list": [
            {
              "id": "182575511780536", 
              "name": "Car Parts & Accessories"
            }, 
            {
              "id": "196357563722974", 
              "name": "Oil Lube & Filter Service"
            }, 
            {
              "id": "149998721725634", 
              "name": "Automotive Repair"
            }
          ], 
          "location": {
            "city": "Mesa", 
            "zip": "85204-1904", 
            "country": "United States", 
            "longitude": -111.75488300000001, 
            "state": "AZ", 
            "street": "3530 E Broadway Rd", 
            "latitude": 33.408679999999997
          }
        }, 
        {
          "category": "Local business", 
          "name": "Ortiz Auto Service", 
          "id": "117340451660905", 
          "category_list": [
            {
              "id": "131962450204676", 
              "name": "Car Dealership"
            }, 
            {
              "id": "149998721725634", 
              "name": "Automotive Repair"
            }
          ], 
          "location": {
            "city": "Sunland Park", 
            "zip": "88063", 
            "country": "United States", 
            "longitude": -106.558671, 
            "state": "NM", 
            "street": "1124 Mcnutt Rd", 
            "latitude": 31.795555
          }
        }
      ]
    }
  }, 
  {
    "business_name": "Trailer Park Restaurant", 
    "business_id": "yi5pFL1xhnMUH0BZb8xNUw", 
    "fb_pages": {
      "paging": {
        "next": "https://graph.facebook.com/search?type=place&access_token=229546593895315|yPLlHqq6YvDLIH4nL0kjJtIFSlU&limit=5000&offset=5000&__after_id=166105513444225"
      }, 
      "data": [
        {
          "category": "Local business", 
          "name": "Trailer Park Lounge", 
          "id": "435934433168238", 
          "category_list": [
            {
              "id": "165679780146824", 
              "name": "Food & Restaurant"
            }, 
            {
              "id": "110290705711626", 
              "name": "Bar"
            }
          ], 
          "location": {
            "city": "New York", 
            "zip": "10011", 
            "country": "United States", 
            "longitude": -73.998139468016007, 
            "state": "NY", 
            "street": "", 
            "latitude": 40.745193326079999
          }
        }, 
        {
          "category": "Restaurant/cafe", 
          "name": "Trailer Park", 
          "id": "529086300482429", 
          "category_list": [
            {
              "id": "224426430990363", 
              "name": "Food Truck"
            }, 
            {
              "id": "110290705711626", 
              "name": "Bar"
            }, 
            {
              "id": "203743122984241", 
              "name": "Beer Garden"
            }
          ], 
          "location": {
            "city": "Melbourne", 
            "zip": "3004", 
            "country": "Australia", 
            "longitude": 144.98095816924999, 
            "state": "VIC", 
            "street": "", 
            "latitude": -37.847606374771999, 
            "located_in": 383161455071674
          }
        }, 
        {
          "category": "Local business", 
          "name": "South Austin Trailer Park & Eatery", 
          "id": "122011831181549", 
          "category_list": [
            {
              "id": "273819889375819", 
              "name": "Restaurant"
            }, 
            {
              "id": "144362285623268", 
              "name": "Food Stand"
            }, 
            {
              "id": "224426430990363", 
              "name": "Food Truck"
            }
          ], 
          "location": {
            "city": "Austin", 
            "zip": "78704", 
            "country": "United States", 
            "longitude": -97.754319936225997, 
            "state": "TX", 
            "street": "1207 South 1st Street", 
            "latitude": 30.251147952265999
          }
        }, 
        {
          "category": "Restaurant/cafe", 
          "name": "East Side Drive In Food Trailer Park", 
          "id": "283134681729044", 
          "category_list": [
            {
              "id": "273819889375819", 
              "name": "Restaurant"
            }
          ], 
          "location": {
            "city": "Austin", 
            "zip": "78702", 
            "country": "United States", 
            "longitude": -97.730762941799995, 
            "state": "TX", 
            "street": "1001 E 6th St", 
            "latitude": 30.264669547499999
          }
        }, 
        {
          "category": "Local business", 
          "name": "The Yellowstone Mine Restaurant", 
          "id": "111178912264868", 
          "category_list": [
            {
              "id": "273819889375819", 
              "name": "Restaurant"
            }, 
            {
              "id": "197384240287028", 
              "name": "Art Gallery"
            }, 
            {
              "id": "161811347201528", 
              "name": "Lodging"
            }
          ], 
          "location": {
            "city": "Rocky Mountain Trailer Park", 
            "zip": "59030", 
            "country": "United States", 
            "longitude": -110.71555530899001, 
            "state": "MT", 
            "street": "", 
            "latitude": 45.035792353913997
          }
        }, 
        {
          "category": "Restaurant/cafe", 
          "name": "Trailer Park'd \"Slow\" Fast Food", 
          "id": "168460736524768", 
          "category_list": [
            {
              "id": "224426430990363", 
              "name": "Food Truck"
            }, 
            {
              "id": "273819889375819", 
              "name": "Restaurant"
            }
          ], 
          "location": {
            "city": "Lansing", 
            "zip": "48915", 
            "country": "United States", 
            "longitude": -84.549514843300003, 
            "state": "MI", 
            "street": "Farmer's Markets", 
            "latitude": 42.7466193725
          }
        }, 
        {
          "category": "Local business", 
          "name": "When Pigs Fly", 
          "id": "195260590509496", 
          "category_list": [
            {
              "id": "273819889375819", 
              "name": "Restaurant"
            }, 
            {
              "id": "191334337551378", 
              "name": "Restaurant Wholesale"
            }, 
            {
              "id": "187827497907070", 
              "name": "Bakery"
            }
          ], 
          "location": {
            "city": "Cain Crest Trailer Park", 
            "zip": "03904", 
            "country": "United States", 
            "longitude": -70.715135074006, 
            "state": "ME", 
            "street": "", 
            "latitude": 43.123143834418997
          }
        }, 
        {
          "category": "Local business", 
          "name": "Hollywood Casino Hotel spa sports bar buffett steak house and Trailer Park!", 
          "id": "101773589915588", 
          "category_list": [
            {
              "id": "273819889375819", 
              "name": "Restaurant"
            }, 
            {
              "id": "187724814583579", 
              "name": "Casino"
            }, 
            {
              "id": "176831012360626", 
              "name": "Professional Services"
            }
          ], 
          "location": {
            "city": "Channahon", 
            "zip": "60410", 
            "country": "United States", 
            "longitude": -88.192563256, 
            "state": "IL", 
            "street": "", 
            "latitude": 41.457022152999997
          }
        }, 
        {
          "category": "Local business", 
          "name": "Dragon Express Chinese Restaraunt", 
          "id": "163246133687765", 
          "category_list": [
            {
              "id": "174483852595760", 
              "name": "Chinese Restaurant"
            }
          ], 
          "location": {
            "city": "Nimitz Trailer Park", 
            "zip": "23875", 
            "country": "United States", 
            "longitude": -77.327317179999994, 
            "state": "VA", 
            "street": "", 
            "latitude": 37.258472424499999
          }
        }, 
        {
          "category": "Local business", 
          "name": "Buffalo Wild Wings", 
          "id": "224554930914631", 
          "category_list": [
            {
              "id": "273819889375819", 
              "name": "Restaurant"
            }, 
            {
              "id": "110290705711626", 
              "name": "Bar"
            }
          ], 
          "location": {
            "city": "Nimitz Trailer Park", 
            "zip": "23801", 
            "country": "United States", 
            "longitude": -77.329612047699996, 
            "state": "VA", 
            "street": "", 
            "latitude": 37.229743177400003
          }
        }, 
        {
          "category": "Local business", 
          "name": "Ruby Creek", 
          "id": "145568215466928", 
          "category_list": [
            {
              "id": "165679780146824", 
              "name": "Food & Restaurant"
            }
          ], 
          "location": {
            "city": "Rocky Mountain Trailer Park", 
            "zip": "", 
            "country": "United States", 
            "longitude": -110.23546880000001, 
            "state": "MT", 
            "street": "", 
            "latitude": 45.319659899999998
          }
        }, 
        {
          "category": "Local business", 
          "name": "Fortune Star Chinese Buffet", 
          "id": "117507764993737", 
          "category_list": [
            {
              "id": "174483852595760", 
              "name": "Chinese Restaurant"
            }
          ], 
          "location": {
            "city": "Aladdin Village Trailer Park", 
            "zip": "20794", 
            "country": "United States", 
            "longitude": -76.7846935882, 
            "state": "MD", 
            "street": "", 
            "latitude": 39.169343714599997
          }
        }, 
        {
          "category": "Local business", 
          "name": "Popeyes Chicken", 
          "id": "154967054543447", 
          "category_list": [
            {
              "id": "273819889375819", 
              "name": "Restaurant"
            }
          ], 
          "location": {
            "city": "Nimitz Trailer Park", 
            "zip": "23801", 
            "country": "United States", 
            "longitude": -77.329672667699995, 
            "state": "VA", 
            "street": "", 
            "latitude": 37.251201975299999
          }
        }, 
        {
          "category": "Local business", 
          "name": "Cowboy's Lodge & Grille", 
          "id": "166105513444225", 
          "category_list": [
            {
              "id": "150534008338515", 
              "name": "Barbecue Restaurant"
            }
          ], 
          "location": {
            "city": "Rocky Mountain Trailer Park", 
            "zip": "59030", 
            "country": "United States", 
            "longitude": -110.706172118, 
            "state": "MT", 
            "street": "", 
            "latitude": 45.031845149699997
          }
        }
      ]
    }
  }, 
  {
    "business_name": "Filiberto's Mexican Food", 
    "business_id": "GjG2_JvHg6ISrLchOag_lA", 
    "fb_pages": {
      "paging": {
        "next": "https://graph.facebook.com/search?type=place&access_token=229546593895315|yPLlHqq6YvDLIH4nL0kjJtIFSlU&limit=5000&offset=5000&__after_id=322559347804739"
      }, 
      "data": [
        {
          "category": "Local business", 
          "name": "Filiberto's Mexican Food", 
          "id": "161788513859110", 
          "category_list": [
            {
              "id": "199377230079198", 
              "name": "Mexican Restaurant"
            }
          ], 
          "location": {
            "city": "Albuquerque", 
            "zip": "87105", 
            "country": "United States", 
            "longitude": -106.68446405619, 
            "state": "NM", 
            "street": "4011 Central Ave NW", 
            "latitude": 35.086231360437999
          }
        }, 
        {
          "category": "Local business", 
          "name": "Filiberto's Mexican Food", 
          "id": "205546042821740", 
          "category_list": [
            {
              "id": "199377230079198", 
              "name": "Mexican Restaurant"
            }
          ], 
          "location": {
            "city": "Vista", 
            "zip": "92084", 
            "country": "United States", 
            "longitude": -117.23036716323, 
            "state": "CA", 
            "street": "960 E Vista Way", 
            "latitude": 33.211687785035998
          }
        }, 
        {
          "category": "Local business", 
          "name": "Filiberto's Mexican Food", 
          "id": "108584322532018", 
          "category_list": [
            {
              "id": "199377230079198", 
              "name": "Mexican Restaurant"
            }
          ], 
          "location": {
            "city": "Phoenix", 
            "zip": "85042", 
            "country": "United States", 
            "longitude": -112.01040259443, 
            "state": "AZ", 
            "street": "3220 East Baseline Road #134", 
            "latitude": 33.378868221311002
          }
        }, 
        {
          "category": "Food/grocery", 
          "name": "Filiberto's Mexican Food- 19th Avenue", 
          "id": "115523178471181", 
          "category_list": [
            {
              "id": "150108431712141", 
              "name": "Food & Grocery"
            }, 
            {
              "id": "199377230079198", 
              "name": "Mexican Restaurant"
            }
          ], 
          "location": {
            "city": "Phoenix", 
            "zip": "85023-2414", 
            "country": "United States", 
            "longitude": -112.10017245378999, 
            "state": "AZ", 
            "street": "17224 N 19th Avenue ", 
            "latitude": 33.641705377797997
          }
        }, 
        {
          "category": "Local business", 
          "name": "Filiberto's Mexican Food", 
          "id": "107169456027830", 
          "category_list": [
            {
              "id": "199377230079198", 
              "name": "Mexican Restaurant"
            }
          ], 
          "location": {
            "city": "Albuquerque", 
            "zip": "87112", 
            "country": "United States", 
            "longitude": -106.53238803127, 
            "state": "NM", 
            "street": "1450 Eubank Blvd Ne", 
            "latitude": 35.094685640982
          }
        }, 
        {
          "category": "Food/grocery", 
          "name": "Filiberto's Mexican Food- Pecos Road", 
          "id": "343533705656848", 
          "category_list": [
            {
              "id": "150108431712141", 
              "name": "Food & Grocery"
            }
          ], 
          "location": {
            "city": "Chandler", 
            "zip": "85225", 
            "country": "United States", 
            "longitude": -111.82671812384, 
            "state": "AZ", 
            "street": "930 East Pecos Road STE 1", 
            "latitude": 33.292113356572003
          }
        }, 
        {
          "category": "Food/grocery", 
          "name": "Filiberto's Mexican Food- Apache Trail", 
          "id": "111525232301339", 
          "category_list": [
            {
              "id": "150108431712141", 
              "name": "Food & Grocery"
            }
          ], 
          "location": {
            "city": "Apache Junction", 
            "zip": "85220", 
            "country": "United States", 
            "longitude": -111.59846342199999, 
            "state": "AZ", 
            "street": "10749 East Apache Trail", 
            "latitude": 33.414672874099999
          }
        }, 
        {
          "category": "Local business", 
          "name": "Filiberto's Mexican Food", 
          "id": "144591612273827", 
          "category_list": [
            {
              "id": "199377230079198", 
              "name": "Mexican Restaurant"
            }
          ], 
          "location": {
            "city": "Buckeye", 
            "zip": "85326", 
            "country": "United States", 
            "longitude": -112.602609023, 
            "state": "AZ", 
            "street": "", 
            "latitude": 33.423879310300002
          }
        }, 
        {
          "category": "Local business", 
          "name": "Filiberto's Mexican Food- 83rd Avenue", 
          "id": "134396773275863", 
          "category_list": [
            {
              "id": "2500", 
              "name": "Local Business"
            }
          ], 
          "location": {
            "city": "Peoria", 
            "zip": "85381-4919", 
            "country": "United States", 
            "longitude": -112.23806455265, 
            "state": "AZ", 
            "street": "13972 N 83rd Ave", 
            "latitude": 33.611562094229001
          }
        }, 
        {
          "category": "Local business", 
          "name": "Filiberto's Mexican Food", 
          "id": "103965849688928", 
          "category_list": [
            {
              "id": "199377230079198", 
              "name": "Mexican Restaurant"
            }
          ], 
          "location": {
            "city": "Encinitas", 
            "zip": "92024", 
            "country": "United States", 
            "longitude": -117.294020348, 
            "state": "CA", 
            "street": "", 
            "latitude": 33.046190271900002
          }
        }, 
        {
          "category": "Food/grocery", 
          "name": "Filiberto's Mexican Food- Dysart Road", 
          "id": "216957345054735", 
          "category_list": [
            {
              "id": "150108431712141", 
              "name": "Food & Grocery"
            }
          ], 
          "location": {
            "city": "Avondale", 
            "zip": "85323", 
            "country": "United States", 
            "longitude": -112.34156102599999, 
            "state": "AZ", 
            "street": "1440 North Dysart Road Avondale,", 
            "latitude": 33.447902727299997
          }
        }, 
        {
          "category": "Local business", 
          "name": "Filiberto's Mexican Food", 
          "id": "201838699871773", 
          "category_list": [
            {
              "id": "199377230079198", 
              "name": "Mexican Restaurant"
            }
          ], 
          "location": {
            "city": "Phoenix", 
            "zip": "85051", 
            "country": "United States", 
            "longitude": -112.117303507, 
            "state": "AZ", 
            "street": "", 
            "latitude": 33.542343713999998
          }
        }, 
        {
          "category": "Local business", 
          "name": "Filiberto's Mexican Food", 
          "id": "222859991071047", 
          "category_list": [
            {
              "id": "199377230079198", 
              "name": "Mexican Restaurant"
            }
          ], 
          "location": {
            "city": "Chandler", 
            "zip": "", 
            "country": "United States", 
            "longitude": -111.93780060900001, 
            "state": "AZ", 
            "street": "", 
            "latitude": 33.335476163800003
          }
        }, 
        {
          "category": "Local business", 
          "name": "Filiberto's Fine Mexican Food", 
          "id": "620281951323034", 
          "category_list": [
            {
              "id": "2500", 
              "name": "Local Business"
            }
          ], 
          "location": {
            "city": "Casa Grande", 
            "zip": "85122", 
            "country": "United States", 
            "longitude": -111.756075, 
            "state": "AZ", 
            "street": "", 
            "latitude": 32.923001999999997
          }
        }, 
        {
          "category": "Local business", 
          "name": "Filibertos Mexican Food", 
          "id": "223180551044133", 
          "category_list": [
            {
              "id": "199377230079198", 
              "name": "Mexican Restaurant"
            }
          ], 
          "location": {
            "city": "Queen Creek", 
            "zip": "85142", 
            "country": "United States", 
            "longitude": -111.63289118124, 
            "state": "AZ", 
            "street": "21805 S Ellsworth Rd Ste", 
            "latitude": 33.250215689388
          }
        }, 
        {
          "category": "Local business", 
          "name": "Filibertos Mexican Food", 
          "id": "218616511493230", 
          "category_list": [
            {
              "id": "199377230079198", 
              "name": "Mexican Restaurant"
            }
          ], 
          "location": {
            "city": "Mesa", 
            "zip": "85212", 
            "country": "United States", 
            "longitude": -111.66882230784, 
            "state": "AZ", 
            "street": "2853 S Sossaman Rd", 
            "latitude": 33.363699764294999
          }
        }, 
        {
          "category": "Food/grocery", 
          "name": "Filiberto's Mexican Food- Williams Field Road", 
          "id": "162165577219655", 
          "category_list": [
            {
              "id": "150108431712141", 
              "name": "Food & Grocery"
            }
          ], 
          "location": {
            "city": "Gilbert", 
            "zip": "85295", 
            "country": "United States", 
            "longitude": -111.75888500000001, 
            "state": "AZ", 
            "street": "1397 E Williams Field Rd", 
            "latitude": 33.306507000000003
          }
        }, 
        {
          "category": "Restaurant/cafe", 
          "name": "Filiberto's Mexican Food, Arizona Ave-Ocotillo", 
          "id": "448941065165963", 
          "category_list": [
            {
              "id": "199377230079198", 
              "name": "Mexican Restaurant"
            }
          ], 
          "location": {
            "city": "Chandler", 
            "zip": "85248", 
            "country": "United States", 
            "longitude": -111.840979, 
            "state": "AZ", 
            "street": "4035 S Arizona Ave.", 
            "latitude": 33.247244999999999
          }
        }, 
        {
          "category": "Food/grocery", 
          "name": "Filibertos AZ", 
          "id": "214517265236226", 
          "category_list": [
            {
              "id": "199377230079198", 
              "name": "Mexican Restaurant"
            }, 
            {
              "id": "192803624072087", 
              "name": "Fast Food Restaurant"
            }
          ], 
          "location": {
            "city": "Scottsdale", 
            "zip": "85258", 
            "country": "United States", 
            "longitude": -111.884799894, 
            "state": "AZ", 
            "street": "9150 East Indian Bend Road", 
            "latitude": 33.539137958700003
          }
        }, 
        {
          "category": "Local business", 
          "name": "Filibertos Mexican Food", 
          "id": "129839663759865", 
          "category_list": [
            {
              "id": "199377230079198", 
              "name": "Mexican Restaurant"
            }
          ], 
          "location": {
            "city": "Phoenix", 
            "zip": "85032", 
            "country": "United States", 
            "longitude": -112.01146920375, 
            "state": "AZ", 
            "street": "", 
            "latitude": 33.626642447164002
          }
        }, 
        {
          "category": "Local business", 
          "name": "Filibertos Mexican Food", 
          "id": "134950213248854", 
          "category_list": [
            {
              "id": "199377230079198", 
              "name": "Mexican Restaurant"
            }
          ], 
          "location": {
            "city": "Sun City", 
            "zip": "85351", 
            "country": "United States", 
            "longitude": -112.2928781495, 
            "state": "AZ", 
            "street": "10777 Grand Ave", 
            "latitude": 33.603147549879999
          }
        }, 
        {
          "category": "Local business", 
          "name": "Filibertos Mexican Food", 
          "id": "100370973383525", 
          "category_list": [
            {
              "id": "199377230079198", 
              "name": "Mexican Restaurant"
            }
          ], 
          "location": {
            "city": "Peoria", 
            "zip": "85382", 
            "country": "United States", 
            "longitude": -112.23917881, 
            "state": "AZ", 
            "street": "", 
            "latitude": 33.672352437900003
          }
        }, 
        {
          "category": "Local business", 
          "name": "Filibertos Mexican Food", 
          "id": "322559347804739", 
          "category_list": [
            {
              "id": "2500", 
              "name": "Local Business"
            }
          ], 
          "location": {
            "city": "Gilbert", 
            "zip": "85234", 
            "country": "United States", 
            "longitude": -111.747665, 
            "state": "AZ", 
            "street": "", 
            "latitude": 33.366079999999997
          }
        }
      ]
    }
  }, 
  {
    "business_name": "Paradise Bakery and Cafe", 
    "business_id": "7xDt8CLZt66PkYYDqHka9w", 
    "fb_pages": {
      "paging": {
        "next": "https://graph.facebook.com/search?type=place&access_token=229546593895315|yPLlHqq6YvDLIH4nL0kjJtIFSlU&limit=5000&offset=5000&__after_id=260665214039508"
      }, 
      "data": [
        {
          "category": "Local business", 
          "name": "Paradise Bakery and Cafe", 
          "id": "108432015881518", 
          "category_list": [
            {
              "id": "197871390225897", 
              "name": "Cafe"
            }, 
            {
              "id": "128673187201735", 
              "name": "Coffee Shop"
            }, 
            {
              "id": "187827497907070", 
              "name": "Bakery"
            }
          ], 
          "location": {
            "city": "Gilbert", 
            "zip": "85296", 
            "country": "United States", 
            "longitude": -111.74389320198, 
            "state": "AZ", 
            "street": "2156 East Williams Field Road, #101", 
            "latitude": 33.308693166295001
          }
        }, 
        {
          "category": "Local business", 
          "name": "Paradise Bakery And Cafe", 
          "id": "128509360529596", 
          "category_list": [
            {
              "id": "273819889375819", 
              "name": "Restaurant"
            }, 
            {
              "id": "187827497907070", 
              "name": "Bakery"
            }
          ], 
          "location": {
            "city": "Peoria", 
            "zip": "85383", 
            "country": "United States", 
            "longitude": -112.27292606928, 
            "state": "AZ", 
            "street": "", 
            "latitude": 33.711762519311002
          }
        }, 
        {
          "category": "Local business", 
          "name": "Paradise Bakery And Cafe", 
          "id": "231837970207599", 
          "category_list": [
            {
              "id": "187827497907070", 
              "name": "Bakery"
            }, 
            {
              "id": "273819889375819", 
              "name": "Restaurant"
            }
          ], 
          "location": {
            "city": "Tempe", 
            "zip": "85283", 
            "country": "United States", 
            "longitude": -111.91051190080999, 
            "state": "AZ", 
            "street": "", 
            "latitude": 33.361398563026
          }
        }, 
        {
          "category": "Local business", 
          "name": "Paradise Bakery and Cafe", 
          "id": "181397145292053", 
          "category_list": [
            {
              "id": "273819889375819", 
              "name": "Restaurant"
            }, 
            {
              "id": "187827497907070", 
              "name": "Bakery"
            }
          ], 
          "location": {
            "city": "Phoenix", 
            "zip": "85027", 
            "country": "United States", 
            "longitude": -112.1110411204, 
            "state": "AZ", 
            "street": "", 
            "latitude": 33.714504561761999
          }
        }, 
        {
          "category": "Local business", 
          "name": "Paradise Bakery and Cafe", 
          "id": "129462273787563", 
          "category_list": [
            {
              "id": "273819889375819", 
              "name": "Restaurant"
            }, 
            {
              "id": "187827497907070", 
              "name": "Bakery"
            }
          ], 
          "location": {
            "city": "Surprise", 
            "zip": "85379", 
            "country": "United States", 
            "longitude": -112.379102265, 
            "state": "AZ", 
            "street": "", 
            "latitude": 33.623568695199999
          }
        }, 
        {
          "category": "Restaurant/cafe", 
          "name": "Paradise Pastry & Cafe", 
          "id": "107729949345903", 
          "category_list": [
            {
              "id": "187827497907070", 
              "name": "Bakery"
            }, 
            {
              "id": "197871390225897", 
              "name": "Cafe"
            }, 
            {
              "id": "188334264523313", 
              "name": "Deli"
            }
          ], 
          "location": {
            "city": "Glendale", 
            "zip": "91201", 
            "country": "United States", 
            "longitude": -118.292401877, 
            "state": "CA", 
            "street": "1825 W. GLENOAKS BLVD", 
            "latitude": 34.173307707399999
          }
        }, 
        {
          "category": "Local business", 
          "name": "Paradise Bakery & Caf\u00e9", 
          "id": "268939559794289", 
          "category_list": [
            {
              "id": "187827497907070", 
              "name": "Bakery"
            }, 
            {
              "id": "192108214153222", 
              "name": "Breakfast & Brunch Restaurant"
            }, 
            {
              "id": "135468489860087", 
              "name": "Soup Restaurant"
            }
          ], 
          "location": {
            "city": "Albuquerque", 
            "zip": "87110", 
            "country": "United States", 
            "longitude": -106.56997831539, 
            "state": "NM", 
            "street": "6600 Menaul Blvd ne suite 1000", 
            "latitude": 35.106018909658999
          }
        }, 
        {
          "category": "Local business", 
          "name": "Paradise Bakery and Cafe", 
          "id": "259379104079612", 
          "category_list": [
            {
              "id": "273819889375819", 
              "name": "Restaurant"
            }, 
            {
              "id": "128673187201735", 
              "name": "Coffee Shop"
            }
          ], 
          "location": {
            "city": "Phoenix", 
            "zip": "85016", 
            "country": "United States", 
            "longitude": -112.028924442, 
            "state": "AZ", 
            "street": "", 
            "latitude": 33.510164702300003
          }
        }, 
        {
          "category": "Local business", 
          "name": "Paradise Bakery & Cafe", 
          "id": "112403395536487", 
          "category_list": [
            {
              "id": "187827497907070", 
              "name": "Bakery"
            }, 
            {
              "id": "197871390225897", 
              "name": "Cafe"
            }
          ], 
          "location": {
            "city": "Tucson", 
            "zip": "85705", 
            "country": "United States", 
            "longitude": -110.97762243120999, 
            "state": "AZ", 
            "street": "", 
            "latitude": 32.286052430448997
          }
        }, 
        {
          "category": "Local business", 
          "name": "Paradise Bakery and Cafe", 
          "id": "327694107256972", 
          "category_list": [
            {
              "id": "273819889375819", 
              "name": "Restaurant"
            }
          ], 
          "location": {
            "city": "Chandler", 
            "zip": "85286", 
            "country": "United States", 
            "longitude": -111.82720392, 
            "state": "AZ", 
            "street": "", 
            "latitude": 33.282285937399998
          }
        }, 
        {
          "category": "Local business", 
          "name": "Paradise Bakery & Cafe", 
          "id": "155666767791648", 
          "category_list": [
            {
              "id": "273819889375819", 
              "name": "Restaurant"
            }, 
            {
              "id": "187827497907070", 
              "name": "Bakery"
            }
          ], 
          "location": {
            "city": "Scottsdale", 
            "zip": "85260", 
            "country": "United States", 
            "longitude": -111.89226318807999, 
            "state": "AZ", 
            "street": "", 
            "latitude": 33.62003802644
          }
        }, 
        {
          "category": "Local business", 
          "name": "Paradise Bakery N Cafe", 
          "id": "216038935095303", 
          "category_list": [
            {
              "id": "197871390225897", 
              "name": "Cafe"
            }, 
            {
              "id": "187827497907070", 
              "name": "Bakery"
            }
          ], 
          "location": {
            "city": "American Fork", 
            "zip": "84003", 
            "country": "United States", 
            "longitude": -111.81342716972, 
            "state": "UT", 
            "street": "562 W Main St", 
            "latitude": 40.377207502864003
          }
        }, 
        {
          "category": "Local business", 
          "name": "Paradise Bakery", 
          "id": "168542943157013", 
          "category_list": [
            {
              "id": "197871390225897", 
              "name": "Cafe"
            }, 
            {
              "id": "187827497907070", 
              "name": "Bakery"
            }
          ], 
          "location": {
            "city": "Carmel", 
            "zip": "46032-3656", 
            "country": "United States", 
            "longitude": -86.130112567433997, 
            "state": "IN", 
            "street": "14550 Clay Terrace Blvd Ste 100", 
            "latitude": 39.998695853777001
          }
        }, 
        {
          "category": "Local business", 
          "name": "Paradise Bakery And Cafe", 
          "id": "180134538778154", 
          "category_list": [
            {
              "id": "2500", 
              "name": "Local Business"
            }
          ], 
          "location": {
            "city": "Logan", 
            "zip": "84341", 
            "country": "United States", 
            "longitude": -111.832326772, 
            "state": "UT", 
            "street": "", 
            "latitude": 41.755850719599998
          }
        }, 
        {
          "category": "Local business", 
          "name": "Paradise Bakery And Cafe", 
          "id": "110937959037862", 
          "category_list": [
            {
              "id": "2500", 
              "name": "Local Business"
            }
          ], 
          "location": {
            "city": "Chandler", 
            "zip": "85224", 
            "country": "United States", 
            "longitude": -111.870716793, 
            "state": "AZ", 
            "street": "", 
            "latitude": 33.306121132800001
          }
        }, 
        {
          "category": "Local business", 
          "name": "Paradise Bakery & Cafe", 
          "id": "185777564799418", 
          "category_list": [
            {
              "id": "273819889375819", 
              "name": "Restaurant"
            }, 
            {
              "id": "187827497907070", 
              "name": "Bakery"
            }
          ], 
          "location": {
            "city": "Queen Creek", 
            "zip": "85142", 
            "country": "United States", 
            "longitude": -111.638768621, 
            "state": "AZ", 
            "street": "", 
            "latitude": 33.256035858799997
          }
        }, 
        {
          "category": "Local business", 
          "name": "Paradise Bakery Cafe", 
          "id": "394176707311685", 
          "category_list": [
            {
              "id": "273819889375819", 
              "name": "Restaurant"
            }, 
            {
              "id": "187827497907070", 
              "name": "Bakery"
            }
          ], 
          "location": {
            "city": "Phoenix", 
            "zip": "85022", 
            "country": "United States", 
            "longitude": -112.06796369600001, 
            "state": "AZ", 
            "street": "7th St and Bell RD", 
            "latitude": 33.6398451588
          }
        }, 
        {
          "category": "Local business", 
          "name": "Paradise Bakery & Caf\u00e9 Mission Viejo", 
          "id": "125473957501095", 
          "category_list": [
            {
              "id": "273819889375819", 
              "name": "Restaurant"
            }
          ], 
          "location": {
            "city": "Mission Viejo", 
            "zip": "92691", 
            "country": "United States", 
            "longitude": -117.66866225477, 
            "state": "CA", 
            "street": "1006 The Shops at Mission Viejo", 
            "latitude": 33.558072210394002
          }
        }, 
        {
          "category": "Local business", 
          "name": "Paradise Bakery & Cafe", 
          "id": "190992300922132", 
          "category_list": [
            {
              "id": "187827497907070", 
              "name": "Bakery"
            }, 
            {
              "id": "273819889375819", 
              "name": "Restaurant"
            }
          ], 
          "location": {
            "city": "Avondale", 
            "zip": "85392", 
            "country": "United States", 
            "longitude": -112.27417339900001, 
            "state": "AZ", 
            "street": "", 
            "latitude": 33.464248649799998
          }
        }, 
        {
          "category": "Local business", 
          "name": "Paradise Bakery & Cafe - 67th & 101", 
          "id": "120290354712351", 
          "category_list": [
            {
              "id": "273819889375819", 
              "name": "Restaurant"
            }
          ], 
          "location": {
            "city": "Glendale", 
            "zip": "85308", 
            "country": "United States", 
            "longitude": -112.20254433144, 
            "state": "AZ", 
            "street": "", 
            "latitude": 33.666918304722998
          }
        }, 
        {
          "category": "Local business", 
          "name": "Paradise Bakery & Cafe", 
          "id": "148789908566346", 
          "category_list": [
            {
              "id": "273819889375819", 
              "name": "Restaurant"
            }, 
            {
              "id": "187827497907070", 
              "name": "Bakery"
            }
          ], 
          "location": {
            "city": "Scottsdale", 
            "zip": "85251", 
            "country": "United States", 
            "longitude": -111.927114293, 
            "state": "AZ", 
            "street": "", 
            "latitude": 33.494781712399998
          }
        }, 
        {
          "category": "Local business", 
          "name": "Paradise Cafe", 
          "id": "318033094982051", 
          "category_list": [
            {
              "id": "187827497907070", 
              "name": "Bakery"
            }
          ], 
          "location": {
            "city": "Juneau", 
            "zip": "99801", 
            "country": "United States", 
            "longitude": -134.59104928100001, 
            "state": "AK", 
            "street": "", 
            "latitude": 58.366277069600002
          }
        }, 
        {
          "category": "Local business", 
          "name": "Paradise Bakery & Cafe", 
          "id": "128675847217735", 
          "category_list": [
            {
              "id": "187827497907070", 
              "name": "Bakery"
            }, 
            {
              "id": "273819889375819", 
              "name": "Restaurant"
            }
          ], 
          "location": {
            "city": "Goodyear", 
            "zip": "85395", 
            "country": "United States", 
            "longitude": -112.392081824, 
            "state": "AZ", 
            "street": "", 
            "latitude": 33.464109268000001
          }
        }, 
        {
          "category": "Restaurant/cafe", 
          "name": "Paradise Bakery-St. George", 
          "id": "186146341454420", 
          "category_list": [
            {
              "id": "273819889375819", 
              "name": "Restaurant"
            }
          ], 
          "location": {
            "city": "Saint George", 
            "zip": "84790", 
            "country": "United States", 
            "longitude": -113.5544527687, 
            "state": "UT", 
            "street": "231 N. Red Cliffs Drive, Suite 22", 
            "latitude": 37.111765486050999
          }
        }, 
        {
          "category": "Local business", 
          "name": "Paradise Bakery & Cafe Phoenix Skyharbor", 
          "id": "209415189154358", 
          "category_list": [
            {
              "id": "187827497907070", 
              "name": "Bakery"
            }, 
            {
              "id": "128966563840349", 
              "name": "Airport"
            }, 
            {
              "id": "273819889375819", 
              "name": "Restaurant"
            }
          ], 
          "location": {
            "city": "Phoenix", 
            "zip": "85034", 
            "country": "United States", 
            "longitude": -112.01386012685001, 
            "state": "AZ", 
            "street": "", 
            "latitude": 33.436848824508999, 
            "located_in": 516921938383222
          }
        }, 
        {
          "category": "Local business", 
          "name": "Paradise Bakery   Cafe So", 
          "id": "178578555533405", 
          "category_list": [
            {
              "id": "187827497907070", 
              "name": "Bakery"
            }, 
            {
              "id": "197871390225897", 
              "name": "Cafe"
            }
          ], 
          "location": {
            "city": "Aurora", 
            "zip": "80016", 
            "country": "United States", 
            "longitude": -104.708795636, 
            "state": "CO", 
            "street": "6240 S Main St Ste 112", 
            "latitude": 39.602714291399998
          }
        }, 
        {
          "category": "Local business", 
          "name": "Paradise Bakery & Cafe", 
          "id": "125292614184619", 
          "category_list": [
            {
              "id": "273819889375819", 
              "name": "Restaurant"
            }, 
            {
              "id": "187827497907070", 
              "name": "Bakery"
            }
          ], 
          "location": {
            "city": "Greenwood", 
            "zip": "46142", 
            "country": "United States", 
            "longitude": -86.122339820999997, 
            "state": "IN", 
            "street": "", 
            "latitude": 39.6328167542
          }
        }, 
        {
          "category": "Local business", 
          "name": "Paradise Bakery & Cafe", 
          "id": "153391284723572", 
          "category_list": [
            {
              "id": "273819889375819", 
              "name": "Restaurant"
            }, 
            {
              "id": "187827497907070", 
              "name": "Bakery"
            }
          ], 
          "location": {
            "city": "Phoenix", 
            "zip": "", 
            "country": "United States", 
            "longitude": -112.01147159999999, 
            "state": "AZ", 
            "street": "", 
            "latitude": 33.475618099999998
          }
        }, 
        {
          "category": "Local business", 
          "name": "Bakery & Cafe Paradise", 
          "id": "159034220796633", 
          "category_list": [
            {
              "id": "273819889375819", 
              "name": "Restaurant"
            }
          ], 
          "location": {
            "city": "Broomfield", 
            "zip": "80021-8256", 
            "country": "United States", 
            "longitude": -105.132542, 
            "state": "CO", 
            "street": "1 W Flatiron Crossing Dr Ste FF-220", 
            "latitude": 39.932734000000004
          }
        }, 
        {
          "category": "Local business", 
          "name": "Paradise Bakery & Cafe", 
          "id": "196181647092836", 
          "category_list": [
            {
              "id": "273819889375819", 
              "name": "Restaurant"
            }, 
            {
              "id": "187827497907070", 
              "name": "Bakery"
            }, 
            {
              "id": "176831012360626", 
              "name": "Professional Services"
            }
          ], 
          "location": {
            "city": "Omaha", 
            "zip": "", 
            "country": "United States", 
            "longitude": -96.072285175299996, 
            "state": "NE", 
            "street": "", 
            "latitude": 41.258565187499997
          }
        }, 
        {
          "category": "Local business", 
          "name": "Paradise Bakery & Cafe", 
          "id": "253676484643991", 
          "category_list": [
            {
              "id": "187827497907070", 
              "name": "Bakery"
            }
          ], 
          "location": {
            "city": "Goodyear", 
            "zip": "", 
            "country": "United States", 
            "longitude": -112.427550012, 
            "state": "AZ", 
            "street": "", 
            "latitude": 33.460886576199997
          }
        }, 
        {
          "category": "Local business", 
          "name": "Paradise Bakery & Cafe", 
          "id": "374716715929358", 
          "category_list": [
            {
              "id": "187827497907070", 
              "name": "Bakery"
            }
          ], 
          "location": {
            "city": "Allen", 
            "zip": "", 
            "country": "United States", 
            "longitude": -96.655182223400004, 
            "state": "TX", 
            "street": "", 
            "latitude": 33.129267612900001
          }
        }, 
        {
          "category": "Restaurant/cafe", 
          "name": "Paradise Donuts Of Manhattan Kansas", 
          "id": "359415470834730", 
          "category_list": [
            {
              "id": "187827497907070", 
              "name": "Bakery"
            }
          ], 
          "location": {
            "city": "Manhattan", 
            "zip": "66502", 
            "country": "United States", 
            "longitude": -96.571703999999997, 
            "state": "KS", 
            "street": "2307 B Tuttle Creek Blvd.", 
            "latitude": 39.207994999999997
          }
        }, 
        {
          "category": "Local business", 
          "name": "Paradise Bakery & Cafe", 
          "id": "113511552064480", 
          "category_list": [
            {
              "id": "187827497907070", 
              "name": "Bakery"
            }, 
            {
              "id": "197871390225897", 
              "name": "Cafe"
            }
          ], 
          "location": {
            "city": "Frisco", 
            "zip": "75024", 
            "country": "United States", 
            "longitude": -96.804934887900004, 
            "state": "TX", 
            "street": "", 
            "latitude": 33.090841993600002
          }
        }, 
        {
          "category": "Restaurant/cafe", 
          "name": "Paradise Donuts Wichita Maple", 
          "id": "193313637515077", 
          "category_list": [
            {
              "id": "187827497907070", 
              "name": "Bakery"
            }, 
            {
              "id": "273819889375819", 
              "name": "Restaurant"
            }
          ], 
          "location": {
            "city": "Wichita", 
            "zip": "67209-4013", 
            "country": "United States", 
            "longitude": -97.465439000000003, 
            "state": "KS", 
            "street": "10607 W Maple", 
            "latitude": 37.678673000000003
          }
        }, 
        {
          "category": "Restaurant/cafe", 
          "name": "Jessica' Sweet Paradise", 
          "id": "140836559443759", 
          "category_list": [
            {
              "id": "187827497907070", 
              "name": "Bakery"
            }
          ], 
          "location": {
            "city": "Plymouth", 
            "zip": "53073", 
            "country": "United States", 
            "longitude": -87.979635999999999, 
            "state": "WI", 
            "street": "", 
            "latitude": 43.747363
          }
        }, 
        {
          "category": "Restaurant/cafe", 
          "name": "Paradise Bakery & Cafe at Main Gate Square - uofa", 
          "id": "558932990793657", 
          "category_list": [
            {
              "id": "273819889375819", 
              "name": "Restaurant"
            }
          ], 
          "location": {
            "city": "Tucson", 
            "zip": "85719", 
            "country": "United States", 
            "longitude": -110.957375, 
            "state": "AZ", 
            "street": "845 N. Park Ave.", 
            "latitude": 32.232708000000002
          }
        }, 
        {
          "category": "Restaurant/cafe", 
          "name": "Paradise Bakery", 
          "id": "383223161778784", 
          "category_list": [
            {
              "id": "273819889375819", 
              "name": "Restaurant"
            }
          ], 
          "location": {
            "city": "Winchester", 
            "zip": "22601", 
            "country": "United States", 
            "longitude": -78.149113999999997, 
            "state": "VA", 
            "street": "714 Berryville Ave", 
            "latitude": 39.186315999999998
          }
        }, 
        {
          "category": "Local business", 
          "name": "Paradise Bakery", 
          "id": "104931876217107", 
          "category_list": [
            {
              "id": "197871390225897", 
              "name": "Cafe"
            }
          ], 
          "location": {
            "city": "Portland", 
            "zip": "97224-7765", 
            "country": "United States", 
            "longitude": -122.75152684337, 
            "state": "OR", 
            "street": "7211 SW Bridgeport Rd", 
            "latitude": 45.395620575504999
          }
        }, 
        {
          "category": "Restaurant/cafe", 
          "name": "tsp Bakeshop", 
          "id": "172380129631943", 
          "category_list": [
            {
              "id": "187827497907070", 
              "name": "Bakery"
            }
          ], 
          "location": {
            "city": "West Richland", 
            "zip": "99353", 
            "country": "United States", 
            "longitude": -119.35097500000001, 
            "state": "WA", 
            "street": "4850 Paradise Way Suite 202", 
            "latitude": 46.286225000000002
          }
        }, 
        {
          "category": "Local business", 
          "name": "Paradise Bakery & Cafe's Restroom Taking A Shit!", 
          "id": "141964265873623", 
          "category_list": [
            {
              "id": "273819889375819", 
              "name": "Restaurant"
            }
          ], 
          "location": {
            "city": "Indianapolis", 
            "zip": "46122", 
            "country": "United States", 
            "longitude": -86.158439783600002, 
            "state": "IN", 
            "street": "", 
            "latitude": 39.926121791
          }
        }, 
        {
          "category": "Restaurant/cafe", 
          "name": "Star Buzzz", 
          "id": "404587816244675", 
          "category_list": [
            {
              "id": "273819889375819", 
              "name": "Restaurant"
            }
          ], 
          "location": {
            "city": "Karachi", 
            "zip": "", 
            "country": "Pakistan", 
            "longitude": 67.100275995100006, 
            "state": "", 
            "street": "Paradise Bakery, Gulshan-e-Iqbal Karachi", 
            "latitude": 24.9304626029
          }
        }, 
        {
          "category": "Restaurant/cafe", 
          "name": "Paradise Donuts 81st & Garnett, Broken Arrow", 
          "id": "444612288914291", 
          "category_list": [
            {
              "id": "192108214153222", 
              "name": "Breakfast & Brunch Restaurant"
            }
          ], 
          "location": {
            "city": "Broken Arrow", 
            "zip": "74012", 
            "country": "United States", 
            "longitude": -95.848309999999998, 
            "state": "OK", 
            "street": "4656 W. Houston", 
            "latitude": 36.046458999999999
          }
        }, 
        {
          "category": "Restaurant/cafe", 
          "name": "Morgan Brothers Bakery and Deli", 
          "id": "260665214039508", 
          "category_list": [
            {
              "id": "187827497907070", 
              "name": "Bakery"
            }, 
            {
              "id": "188334264523313", 
              "name": "Deli"
            }
          ], 
          "location": {
            "city": "Kennett", 
            "zip": "63857", 
            "country": "United States", 
            "longitude": -90.044073999999995, 
            "state": "MO", 
            "street": "1123 First Street", 
            "latitude": 36.236451000000002
          }
        }
      ]
    }
  }
]