[
  {
    "business_name": "Rascal's Ranch", 
    "business_id": "CBGwHtdnBUfRj0Ow_gH9wA", 
    "fb_pages": {
      "paging": {
        "next": "https://graph.facebook.com/search?type=place&access_token=229546593895315|yPLlHqq6YvDLIH4nL0kjJtIFSlU&limit=5000&offset=5000&__after_id=135082279875492"
      }, 
      "data": [
        {
          "category": "Attractions/things to do", 
          "name": "Miss April's Rascal Ranch", 
          "id": "316050915097858", 
          "category_list": [
            {
              "id": "139721016091877", 
              "name": "Outdoor Recreation"
            }
          ], 
          "location": {
            "city": "Oakdale", 
            "zip": "95361", 
            "country": "United States", 
            "longitude": -120.805038, 
            "state": "CA", 
            "street": "3372 Oakdale-Waterford Hwy", 
            "latitude": 37.686661000000001
          }
        }, 
        {
          "category": "Local business", 
          "name": "Rascal Ranch", 
          "id": "102847136538837", 
          "category_list": [
            {
              "id": "2500", 
              "name": "Local Business"
            }
          ], 
          "location": {
            "city": "Walla Walla", 
            "zip": "99362", 
            "country": "United States", 
            "longitude": -118.407822, 
            "state": "WA", 
            "street": "114 Owens Road", 
            "latitude": 46.031933000000002
          }
        }, 
        {
          "category": "Education", 
          "name": "Rascal Ranch Daycare and Learning Center", 
          "id": "165788303444552", 
          "category_list": [
            {
              "id": "181811248521973", 
              "name": "Child Care"
            }
          ], 
          "location": {
            "city": "Portales", 
            "zip": "88130", 
            "country": "United States", 
            "longitude": -103.333314382, 
            "state": "NM", 
            "street": "1900 S Avenue I  & 523 W. University Drive", 
            "latitude": 34.181360671999997
          }
        }, 
        {
          "category": "Local business", 
          "name": "Rascal Slough Ranch", 
          "id": "117277814958675", 
          "category_list": [
            {
              "id": "187004854667366", 
              "name": "Campground"
            }
          ], 
          "location": {
            "city": "Hilmar", 
            "zip": "95324-9303", 
            "country": "United States", 
            "longitude": -120.825974, 
            "state": "CA", 
            "street": "18639 August Ave", 
            "latitude": 37.416710000000002
          }
        }, 
        {
          "category": "School", 
          "name": "The Rascal Ranch", 
          "id": "147376708642306", 
          "category_list": [
            {
              "id": "164595956925901", 
              "name": "Day Care & Preschool"
            }
          ], 
          "location": {
            "city": "Anaconda", 
            "zip": "59711", 
            "country": "United States", 
            "longitude": -112.73335299999999, 
            "state": "MT", 
            "street": "324 Park Ave", 
            "latitude": 46.398533
          }
        }, 
        {
          "category": "Local business", 
          "name": "Rancho Attorney Service of California (RASCAL)", 
          "id": "115204415176326", 
          "category_list": [
            {
              "id": "192985434070895", 
              "name": "Private Investigator"
            }, 
            {
              "id": "151931054869702", 
              "name": "Document Service"
            }, 
            {
              "id": "189806667707056", 
              "name": "Law Practice"
            }
          ], 
          "location": {
            "city": "Temecula", 
            "zip": "92590", 
            "country": "United States", 
            "longitude": -117.15216956085, 
            "state": "CA", 
            "street": "28465 Old Town Front St., Suite 318", 
            "latitude": 33.495157904110002
          }
        }, 
        {
          "category": "Shopping/retail", 
          "name": "Rascals Ranch", 
          "id": "185205014876191", 
          "category_list": [
            {
              "id": "200600219953504", 
              "name": "Shopping & Retail"
            }
          ], 
          "location": {
            "city": "Scottsdale", 
            "zip": "85255", 
            "country": "United States", 
            "longitude": -111.888299, 
            "state": "AZ", 
            "street": "8912 E Pinnacle Peak Road  F7", 
            "latitude": 33.698839
          }
        }, 
        {
          "category": "Local business", 
          "name": "R & B Lil Rascals Miniature Horse Ranch", 
          "id": "135082279875492", 
          "category_list": [
            {
              "id": "181108811925394", 
              "name": "Horses"
            }, 
            {
              "id": "192686080759400", 
              "name": "Vacation Home Rental"
            }
          ], 
          "location": {
            "city": "Pagosa Springs", 
            "zip": "81147-7667", 
            "country": "United States", 
            "longitude": -107.19101000000001, 
            "state": "CO", 
            "street": "1140 Hurt Dr", 
            "latitude": 37.222306000000003
          }
        }
      ]
    }
  }, 
  {
    "business_name": "Harkins Superstition Springs", 
    "business_id": "7zW80ERKxqxhejUQzB9veg", 
    "fb_pages": {
      "paging": {
        "next": "https://graph.facebook.com/search?type=place&access_token=229546593895315|yPLlHqq6YvDLIH4nL0kjJtIFSlU&limit=5000&offset=5000&__after_id=310338295646735"
      }, 
      "data": [
        {
          "category": "Local business", 
          "name": "Harkins Superstition Springs", 
          "id": "126120977468809", 
          "category_list": [
            {
              "id": "192511100766680", 
              "name": "Movie Theatre"
            }
          ], 
          "location": {
            "city": "Mesa", 
            "zip": "85209", 
            "country": "United States", 
            "longitude": -111.68067187468, 
            "state": "AZ", 
            "street": "6950 East Superstition Springs Boulevard", 
            "latitude": 33.384885790932003
          }
        }, 
        {
          "category": "Local business", 
          "name": "Harkins 24 Superstition Springs", 
          "id": "310338295646735", 
          "category_list": [
            {
              "id": "192511100766680", 
              "name": "Movie Theatre"
            }
          ], 
          "location": {
            "city": "Mesa", 
            "zip": "85209", 
            "country": "United States", 
            "longitude": -111.68150819900001, 
            "state": "AZ", 
            "street": "6950 East Superstition Springs Boulevard", 
            "latitude": 33.384710458500003
          }
        }
      ]
    }
  }, 
  {
    "business_name": "Illume Weddings", 
    "business_id": "PLJ9mpeJkqpcul0-2vQDwA", 
    "fb_pages": {
      "paging": {
        "next": "https://graph.facebook.com/search?type=place&access_token=229546593895315|yPLlHqq6YvDLIH4nL0kjJtIFSlU&limit=5000&offset=5000&__after_id=285889444762235"
      }, 
      "data": [
        {
          "category": "Arts/entertainment/nightlife", 
          "name": "ILLume Weddings", 
          "id": "285889444762235", 
          "category_list": [
            {
              "id": "181475575221097", 
              "name": "Photographer"
            }
          ], 
          "location": {
            "city": "Scottsdale", 
            "zip": "85251", 
            "country": "United States", 
            "longitude": -111.925529, 
            "state": "AZ", 
            "street": "4419 N. Scottsdale Rd., Ste. 202", 
            "latitude": 33.500629000000004
          }
        }
      ]
    }
  }, 
  {
    "business_name": "Babies R US the Baby Superstore", 
    "business_id": "zk4O-WY-qmbuoXZbnQpsnw", 
    "fb_pages": {
      "paging": {
        "next": "https://graph.facebook.com/search?type=place&access_token=229546593895315|yPLlHqq6YvDLIH4nL0kjJtIFSlU&limit=5000&offset=5000&__after_id=125726487481482"
      }, 
      "data": [
        {
          "category": "Local business", 
          "name": "Babies-R-Us The Baby Superstore", 
          "id": "125726487481482", 
          "category_list": [
            {
              "id": "192614304101075", 
              "name": "Children's Clothing Store"
            }
          ], 
          "location": {
            "city": "Little Falls", 
            "zip": "07424", 
            "country": "United States", 
            "longitude": -74.195372000000006, 
            "state": "NJ", 
            "street": "465 Us Highway 46", 
            "latitude": 40.872863000000002
          }
        }
      ]
    }
  }, 
  {
    "business_name": "Celsius Sushi Bar", 
    "business_id": "ogMsiOU3QA2671pFUvexUA", 
    "fb_pages": {
      "paging": {
        "next": "https://graph.facebook.com/search?type=place&access_token=229546593895315|yPLlHqq6YvDLIH4nL0kjJtIFSlU&limit=5000&offset=5000&__after_id=111463958894005"
      }, 
      "data": [
        {
          "category": "Local business", 
          "name": "Celsius Sushi Bar", 
          "id": "111463958894005", 
          "category_list": [
            {
              "id": "134501539950711", 
              "name": "Sushi Restaurant"
            }, 
            {
              "id": "185600691480842", 
              "name": "Tanning Salon"
            }
          ], 
          "location": {
            "city": "Phoenix", 
            "zip": "85050-4260", 
            "country": "United States", 
            "longitude": -111.97768000000001, 
            "state": "AZ", 
            "street": "21050 N Tatum Blvd", 
            "latitude": 33.676048999999999
          }
        }
      ]
    }
  }, 
  {
    "business_name": "Superstition Ranch Market", 
    "business_id": "zZFXEqWY_bE6s_f38RhNMw", 
    "fb_pages": {
      "paging": {
        "next": "https://graph.facebook.com/search?type=place&access_token=229546593895315|yPLlHqq6YvDLIH4nL0kjJtIFSlU&limit=5000&offset=5000&__after_id=119947214737119"
      }, 
      "data": [
        {
          "category": "Local business", 
          "name": "Superstition Ranch Market", 
          "id": "146562022040080", 
          "category_list": [
            {
              "id": "128157407253652", 
              "name": "Fruit & Vegetable Store"
            }, 
            {
              "id": "169207329791658", 
              "name": "Grocery Store"
            }, 
            {
              "id": "176527262444235", 
              "name": "Farmers Market"
            }
          ], 
          "location": {
            "city": "Mesa", 
            "zip": "85205-7907", 
            "country": "United States", 
            "longitude": -111.7282344581, 
            "state": "AZ", 
            "street": "4755 E Main St", 
            "latitude": 33.415170125610999
          }
        }, 
        {
          "category": "Local business", 
          "name": "Superstition Ranch Market", 
          "id": "119947214737119", 
          "category_list": [
            {
              "id": "176527262444235", 
              "name": "Farmers Market"
            }, 
            {
              "id": "169207329791658", 
              "name": "Grocery Store"
            }, 
            {
              "id": "148906328500868", 
              "name": "Hardware Store"
            }
          ], 
          "location": {
            "city": "Apache Junction", 
            "zip": "85120", 
            "country": "United States", 
            "longitude": -111.58466357794001, 
            "state": "AZ", 
            "street": "7 N. 114th Street", 
            "latitude": 33.415853596506999
          }
        }
      ]
    }
  }, 
  {
    "business_name": "Pita Jungle", 
    "business_id": "1Duul3qCnLrNak1Np-iHfw", 
    "fb_pages": {
      "paging": {
        "next": "https://graph.facebook.com/search?type=place&access_token=229546593895315|yPLlHqq6YvDLIH4nL0kjJtIFSlU&limit=5000&offset=5000&__after_id=111690462200182"
      }, 
      "data": [
        {
          "category": "Local business", 
          "name": "Pita Jungle", 
          "id": "105412492872211", 
          "category_list": [
            {
              "id": "176960322351733", 
              "name": "Mediterranean Restaurant"
            }
          ], 
          "location": {
            "city": "Phoenix", 
            "zip": "85044", 
            "country": "United States", 
            "longitude": -111.97685267497, 
            "state": "AZ", 
            "street": "", 
            "latitude": 33.317285018089997
          }
        }, 
        {
          "category": "Local business", 
          "name": "Pita Jungle", 
          "id": "115433591812986", 
          "category_list": [
            {
              "id": "144722595590046", 
              "name": "Greek Restaurant"
            }, 
            {
              "id": "119869574758000", 
              "name": "Tapas Bar & Restaurant"
            }, 
            {
              "id": "200742186618963", 
              "name": "Vegetarian & Vegan Restaurant"
            }
          ], 
          "location": {
            "city": "Chandler", 
            "zip": "85224-4008", 
            "country": "United States", 
            "longitude": -111.87405487253, 
            "state": "AZ", 
            "street": "1949 W Ray Rd Ste 28", 
            "latitude": 33.319534755642003
          }
        }, 
        {
          "category": "Restaurant/cafe", 
          "name": "Pita Jungle", 
          "id": "146168445403729", 
          "category_list": [
            {
              "id": "144722595590046", 
              "name": "Greek Restaurant"
            }, 
            {
              "id": "167885889930008", 
              "name": "Middle Eastern Restaurant"
            }
          ], 
          "location": {
            "city": "Phoenix", 
            "zip": "85050", 
            "country": "United States", 
            "longitude": -111.97984441295, 
            "state": "AZ", 
            "street": "20910 N. Tatum Blvd. \u2022 Ste 140 ", 
            "latitude": 33.675058632983998
          }
        }, 
        {
          "category": "Restaurant/cafe", 
          "name": "Pita Jungle", 
          "id": "168815073132976", 
          "category_list": [
            {
              "id": "144722595590046", 
              "name": "Greek Restaurant"
            }
          ], 
          "location": {
            "city": "Gilbert", 
            "zip": "85295-1690", 
            "country": "United States", 
            "longitude": -111.75948246208, 
            "state": "AZ", 
            "street": "1431 E Williams Field Rd Ste 101", 
            "latitude": 33.306147794767
          }
        }, 
        {
          "category": "Restaurant/cafe", 
          "name": "Pita Jungle", 
          "id": "109351749103852", 
          "category_list": [
            {
              "id": "176960322351733", 
              "name": "Mediterranean Restaurant"
            }
          ], 
          "location": {
            "city": "Tempe", 
            "zip": "85281-5870", 
            "country": "United States", 
            "longitude": -111.91805467037, 
            "state": "AZ", 
            "street": "1250 E Apache Blvd", 
            "latitude": 33.415428134789003
          }
        }, 
        {
          "category": "Restaurant/cafe", 
          "name": "Pita jungle", 
          "id": "120436728008813", 
          "category_list": [
            {
              "id": "144722595590046", 
              "name": "Greek Restaurant"
            }, 
            {
              "id": "176960322351733", 
              "name": "Mediterranean Restaurant"
            }, 
            {
              "id": "200742186618963", 
              "name": "Vegetarian & Vegan Restaurant"
            }
          ], 
          "location": {
            "city": "Mesa", 
            "zip": "85202", 
            "country": "United States", 
            "longitude": -111.87173071212, 
            "state": "AZ", 
            "street": "1850 W. Southern Ave. ", 
            "latitude": 33.393458517417997
          }
        }, 
        {
          "category": "Local business", 
          "name": "Pita Jungle", 
          "id": "113901845308178", 
          "category_list": [
            {
              "id": "144722595590046", 
              "name": "Greek Restaurant"
            }, 
            {
              "id": "176960322351733", 
              "name": "Mediterranean Restaurant"
            }, 
            {
              "id": "200742186618963", 
              "name": "Vegetarian & Vegan Restaurant"
            }
          ], 
          "location": {
            "city": "Scottsdale", 
            "zip": "85260-6471", 
            "country": "United States", 
            "longitude": -111.92243126867, 
            "state": "AZ", 
            "street": "7366 E Shea Blvd Ste 105", 
            "latitude": 33.583832235400997
          }
        }, 
        {
          "category": "Local business", 
          "name": "Pita Jungle", 
          "id": "305788662781640", 
          "category_list": [
            {
              "id": "200742186618963", 
              "name": "Vegetarian & Vegan Restaurant"
            }
          ], 
          "location": {
            "city": "Glendale", 
            "zip": "85308", 
            "country": "United States", 
            "longitude": -112.22095570412, 
            "state": "AZ", 
            "street": "7530 W. Bell Rd.", 
            "latitude": 33.639790373905001
          }
        }, 
        {
          "category": "Local business", 
          "name": "Pita Jungle - Norterra", 
          "id": "142781492485163", 
          "category_list": [
            {
              "id": "176960322351733", 
              "name": "Mediterranean Restaurant"
            }, 
            {
              "id": "144722595590046", 
              "name": "Greek Restaurant"
            }, 
            {
              "id": "110107385737667", 
              "name": "New American Restaurant"
            }
          ], 
          "location": {
            "city": "Phoenix", 
            "zip": "85085 ", 
            "country": "United States", 
            "longitude": -112.11366897995001, 
            "state": "AZ", 
            "street": "2530 W. Happy Valley Rd., Suite 1261", 
            "latitude": 33.715235573209
          }
        }, 
        {
          "category": "Restaurant/cafe", 
          "name": "Pita Jungle", 
          "id": "121742904541953", 
          "category_list": [
            {
              "id": "176960322351733", 
              "name": "Mediterranean Restaurant"
            }, 
            {
              "id": "144722595590046", 
              "name": "Greek Restaurant"
            }, 
            {
              "id": "200742186618963", 
              "name": "Vegetarian & Vegan Restaurant"
            }
          ], 
          "location": {
            "city": "Phoenix", 
            "zip": "85018", 
            "country": "United States", 
            "longitude": -111.98822762653, 
            "state": "AZ", 
            "street": "4340 E Indian School Rd", 
            "latitude": 33.495751550401998
          }
        }, 
        {
          "category": "Restaurant/cafe", 
          "name": "Pita Jungle San Diego", 
          "id": "201638886558380", 
          "category_list": [
            {
              "id": "119869574758000", 
              "name": "Tapas Bar & Restaurant"
            }
          ], 
          "location": {
            "city": "San Diego", 
            "zip": "92103", 
            "country": "United States", 
            "longitude": -117.15419551856, 
            "state": "CA", 
            "street": "1045 University Ave", 
            "latitude": 32.748251386781
          }
        }, 
        {
          "category": "Local business", 
          "name": "Pita Jungle - Downtown", 
          "id": "168843459804616", 
          "category_list": [
            {
              "id": "273819889375819", 
              "name": "Restaurant"
            }
          ], 
          "location": {
            "city": "Phoenix", 
            "zip": "85003", 
            "country": "United States", 
            "longitude": -112.07756513245, 
            "state": "AZ", 
            "street": "1001 N 3rd Ave", 
            "latitude": 33.458848763614
          }
        }, 
        {
          "category": "Restaurant/cafe", 
          "name": "Pita Jungle Tucson", 
          "id": "153378658054701", 
          "category_list": [
            {
              "id": "200742186618963", 
              "name": "Vegetarian & Vegan Restaurant"
            }, 
            {
              "id": "144722595590046", 
              "name": "Greek Restaurant"
            }
          ], 
          "location": {
            "city": "Tucson", 
            "zip": "85711", 
            "country": "United States", 
            "longitude": -110.87886364371001, 
            "state": "AZ", 
            "street": "5340 E Broadway", 
            "latitude": 32.221176727196998
          }
        }, 
        {
          "category": "Restaurant/cafe", 
          "name": "Pita Jungle Pasadena", 
          "id": "150570001663085", 
          "category_list": [
            {
              "id": "144722595590046", 
              "name": "Greek Restaurant"
            }, 
            {
              "id": "200742186618963", 
              "name": "Vegetarian & Vegan Restaurant"
            }, 
            {
              "id": "176960322351733", 
              "name": "Mediterranean Restaurant"
            }
          ], 
          "location": {
            "city": "Pasadena", 
            "zip": "91105", 
            "country": "United States", 
            "longitude": -118.14957181935, 
            "state": "CA", 
            "street": "43 East Colorado Blvd.", 
            "latitude": 34.145875138340998
          }
        }, 
        {
          "category": "Restaurant/cafe", 
          "name": "Pita Jungle in Flagstaff", 
          "id": "110534248982644", 
          "category_list": [
            {
              "id": "144722595590046", 
              "name": "Greek Restaurant"
            }, 
            {
              "id": "156756251046858", 
              "name": "Health Food Restaurant"
            }
          ], 
          "location": {
            "city": "Flagstaff", 
            "zip": "86001", 
            "country": "United States", 
            "longitude": -111.6418315774, 
            "state": "AZ", 
            "street": "320 South Regent Street #2", 
            "latitude": 35.191579755207002
          }
        }, 
        {
          "category": "Local business", 
          "name": "Pita Jungle", 
          "id": "1417808838438865", 
          "category_list": [
            {
              "id": "165679780146824", 
              "name": "Food & Restaurant"
            }
          ], 
          "location": {
            "city": "Tucson", 
            "zip": "85704", 
            "country": "United States", 
            "longitude": -110.976099031, 
            "state": "AZ", 
            "street": "7090 N Oracle", 
            "latitude": 32.335381938300003
          }
        }, 
        {
          "category": "Local business", 
          "name": "Pita Jungle", 
          "id": "214511518628786", 
          "category_list": [
            {
              "id": "188296324525457", 
              "name": "Sandwich Shop"
            }
          ], 
          "location": {
            "city": "Newport Beach", 
            "zip": "92660", 
            "country": "United States", 
            "longitude": -117.86407375162, 
            "state": "CA", 
            "street": "", 
            "latitude": 33.638053338108001
          }
        }, 
        {
          "category": "Local business", 
          "name": "Pita Jungle \"The Art of Eating Healthy\"", 
          "id": "167789333275259", 
          "category_list": [
            {
              "id": "273819889375819", 
              "name": "Restaurant"
            }
          ], 
          "location": {
            "city": "Tucson", 
            "zip": "85711", 
            "country": "United States", 
            "longitude": -110.87896402699999, 
            "state": "AZ", 
            "street": "", 
            "latitude": 32.220927281900003
          }
        }, 
        {
          "category": "Local business", 
          "name": "Pita Jungle", 
          "id": "272915119388932", 
          "category_list": [
            {
              "id": "2500", 
              "name": "Local Business"
            }
          ], 
          "location": {
            "city": "Phoenix", 
            "zip": "", 
            "country": "United States", 
            "longitude": -112.036885617, 
            "state": "AZ", 
            "street": "", 
            "latitude": 33.688294412600001
          }
        }, 
        {
          "category": "Local business", 
          "name": "Alaska Pita Pizza Jungle", 
          "id": "111690462200182", 
          "category_list": [
            {
              "id": "199377230079198", 
              "name": "Mexican Restaurant"
            }, 
            {
              "id": "180256082015845", 
              "name": "Pizza Place"
            }
          ], 
          "location": {
            "city": "Kenai", 
            "zip": "99611-7811", 
            "country": "United States", 
            "longitude": -151.23767100000001, 
            "state": "AK", 
            "street": "10544 Kenai Spur Hwy", 
            "latitude": 60.559913999999999
          }
        }
      ]
    }
  }, 
  {
    "business_name": "Black Angus Steakhouse", 
    "business_id": "z3zcsnK26QhC7TqDX73zvA", 
    "fb_pages": {
      "paging": {
        "next": "https://graph.facebook.com/search?type=place&access_token=229546593895315|yPLlHqq6YvDLIH4nL0kjJtIFSlU&limit=5000&offset=5000&__after_id=249297211858969"
      }, 
      "data": [
        {
          "category": "Local business", 
          "name": "Black Angus Steakhouse", 
          "id": "111612675541703", 
          "category_list": [
            {
              "id": "198367566846946", 
              "name": "Steakhouse"
            }
          ], 
          "location": {
            "city": "Bakersfield", 
            "zip": "93308-6230", 
            "country": "United States", 
            "longitude": -119.04795163036, 
            "state": "CA", 
            "street": "3601 Rosedale Hwy", 
            "latitude": 35.382713960163997
          }
        }, 
        {
          "category": "Local business", 
          "name": "Black Angus Steakhouse", 
          "id": "111728008865190", 
          "category_list": [
            {
              "id": "354275401259620", 
              "name": "Nightlife"
            }, 
            {
              "id": "149803325077018", 
              "name": "American Restaurant"
            }, 
            {
              "id": "198367566846946", 
              "name": "Steakhouse"
            }
          ], 
          "location": {
            "city": "Lancaster", 
            "zip": "93536-6534", 
            "country": "United States", 
            "longitude": -118.17079845384001, 
            "state": "CA", 
            "street": "44690 Valley Central Way", 
            "latitude": 34.694436167698001
          }
        }, 
        {
          "category": "Local business", 
          "name": "Black Angus Steakhouse", 
          "id": "117071588311196", 
          "category_list": [
            {
              "id": "110290705711626", 
              "name": "Bar"
            }, 
            {
              "id": "198367566846946", 
              "name": "Steakhouse"
            }
          ], 
          "location": {
            "city": "Fresno", 
            "zip": "93710-8103", 
            "country": "United States", 
            "longitude": -119.75540059545, 
            "state": "CA", 
            "street": "1737 E Shaw Ave", 
            "latitude": 36.807853403806
          }
        }, 
        {
          "category": "Local business", 
          "name": "Black Angus Steakhouse", 
          "id": "117135311637939", 
          "category_list": [
            {
              "id": "198367566846946", 
              "name": "Steakhouse"
            }
          ], 
          "location": {
            "city": "Goodyear", 
            "zip": "85395-2609", 
            "country": "United States", 
            "longitude": -112.35531779394999, 
            "state": "AZ", 
            "street": "13766 W. McDowell Road", 
            "latitude": 33.464905514428999
          }
        }, 
        {
          "category": "Local business", 
          "name": "Black Angus Steakhouse", 
          "id": "115707815126044", 
          "category_list": [
            {
              "id": "198367566846946", 
              "name": "Steakhouse"
            }
          ], 
          "location": {
            "city": "Citrus Heights", 
            "zip": "95610-6907", 
            "country": "United States", 
            "longitude": -121.26982794488001, 
            "state": "CA", 
            "street": "7925 Greenback Ln", 
            "latitude": 38.678615570433003
          }
        }, 
        {
          "category": "Local business", 
          "name": "Black Angus Steakhouse", 
          "id": "119756078037967", 
          "category_list": [
            {
              "id": "198367566846946", 
              "name": "Steakhouse"
            }, 
            {
              "id": "110290705711626", 
              "name": "Bar"
            }
          ], 
          "location": {
            "city": "San Jose", 
            "zip": "95123-1104", 
            "country": "United States", 
            "longitude": -121.86904247203, 
            "state": "CA", 
            "street": "1011 Blossom Hill Rd", 
            "latitude": 37.251463332543999
          }
        }, 
        {
          "category": "Local business", 
          "name": "Black Angus Steakhouse", 
          "id": "100843849959943", 
          "category_list": [
            {
              "id": "198367566846946", 
              "name": "Steakhouse"
            }
          ], 
          "location": {
            "city": "Fountain Valley", 
            "zip": "92708-5161", 
            "country": "United States", 
            "longitude": -117.95263700544, 
            "state": "CA", 
            "street": "17920 Brookhurst St", 
            "latitude": 33.703223650238002
          }
        }, 
        {
          "category": "Local business", 
          "name": "Black Angus Steakhouse", 
          "id": "116365891721227", 
          "category_list": [
            {
              "id": "110290705711626", 
              "name": "Bar"
            }, 
            {
              "id": "198367566846946", 
              "name": "Steakhouse"
            }, 
            {
              "id": "133436743388217", 
              "name": "Arts & Entertainment"
            }
          ], 
          "location": {
            "city": "El Cajon", 
            "zip": "92021-4558", 
            "country": "United States", 
            "longitude": -116.96083800018999, 
            "state": "CA", 
            "street": "1000 Graves Ave", 
            "latitude": 32.809081473264001
          }
        }, 
        {
          "category": "Local business", 
          "name": "Black Angus Steakhouse", 
          "id": "155641364497198", 
          "category_list": [
            {
              "id": "198367566846946", 
              "name": "Steakhouse"
            }
          ], 
          "location": {
            "city": "Burbank", 
            "zip": "91502-1904", 
            "country": "United States", 
            "longitude": -118.30888312275, 
            "state": "CA", 
            "street": "235 S 1st St", 
            "latitude": 34.178222344585997
          }
        }, 
        {
          "category": "Local business", 
          "name": "Black Angus Steakhouse", 
          "id": "105979776110723", 
          "category_list": [
            {
              "id": "198367566846946", 
              "name": "Steakhouse"
            }
          ], 
          "location": {
            "city": "Puyallup", 
            "zip": "98374-1248", 
            "country": "United States", 
            "longitude": -122.29177201031, 
            "state": "WA", 
            "street": "203 35th Ave SE", 
            "latitude": 47.158814418746999
          }
        }, 
        {
          "category": "Local business", 
          "name": "Black Angus Steakhouse", 
          "id": "117279821625306", 
          "category_list": [
            {
              "id": "198367566846946", 
              "name": "Steakhouse"
            }, 
            {
              "id": "133436743388217", 
              "name": "Arts & Entertainment"
            }
          ], 
          "location": {
            "city": "Buena Park", 
            "zip": "90620-1833", 
            "country": "United States", 
            "longitude": -117.99867009227999, 
            "state": "CA", 
            "street": "7111 Beach Boulevard", 
            "latitude": 33.857800023063
          }
        }, 
        {
          "category": "Local business", 
          "name": "Black Angus Steakhouse", 
          "id": "117850028226475", 
          "category_list": [
            {
              "id": "198367566846946", 
              "name": "Steakhouse"
            }
          ], 
          "location": {
            "city": "San Lorenzo", 
            "zip": "94580-1538", 
            "country": "United States", 
            "longitude": -122.12802698892, 
            "state": "CA", 
            "street": "15800 Hesperian Blvd", 
            "latitude": 37.682522099000998
          }
        }, 
        {
          "category": "Local business", 
          "name": "Black Angus Steakhouse", 
          "id": "115991135088499", 
          "category_list": [
            {
              "id": "198367566846946", 
              "name": "Steakhouse"
            }
          ], 
          "location": {
            "city": "Federal Way", 
            "zip": "98003-5419", 
            "country": "United States", 
            "longitude": -122.30262871748, 
            "state": "WA", 
            "street": "2400 S 320th St", 
            "latitude": 47.315701007595997
          }
        }, 
        {
          "category": "Local business", 
          "name": "Black Angus Steakhouse", 
          "id": "115902881772672", 
          "category_list": [
            {
              "id": "198367566846946", 
              "name": "Steakhouse"
            }, 
            {
              "id": "149803325077018", 
              "name": "American Restaurant"
            }
          ], 
          "location": {
            "city": "Santa Ana", 
            "zip": "92705-8617", 
            "country": "United States", 
            "longitude": -117.83491544761, 
            "state": "CA", 
            "street": "1350 N Tustin Ave", 
            "latitude": 33.756807510731001
          }
        }, 
        {
          "category": "Local business", 
          "name": "Black Angus Steakhouse", 
          "id": "115991431755373", 
          "category_list": [
            {
              "id": "110290705711626", 
              "name": "Bar"
            }, 
            {
              "id": "198367566846946", 
              "name": "Steakhouse"
            }
          ], 
          "location": {
            "city": "Vallejo", 
            "zip": "94591-3702", 
            "country": "United States", 
            "longitude": -122.21728465295, 
            "state": "CA", 
            "street": "124 Plaza Dr", 
            "latitude": 38.133689871561998
          }
        }, 
        {
          "category": "Local business", 
          "name": "Black Angus Steakhouse", 
          "id": "117493658277596", 
          "category_list": [
            {
              "id": "198367566846946", 
              "name": "Steakhouse"
            }, 
            {
              "id": "110290705711626", 
              "name": "Bar"
            }
          ], 
          "location": {
            "city": "Northridge", 
            "zip": "91324-2402", 
            "country": "United States", 
            "longitude": -118.56279115114999, 
            "state": "CA", 
            "street": "9145 Corbin Ave", 
            "latitude": 34.236817744311999
          }
        }, 
        {
          "category": "Local business", 
          "name": "Black Angus Steakhouse", 
          "id": "111751865527706", 
          "category_list": [
            {
              "id": "192831537402299", 
              "name": "Family Style Restaurant"
            }, 
            {
              "id": "149803325077018", 
              "name": "American Restaurant"
            }, 
            {
              "id": "198367566846946", 
              "name": "Steakhouse"
            }
          ], 
          "location": {
            "city": "Dublin", 
            "zip": "94568-7566", 
            "country": "United States", 
            "longitude": -121.88262590646001, 
            "state": "CA", 
            "street": "4814 Dublin Boulevard", 
            "latitude": 37.702741953569003
          }
        }, 
        {
          "category": "Local business", 
          "name": "Black Angus Steakhouse", 
          "id": "153113058045524", 
          "category_list": [
            {
              "id": "149803325077018", 
              "name": "American Restaurant"
            }, 
            {
              "id": "198367566846946", 
              "name": "Steakhouse"
            }
          ], 
          "location": {
            "city": "Pleasant Hill", 
            "zip": "94523", 
            "country": "United States", 
            "longitude": -122.06099913894001, 
            "state": "CA", 
            "street": "3195 N Main St", 
            "latitude": 37.932877810988998
          }
        }, 
        {
          "category": "Local business", 
          "name": "Black Angus Steakhouse", 
          "id": "111284752238594", 
          "category_list": [
            {
              "id": "198367566846946", 
              "name": "Steakhouse"
            }
          ], 
          "location": {
            "city": "San Bernardino", 
            "zip": "92408-3415", 
            "country": "United States", 
            "longitude": -117.28056993995, 
            "state": "CA", 
            "street": "290 E Hospitality Ln", 
            "latitude": 34.066112554208999
          }
        }, 
        {
          "category": "Local business", 
          "name": "Black Angus Steakhouse", 
          "id": "113522968681515", 
          "category_list": [
            {
              "id": "198367566846946", 
              "name": "Steakhouse"
            }
          ], 
          "location": {
            "city": "Temecula", 
            "zip": "92591-4658", 
            "country": "United States", 
            "longitude": -117.14931568997, 
            "state": "CA", 
            "street": "27735 Ynez Rd", 
            "latitude": 33.502822115111002
          }
        }, 
        {
          "category": "Local business", 
          "name": "Black Angus Steakhouse", 
          "id": "109619659073197", 
          "category_list": [
            {
              "id": "198367566846946", 
              "name": "Steakhouse"
            }
          ], 
          "location": {
            "city": "Phoenix", 
            "zip": "85051-1524", 
            "country": "United States", 
            "longitude": -112.11800041316999, 
            "state": "AZ", 
            "street": "10021 N Metro Pkwy E", 
            "latitude": 33.577637216565002
          }
        }, 
        {
          "category": "Local business", 
          "name": "Black Angus Steakhouse", 
          "id": "111773842191158", 
          "category_list": [
            {
              "id": "198367566846946", 
              "name": "Steakhouse"
            }
          ], 
          "location": {
            "city": "Lakewood", 
            "zip": "98499-2807", 
            "country": "United States", 
            "longitude": -122.51119890294, 
            "state": "WA", 
            "street": "9905 Bridgeport Way SW", 
            "latitude": 47.167572713836996
          }
        }, 
        {
          "category": "Local business", 
          "name": "Black Angus Steakhouse", 
          "id": "111273052238607", 
          "category_list": [
            {
              "id": "198367566846946", 
              "name": "Steakhouse"
            }
          ], 
          "location": {
            "city": "Mesa", 
            "zip": "85209-3302", 
            "country": "United States", 
            "longitude": -111.68253558176001, 
            "state": "AZ", 
            "street": "6902 East Hampton Avenue", 
            "latitude": 33.390754971515001
          }
        }, 
        {
          "category": "Local business", 
          "name": "Black Angus Steakhouse", 
          "id": "115941245094649", 
          "category_list": [
            {
              "id": "198367566846946", 
              "name": "Steakhouse"
            }, 
            {
              "id": "149803325077018", 
              "name": "American Restaurant"
            }, 
            {
              "id": "203693296307954", 
              "name": "Southern Restaurant"
            }
          ], 
          "location": {
            "city": "Sunnyvale", 
            "zip": "94087-2918", 
            "country": "United States", 
            "longitude": -122.02115311855, 
            "state": "CA", 
            "street": "740 E El Camino Real", 
            "latitude": 37.358036625757997
          }
        }, 
        {
          "category": "Local business", 
          "name": "Black Angus Steakhouse", 
          "id": "120946947918552", 
          "category_list": [
            {
              "id": "198367566846946", 
              "name": "Steakhouse"
            }
          ], 
          "location": {
            "city": "Yakima", 
            "zip": "98901-2323", 
            "country": "United States", 
            "longitude": -120.51030353986999, 
            "state": "WA", 
            "street": "501 N Front St", 
            "latitude": 46.608438282922002
          }
        }, 
        {
          "category": "Local business", 
          "name": "Black Angus Steakhouse", 
          "id": "186711511433533", 
          "category_list": [
            {
              "id": "198367566846946", 
              "name": "Steakhouse"
            }
          ], 
          "location": {
            "city": "Vancouver", 
            "zip": "98660", 
            "country": "United States", 
            "longitude": -122.66668338539, 
            "state": "WA", 
            "street": "", 
            "latitude": 45.630865441963998
          }
        }, 
        {
          "category": "Local business", 
          "name": "Black Angus Steakhouse", 
          "id": "136052026461363", 
          "category_list": [
            {
              "id": "198367566846946", 
              "name": "Steakhouse"
            }, 
            {
              "id": "110290705711626", 
              "name": "Bar"
            }
          ], 
          "location": {
            "city": "Chula Vista", 
            "zip": "91910", 
            "country": "United States", 
            "longitude": -117.09794802968, 
            "state": "CA", 
            "street": "", 
            "latitude": 32.640528154122997
          }
        }, 
        {
          "category": "Local business", 
          "name": "Black Angus Steakhouse -\tLakewood", 
          "id": "171216416287535", 
          "category_list": [
            {
              "id": "198367566846946", 
              "name": "Steakhouse"
            }
          ], 
          "location": {
            "city": "Lakewood", 
            "zip": "90712", 
            "country": "United States", 
            "longitude": -118.13492159501, 
            "state": "CA", 
            "street": "5000 Candlewood STreet", 
            "latitude": 33.853359382138002
          }
        }, 
        {
          "category": "Local business", 
          "name": "Black Angus Steakhouse", 
          "id": "115673411793742", 
          "category_list": [
            {
              "id": "198367566846946", 
              "name": "Steakhouse"
            }
          ], 
          "location": {
            "city": "Canton", 
            "zip": "57013-1733", 
            "country": "United States", 
            "longitude": -96.590800107299998, 
            "state": "SD", 
            "street": "215 E 5th St", 
            "latitude": 43.300659048599996
          }
        }, 
        {
          "category": "Local business", 
          "name": "Black Angus Steakhouse", 
          "id": "117903064902755", 
          "category_list": [
            {
              "id": "198367566846946", 
              "name": "Steakhouse"
            }
          ], 
          "location": {
            "city": "Valencia", 
            "zip": "91355-5145", 
            "country": "United States", 
            "longitude": -118.56361055023, 
            "state": "CA", 
            "street": "27007 McBean Parkway", 
            "latitude": 34.420485643413997
          }
        }, 
        {
          "category": "Local business", 
          "name": "Black Angus Steakhouse", 
          "id": "194015370643562", 
          "category_list": [
            {
              "id": "198367566846946", 
              "name": "Steakhouse"
            }, 
            {
              "id": "192831537402299", 
              "name": "Family Style Restaurant"
            }
          ], 
          "location": {
            "city": "Panama City", 
            "zip": "32405", 
            "country": "United States", 
            "longitude": -85.719412506200001, 
            "state": "FL", 
            "street": "", 
            "latitude": 30.181221902800001
          }
        }, 
        {
          "category": "Local business", 
          "name": "Black Angus Steakhouse", 
          "id": "180789485292701", 
          "category_list": [
            {
              "id": "198367566846946", 
              "name": "Steakhouse"
            }
          ], 
          "location": {
            "city": "San Diego", 
            "zip": "92120", 
            "country": "United States", 
            "longitude": -117.09990048500001, 
            "state": "CA", 
            "street": "", 
            "latitude": 32.790724806599997
          }
        }, 
        {
          "category": "Local business", 
          "name": "Black Angus Steakhouse", 
          "id": "245474322251216", 
          "category_list": [
            {
              "id": "198367566846946", 
              "name": "Steakhouse"
            }
          ], 
          "location": {
            "city": "Ontario", 
            "zip": "91764", 
            "country": "United States", 
            "longitude": -117.57326651156001, 
            "state": "CA", 
            "street": "Porsche Way", 
            "latitude": 34.068686470640998
          }
        }, 
        {
          "category": "Local business", 
          "name": "Black Angus Steakhouse", 
          "id": "228093047240087", 
          "category_list": [
            {
              "id": "198367566846946", 
              "name": "Steakhouse"
            }
          ], 
          "location": {
            "city": "Orlando", 
            "zip": "32819", 
            "country": "United States", 
            "longitude": -81.466671510699996, 
            "state": "FL", 
            "street": "", 
            "latitude": 28.4619263602
          }
        }, 
        {
          "category": "Local business", 
          "name": "Black Angus Steakhouse", 
          "id": "110937458988571", 
          "category_list": [
            {
              "id": "198367566846946", 
              "name": "Steakhouse"
            }
          ], 
          "location": {
            "city": "Albuquerque", 
            "zip": "", 
            "country": "United States", 
            "longitude": -106.550356906, 
            "state": "NM", 
            "street": "", 
            "latitude": 35.107383431199999
          }
        }, 
        {
          "category": "Local business", 
          "name": "Black Angus Steakhouse", 
          "id": "159455497420449", 
          "category_list": [
            {
              "id": "198367566846946", 
              "name": "Steakhouse"
            }
          ], 
          "location": {
            "city": "Chandler", 
            "zip": "85224-4908", 
            "country": "United States", 
            "longitude": -111.890266, 
            "state": "AZ", 
            "street": "2770 W Chandler Blvd", 
            "latitude": 33.306496000000003
          }
        }, 
        {
          "category": "Local business", 
          "name": "Black Angus Steakhouse", 
          "id": "109297662444149", 
          "category_list": [
            {
              "id": "198367566846946", 
              "name": "Steakhouse"
            }
          ], 
          "location": {
            "city": "Tucson", 
            "zip": "85704-3711", 
            "country": "United States", 
            "longitude": -110.97910070143, 
            "state": "AZ", 
            "street": "5075 N Oracle Rd", 
            "latitude": 32.298593783022
          }
        }, 
        {
          "category": "Local business", 
          "name": "Black Angus Steakhouse!", 
          "id": "166308440139631", 
          "category_list": [
            {
              "id": "198367566846946", 
              "name": "Steakhouse"
            }
          ], 
          "location": {
            "city": "Monrovia", 
            "zip": "91016", 
            "country": "United States", 
            "longitude": -118.011146604, 
            "state": "CA", 
            "street": "", 
            "latitude": 34.1396943827
          }
        }, 
        {
          "category": "Local business", 
          "name": "Black Angus Steakhouse", 
          "id": "405381636165317", 
          "category_list": [
            {
              "id": "198367566846946", 
              "name": "Steakhouse"
            }
          ], 
          "location": {
            "city": "Kissimmee", 
            "zip": "34747", 
            "country": "United States", 
            "longitude": -81.587205769600004, 
            "state": "FL", 
            "street": "", 
            "latitude": 28.332128748399999
          }
        }, 
        {
          "category": "Local business", 
          "name": "Black Angus Steakhouse", 
          "id": "275884232438346", 
          "category_list": [
            {
              "id": "198367566846946", 
              "name": "Steakhouse"
            }
          ], 
          "location": {
            "latitude": 28.382133174300002, 
            "street": "", 
            "zip": "32830", 
            "longitude": -81.505551171500002
          }
        }, 
        {
          "category": "Local business", 
          "name": "Black Angus", 
          "id": "154915477933294", 
          "category_list": [
            {
              "id": "198367566846946", 
              "name": "Steakhouse"
            }
          ], 
          "location": {
            "city": "Spokane Valley", 
            "zip": "99216", 
            "country": "United States", 
            "longitude": -117.206758335, 
            "state": "WA", 
            "street": "", 
            "latitude": 47.675756701899999
          }
        }, 
        {
          "category": "Restaurant/cafe", 
          "name": "Black Angus Grill", 
          "id": "311957368888487", 
          "category_list": [
            {
              "id": "273819889375819", 
              "name": "Restaurant"
            }
          ], 
          "location": {
            "city": "Danbury", 
            "zip": "06810", 
            "country": "United States", 
            "longitude": -73.415194698350007, 
            "state": "CT", 
            "street": "5 Eagle Rd ", 
            "latitude": 41.410432706879
          }
        }, 
        {
          "category": "Local business", 
          "name": "Black Angus Steakhouse", 
          "id": "334244623273817", 
          "category_list": [
            {
              "id": "198367566846946", 
              "name": "Steakhouse"
            }
          ], 
          "location": {
            "city": "Ventura", 
            "zip": "93003", 
            "country": "United States", 
            "longitude": -119.232969299, 
            "state": "CA", 
            "street": "", 
            "latitude": 34.260849962100004
          }
        }, 
        {
          "category": "Local business", 
          "name": "Black Angus Steakhouse", 
          "id": "120521894626430", 
          "category_list": [
            {
              "id": "198367566846946", 
              "name": "Steakhouse"
            }
          ], 
          "location": {
            "city": "Phoenix", 
            "zip": "85027-3240", 
            "country": "United States", 
            "longitude": -112.117935, 
            "state": "AZ", 
            "street": "20440 N 27th Ave", 
            "latitude": 33.673324999999998
          }
        }, 
        {
          "category": "Local business", 
          "name": "Black Angus Steakhouse", 
          "id": "116159045074733", 
          "category_list": [
            {
              "id": "198367566846946", 
              "name": "Steakhouse"
            }
          ], 
          "location": {
            "city": "Modesto", 
            "zip": "95350-2501", 
            "country": "United States", 
            "longitude": -121.035775, 
            "state": "CA", 
            "street": "1616 Sisk Rd", 
            "latitude": 37.669528999999997
          }
        }, 
        {
          "category": "Local business", 
          "name": "Black Angus Steakhouse", 
          "id": "111579022216006", 
          "category_list": [
            {
              "id": "198367566846946", 
              "name": "Steakhouse"
            }
          ], 
          "location": {
            "city": "Tustin", 
            "zip": "92782-8906", 
            "country": "United States", 
            "longitude": -117.79360200000001, 
            "state": "CA", 
            "street": "3030 El Camino Real", 
            "latitude": 33.722262999999998
          }
        }, 
        {
          "category": "Local business", 
          "name": "Black Angus Steakhouse", 
          "id": "113577172010339", 
          "category_list": [
            {
              "id": "198367566846946", 
              "name": "Steakhouse"
            }
          ], 
          "location": {
            "city": "Rancho Mirage", 
            "zip": "92270-2868", 
            "country": "United States", 
            "longitude": -116.447182, 
            "state": "CA", 
            "street": "69640 Highway 111", 
            "latitude": 33.77375
          }
        }, 
        {
          "category": "Restaurant/cafe", 
          "name": "J. Ford's Black Angus", 
          "id": "135295923182921", 
          "category_list": [
            {
              "id": "198367566846946", 
              "name": "Steakhouse"
            }, 
            {
              "id": "149803325077018", 
              "name": "American Restaurant"
            }
          ], 
          "location": {
            "city": "Terre Haute", 
            "zip": "47807", 
            "country": "United States", 
            "longitude": -87.413906625638006, 
            "state": "IN", 
            "street": "502 S 3rd St", 
            "latitude": 39.461281449651999
          }
        }, 
        {
          "category": "Local business", 
          "name": "Black Angus Steakhouse", 
          "id": "166708320013932", 
          "category_list": [
            {
              "id": "198367566846946", 
              "name": "Steakhouse"
            }
          ], 
          "location": {
            "city": "Carson", 
            "zip": "90745", 
            "country": "United States", 
            "longitude": -118.28523443900001, 
            "state": "CA", 
            "street": "", 
            "latitude": 33.830291796899999
          }
        }, 
        {
          "category": "Local business", 
          "name": "Black Angus Steakhouse", 
          "id": "160134990680647", 
          "category_list": [
            {
              "id": "198367566846946", 
              "name": "Steakhouse"
            }
          ], 
          "location": {
            "city": "Chino", 
            "zip": "91710-5435", 
            "country": "United States", 
            "longitude": -117.717857, 
            "state": "CA", 
            "street": "3968 Grand Ave", 
            "latitude": 33.997971
          }
        }, 
        {
          "category": "Local business", 
          "name": "Black Angus Steakhouse", 
          "id": "109375455769415", 
          "category_list": [
            {
              "id": "198367566846946", 
              "name": "Steakhouse"
            }
          ], 
          "location": {
            "city": "Riverside", 
            "zip": "92505-3059", 
            "country": "United States", 
            "longitude": -117.470917, 
            "state": "CA", 
            "street": "3610 Park Sierra Dr", 
            "latitude": 33.902287000000001
          }
        }, 
        {
          "category": "Local business", 
          "name": "Black Angus Steakhouse", 
          "id": "123183414406248", 
          "category_list": [
            {
              "id": "192831537402299", 
              "name": "Family Style Restaurant"
            }, 
            {
              "id": "198367566846946", 
              "name": "Steakhouse"
            }
          ], 
          "location": {
            "city": "Beaverton", 
            "zip": "97005", 
            "country": "United States", 
            "longitude": -122.81074, 
            "state": "OR", 
            "street": "3800 1800 Se Cedar Hills Blvd", 
            "latitude": 45.491779999999999
          }
        }, 
        {
          "category": "Local business", 
          "name": "Black Angus Steakhouse", 
          "id": "113717381982924", 
          "category_list": [
            {
              "id": "198367566846946", 
              "name": "Steakhouse"
            }
          ], 
          "location": {
            "city": "Fremont", 
            "zip": "94538-2216", 
            "country": "United States", 
            "longitude": -121.980141, 
            "state": "CA", 
            "street": "3101 Walnut Ave", 
            "latitude": 37.551139999999997
          }
        }, 
        {
          "category": "Local business", 
          "name": "Black Angus Steakhouse", 
          "id": "118436481505367", 
          "category_list": [
            {
              "id": "198367566846946", 
              "name": "Steakhouse"
            }
          ], 
          "location": {
            "city": "Mesa", 
            "zip": "85210-4908", 
            "country": "United States", 
            "longitude": -111.855408, 
            "state": "AZ", 
            "street": "1164 W Southern Ave", 
            "latitude": 33.393324
          }
        }, 
        {
          "category": "Local business", 
          "name": "Black Angus Steakhouse", 
          "id": "121866657823692", 
          "category_list": [
            {
              "id": "198367566846946", 
              "name": "Steakhouse"
            }
          ], 
          "location": {
            "city": "Phoenix", 
            "zip": "85016-4712", 
            "country": "United States", 
            "longitude": -112.03713999999999, 
            "state": "AZ", 
            "street": "2125 E Camelback Rd", 
            "latitude": 33.507655999999997
          }
        }, 
        {
          "category": "Local business", 
          "name": "Black Angus Steakhouse", 
          "id": "133798550005634", 
          "category_list": [
            {
              "id": "198367566846946", 
              "name": "Steakhouse"
            }
          ], 
          "location": {
            "city": "Los Altos", 
            "zip": "94022-1070", 
            "country": "United States", 
            "longitude": -122.117418, 
            "state": "CA", 
            "street": "4410 El Camino Real Ste 201", 
            "latitude": 37.402802000000001
          }
        }, 
        {
          "category": "Local business", 
          "name": "Black Angus Steakhouse", 
          "id": "188589714614031", 
          "category_list": [
            {
              "id": "233804719972590", 
              "name": "Bar & Grill"
            }
          ], 
          "location": {
            "city": "Kissimmee", 
            "zip": "34746", 
            "country": "United States", 
            "longitude": -81.460957517899999, 
            "state": "FL", 
            "street": "", 
            "latitude": 28.320611449899999
          }
        }, 
        {
          "category": "Local business", 
          "name": "Black Angus Steakhouse", 
          "id": "100879869956847", 
          "category_list": [
            {
              "id": "198367566846946", 
              "name": "Steakhouse"
            }
          ], 
          "location": {
            "city": "Sacramento", 
            "zip": "95864-2963", 
            "country": "United States", 
            "longitude": -121.383904, 
            "state": "CA", 
            "street": "1625 Watt Ave", 
            "latitude": 38.594746000000001
          }
        }, 
        {
          "category": "Local business", 
          "name": "Black Angus Steakhouse", 
          "id": "111482392225534", 
          "category_list": [
            {
              "id": "198367566846946", 
              "name": "Steakhouse"
            }
          ], 
          "location": {
            "city": "Sacramento", 
            "zip": "95828-2899", 
            "country": "United States", 
            "longitude": -121.42626199999999, 
            "state": "CA", 
            "street": "6601 Florin Rd", 
            "latitude": 38.496440999999997
          }
        }, 
        {
          "category": "Local business", 
          "name": "Black Angus Steakhouse", 
          "id": "119564311390519", 
          "category_list": [
            {
              "id": "198367566846946", 
              "name": "Steakhouse"
            }
          ], 
          "location": {
            "city": "San Diego", 
            "zip": "92110-4586", 
            "country": "United States", 
            "longitude": -117.214169, 
            "state": "CA", 
            "street": "3340 Sports Arena Blvd", 
            "latitude": 32.754339999999999
          }
        }, 
        {
          "category": "Local business", 
          "name": "Black Angus Steakhouse", 
          "id": "121219854555292", 
          "category_list": [
            {
              "id": "198367566846946", 
              "name": "Steakhouse"
            }
          ], 
          "location": {
            "city": "Orlando", 
            "zip": "32822-2409", 
            "country": "United States", 
            "longitude": -81.309287999999995, 
            "state": "FL", 
            "street": "4645 S Semoran Blvd", 
            "latitude": 28.496378
          }
        }, 
        {
          "category": "Local business", 
          "name": "Black Angus Steakhouse", 
          "id": "310473042352455", 
          "category_list": [
            {
              "id": "2500", 
              "name": "Local Business"
            }
          ], 
          "location": {
            "city": "Anaheim", 
            "zip": "92805", 
            "country": "United States", 
            "longitude": -117.88933231599999, 
            "state": "CA", 
            "street": "", 
            "latitude": 33.839988655900001
          }
        }, 
        {
          "category": "Local business", 
          "name": "Stoudt's Black Angus", 
          "id": "197843333571661", 
          "category_list": [
            {
              "id": "198367566846946", 
              "name": "Steakhouse"
            }
          ], 
          "location": {
            "city": "Adamstown", 
            "zip": "19501", 
            "country": "United States", 
            "longitude": -76.071895481015005, 
            "state": "PA", 
            "street": "2800 North Reading Road", 
            "latitude": 40.237095461888003
          }
        }, 
        {
          "category": "Local business", 
          "name": "Black Angus Steakhouse", 
          "id": "111392918893779", 
          "category_list": [
            {
              "id": "198367566846946", 
              "name": "Steakhouse"
            }
          ], 
          "location": {
            "city": "Lake Forest", 
            "zip": "92630-2878", 
            "country": "United States", 
            "longitude": -117.716064, 
            "state": "CA", 
            "street": "23221 Lake Center Dr", 
            "latitude": 33.624820999999997
          }
        }, 
        {
          "category": "Local business", 
          "name": "Black Angus Steakhouse", 
          "id": "111693085534700", 
          "category_list": [
            {
              "id": "192831537402299", 
              "name": "Family Style Restaurant"
            }, 
            {
              "id": "198367566846946", 
              "name": "Steakhouse"
            }
          ], 
          "location": {
            "city": "Henderson", 
            "zip": "89014-6619", 
            "country": "United States", 
            "longitude": -115.04360200000001, 
            "state": "NV", 
            "street": "651 Mall Ring Cir", 
            "latitude": 36.064242999999998
          }
        }, 
        {
          "category": "Local business", 
          "name": "Black Angus Steakhouse", 
          "id": "111852992184079", 
          "category_list": [
            {
              "id": "198367566846946", 
              "name": "Steakhouse"
            }
          ], 
          "location": {
            "city": "Stockton", 
            "zip": "95207-6522", 
            "country": "United States", 
            "longitude": -121.340744, 
            "state": "CA", 
            "street": "2605 W March Ln", 
            "latitude": 37.985312999999998
          }
        }, 
        {
          "category": "Local business", 
          "name": "Black Angus Steakhouse", 
          "id": "113197285379291", 
          "category_list": [
            {
              "id": "198367566846946", 
              "name": "Steakhouse"
            }
          ], 
          "location": {
            "city": "Bellingham", 
            "zip": "98225-6033", 
            "country": "United States", 
            "longitude": -122.46957, 
            "state": "WA", 
            "street": "165 S Samish Way", 
            "latitude": 48.733550999999999
          }
        }, 
        {
          "category": "Local business", 
          "name": "Black Angus Steakhouse", 
          "id": "116109735084352", 
          "category_list": [
            {
              "id": "198367566846946", 
              "name": "Steakhouse"
            }
          ], 
          "location": {
            "city": "Brea", 
            "zip": "92821-4753", 
            "country": "United States", 
            "longitude": -117.85807, 
            "state": "CA", 
            "street": "147 Morning Glory St", 
            "latitude": 33.919991000000003
          }
        }, 
        {
          "category": "Local business", 
          "name": "Black Angus Steakhouse", 
          "id": "116238645070620", 
          "category_list": [
            {
              "id": "198367566846946", 
              "name": "Steakhouse"
            }
          ], 
          "location": {
            "city": "Las Vegas", 
            "zip": "89146-3403", 
            "country": "United States", 
            "longitude": -115.210815, 
            "state": "NV", 
            "street": "5125 W Sahara Ave", 
            "latitude": 36.144066000000002
          }
        }, 
        {
          "category": "Local business", 
          "name": "Black Angus Steakhouse", 
          "id": "116375885053064", 
          "category_list": [
            {
              "id": "198367566846946", 
              "name": "Steakhouse"
            }
          ], 
          "location": {
            "city": "Manteca", 
            "zip": "95337-5238", 
            "country": "United States", 
            "longitude": -121.23273500000001, 
            "state": "CA", 
            "street": "1115 W Yosemite Ave", 
            "latitude": 37.797939
          }
        }, 
        {
          "category": "Local business", 
          "name": "Black Angus Steakhouse", 
          "id": "117235804961486", 
          "category_list": [
            {
              "id": "198367566846946", 
              "name": "Steakhouse"
            }
          ], 
          "location": {
            "city": "San Diego", 
            "zip": "92126-2305", 
            "country": "United States", 
            "longitude": -117.144356, 
            "state": "CA", 
            "street": "10750 Camino Ruiz", 
            "latitude": 32.914116
          }
        }, 
        {
          "category": "Local business", 
          "name": "Black Angus Steakhouse", 
          "id": "117555384928817", 
          "category_list": [
            {
              "id": "198367566846946", 
              "name": "Steakhouse"
            }
          ], 
          "location": {
            "city": "Rowland Heights", 
            "zip": "91748-1704", 
            "country": "United States", 
            "longitude": -117.91920500000001, 
            "state": "CA", 
            "street": "17615 Castleton St", 
            "latitude": 33.994362000000002
          }
        }, 
        {
          "category": "Local business", 
          "name": "Black Angus Steakhouse", 
          "id": "117955934897671", 
          "category_list": [
            {
              "id": "198367566846946", 
              "name": "Steakhouse"
            }
          ], 
          "location": {
            "city": "Irvine", 
            "zip": "92614-5737", 
            "country": "United States", 
            "longitude": -117.84625200000001, 
            "state": "CA", 
            "street": "17252 Armstrong Ave", 
            "latitude": 33.692379000000003
          }
        }, 
        {
          "category": "Local business", 
          "name": "Black Angus Steakhouse", 
          "id": "120840797931452", 
          "category_list": [
            {
              "id": "198367566846946", 
              "name": "Steakhouse"
            }
          ], 
          "location": {
            "city": "Bellevue", 
            "zip": "98007-4413", 
            "country": "United States", 
            "longitude": -122.13318599999999, 
            "state": "WA", 
            "street": "1411 156th Ave NE", 
            "latitude": 47.623055000000001
          }
        }, 
        {
          "category": "Local business", 
          "name": "Black Angus Steakhouse", 
          "id": "132815616767229", 
          "category_list": [
            {
              "id": "198367566846946", 
              "name": "Steakhouse"
            }, 
            {
              "id": "133436743388217", 
              "name": "Arts & Entertainment"
            }
          ], 
          "location": {
            "city": "Fullerton", 
            "zip": "92835-2912", 
            "country": "United States", 
            "longitude": -117.882953, 
            "state": "CA", 
            "street": "2700 Associated Rd", 
            "latitude": 33.900928
          }
        }, 
        {
          "category": "Local business", 
          "name": "Black Angus Steakhouse", 
          "id": "120681437947003", 
          "category_list": [
            {
              "id": "198367566846946", 
              "name": "Steakhouse"
            }
          ], 
          "location": {
            "city": "Roseville", 
            "zip": "95661-3035", 
            "country": "United States", 
            "longitude": -121.255336, 
            "state": "CA", 
            "street": "500 N Sunrise Ave", 
            "latitude": 38.756231
          }
        }, 
        {
          "category": "Restaurant/cafe", 
          "name": "RB Black Angus Steakhouse", 
          "id": "95191313594", 
          "category_list": [
            {
              "id": "198367566846946", 
              "name": "Steakhouse"
            }
          ], 
          "location": {
            "city": "Kahana", 
            "zip": "96761", 
            "country": "United States", 
            "longitude": -156.67739078574999, 
            "state": "HI", 
            "street": "4465 Honoapiilani Hwy", 
            "latitude": 20.972799020815
          }
        }, 
        {
          "category": "Local business", 
          "name": "Black Angus Steakhouse", 
          "id": "150794344982508", 
          "category_list": [
            {
              "id": "198367566846946", 
              "name": "Steakhouse"
            }
          ], 
          "location": {
            "city": "Singapore", 
            "zip": "", 
            "country": "Singapore", 
            "longitude": 103.82833643794, 
            "street": "", 
            "latitude": 1.3069423042854
          }
        }, 
        {
          "category": "Local business", 
          "name": "Black Angus Restaurant", 
          "id": "161420543891088", 
          "category_list": [
            {
              "id": "198367566846946", 
              "name": "Steakhouse"
            }, 
            {
              "id": "163300367054197", 
              "name": "Seafood Restaurant"
            }
          ], 
          "location": {
            "city": "Virginia Beach", 
            "zip": "23451", 
            "country": "United States", 
            "longitude": -75.971674678925993, 
            "state": "VA", 
            "street": "706 Altantic Avenue", 
            "latitude": 36.836230172566999
          }
        }, 
        {
          "category": "Local business", 
          "name": "Black Angus Steakhouse 203 35th Avenue Southeast, Puyallup, WA 98374-1248", 
          "id": "170910699611578", 
          "category_list": [
            {
              "id": "198367566846946", 
              "name": "Steakhouse"
            }
          ], 
          "location": {
            "city": "Puyallup", 
            "zip": "98374", 
            "country": "United States", 
            "longitude": -122.29175820899999, 
            "state": "WA", 
            "street": "", 
            "latitude": 47.1588260933
          }
        }, 
        {
          "category": "Local business", 
          "name": "Black Angus 1088", 
          "id": "169340413129879", 
          "category_list": [
            {
              "id": "198367566846946", 
              "name": "Steakhouse"
            }
          ], 
          "location": {
            "city": "Ontario", 
            "zip": "91764", 
            "country": "United States", 
            "longitude": -117.5732517646, 
            "state": "CA", 
            "street": "3640 Porsche Way", 
            "latitude": 34.068721713530998
          }
        }, 
        {
          "category": "Local business", 
          "name": "Black Angus Grill", 
          "id": "171828129598987", 
          "category_list": [
            {
              "id": "198367566846946", 
              "name": "Steakhouse"
            }
          ], 
          "location": {
            "city": "Statesville", 
            "zip": "28677", 
            "country": "United States", 
            "longitude": -80.889273881099996, 
            "state": "NC", 
            "street": "", 
            "latitude": 35.785179427999999
          }
        }, 
        {
          "category": "Local business", 
          "name": "Black Angus Steakhouse Sunnyvale, CA", 
          "id": "101388016612298", 
          "category_list": [
            {
              "id": "198367566846946", 
              "name": "Steakhouse"
            }
          ], 
          "location": {
            "city": "San Jose", 
            "zip": "", 
            "country": "United States", 
            "longitude": -121.856456299, 
            "state": "CA", 
            "street": "", 
            "latitude": 37.337852685900003
          }
        }, 
        {
          "category": "Local business", 
          "name": "Black Angus Steakhouse Alaska", 
          "id": "169806259761123", 
          "category_list": [
            {
              "id": "2500", 
              "name": "Local Business"
            }
          ], 
          "location": {
            "city": "Anchorage", 
            "zip": "99503", 
            "country": "United States", 
            "longitude": -149.88570298917, 
            "state": "AK", 
            "street": "", 
            "latitude": 61.180592682841997
          }
        }, 
        {
          "category": "Local business", 
          "name": "Black Angus Steak House", 
          "id": "127354003968681", 
          "category_list": [
            {
              "id": "198367566846946", 
              "name": "Steakhouse"
            }
          ], 
          "location": {
            "city": "Toronto", 
            "zip": "M8X1E2", 
            "country": "Canada", 
            "longitude": -79.518503683277999, 
            "state": "ON", 
            "street": "3277 Bloor St W", 
            "latitude": 43.645600169463997
          }
        }, 
        {
          "category": "Food/beverages", 
          "name": "BLACK ANGUS", 
          "id": "285781544795192", 
          "category_list": [
            {
              "id": "198367566846946", 
              "name": "Steakhouse"
            }
          ], 
          "location": {
            "city": "Turin", 
            "zip": "10126", 
            "country": "Italy", 
            "longitude": 7.6672259544300001, 
            "state": "", 
            "street": "VIA SPOTORNO 45 ", 
            "latitude": 45.030827086199999
          }
        }, 
        {
          "category": "Local business", 
          "name": "Black Angus Supper Club, Prairie Du Chien", 
          "id": "178923158818487", 
          "category_list": [
            {
              "id": "198367566846946", 
              "name": "Steakhouse"
            }, 
            {
              "id": "149803325077018", 
              "name": "American Restaurant"
            }
          ], 
          "location": {
            "city": "Prairie du Chien", 
            "zip": "53821 ", 
            "country": "United States", 
            "longitude": -91.120881371600007, 
            "state": "WI", 
            "street": "", 
            "latitude": 43.024683253799999
          }
        }, 
        {
          "category": "Local business", 
          "name": "Stuart Andersons Black Angus", 
          "id": "126850114079263", 
          "category_list": [
            {
              "id": "198367566846946", 
              "name": "Steakhouse"
            }
          ], 
          "location": {
            "city": "Bakersfield", 
            "zip": "", 
            "country": "United States", 
            "longitude": -119.047978456, 
            "state": "CA", 
            "street": "", 
            "latitude": 35.382789396600003
          }
        }, 
        {
          "category": "Local business", 
          "name": "Dales Black Angus", 
          "id": "162113167160173", 
          "category_list": [
            {
              "id": "198367566846946", 
              "name": "Steakhouse"
            }
          ], 
          "location": {
            "city": "Cape Town", 
            "zip": "", 
            "country": "South Africa", 
            "longitude": 18.502409037353999, 
            "state": "", 
            "street": "Paddocks, Milnerton, Cape Town", 
            "latitude": -33.861780461400997
          }
        }, 
        {
          "category": "Restaurant/cafe", 
          "name": "Black Angus Bar & Grill", 
          "id": "136057546488639", 
          "category_list": [
            {
              "id": "198367566846946", 
              "name": "Steakhouse"
            }, 
            {
              "id": "167954166588517", 
              "name": "Diner"
            }, 
            {
              "id": "163300367054197", 
              "name": "Seafood Restaurant"
            }
          ], 
          "location": {
            "city": "Gold Coast", 
            "zip": "4212", 
            "country": "Australia", 
            "longitude": 153.36302102799999, 
            "state": "QLD", 
            "street": "46E The Promenade, Sanctuary Cove", 
            "latitude": -27.852598329999999
          }
        }, 
        {
          "category": "Local business", 
          "name": "Jones' Black Angus", 
          "id": "242084242493921", 
          "category_list": [
            {
              "id": "198367566846946", 
              "name": "Steakhouse"
            }
          ], 
          "location": {
            "city": "Prairie du Chien", 
            "zip": "53821", 
            "country": "United States", 
            "longitude": -91.119760494800005, 
            "state": "WI", 
            "street": "", 
            "latitude": 43.023452585999998
          }
        }, 
        {
          "category": "Restaurant/cafe", 
          "name": "Black Angus", 
          "id": "164129230395783", 
          "category_list": [
            {
              "id": "198367566846946", 
              "name": "Steakhouse"
            }
          ], 
          "location": {
            "city": "Strasbourg", 
            "zip": "67000", 
            "country": "France", 
            "longitude": 7.7422869287799996, 
            "state": "", 
            "street": "2 Place des Meuniers", 
            "latitude": 48.581709035899998
          }
        }, 
        {
          "category": "Local business", 
          "name": "BullsEye Bar at Black Angus Steakhouse", 
          "id": "290209370993217", 
          "category_list": [
            {
              "id": "198367566846946", 
              "name": "Steakhouse"
            }
          ], 
          "location": {
            "city": "Lynnwood", 
            "zip": "98036", 
            "country": "United States", 
            "longitude": -122.29290625599999, 
            "state": "WA", 
            "street": "", 
            "latitude": 47.816040411099998
          }
        }, 
        {
          "category": "Local business", 
          "name": "Black Angus Grill", 
          "id": "260163240702200", 
          "category_list": [
            {
              "id": "198367566846946", 
              "name": "Steakhouse"
            }
          ], 
          "location": {
            "city": "Nassau", 
            "zip": "", 
            "country": "The Bahamas", 
            "longitude": -77.398302145900004, 
            "state": "", 
            "street": "", 
            "latitude": 25.073996398799999
          }
        }, 
        {
          "category": "Local business", 
          "name": "Black Angus Steak House", 
          "id": "344128665605783", 
          "category_list": [
            {
              "id": "198367566846946", 
              "name": "Steakhouse"
            }
          ], 
          "location": {
            "city": "Anaheim", 
            "zip": "", 
            "country": "United States", 
            "longitude": -118.012302551, 
            "state": "CA", 
            "street": "", 
            "latitude": 33.812528495499997
          }
        }, 
        {
          "category": "Local business", 
          "name": "Black Angus Steak House", 
          "id": "111628802208973", 
          "category_list": [
            {
              "id": "198367566846946", 
              "name": "Steakhouse"
            }
          ], 
          "location": {
            "city": "Shawano", 
            "zip": "54166-1301", 
            "country": "United States", 
            "longitude": -88.569359000000006, 
            "state": "WI", 
            "street": "201 Airport Rd", 
            "latitude": 44.783951000000002
          }
        }, 
        {
          "category": "Local business", 
          "name": "Black Angus Steak House", 
          "id": "155497944486491", 
          "category_list": [
            {
              "id": "198367566846946", 
              "name": "Steakhouse"
            }
          ], 
          "location": {
            "city": "Kalispell", 
            "zip": "59901-1621", 
            "country": "United States", 
            "longitude": -114.337417, 
            "state": "MT", 
            "street": "1330 Us Highway 2 W", 
            "latitude": 48.197932999999999
          }
        }, 
        {
          "category": "Local business", 
          "name": "Black Angus @ Orchard Parade Hotel", 
          "id": "144867005606648", 
          "category_list": [
            {
              "id": "198367566846946", 
              "name": "Steakhouse"
            }, 
            {
              "id": "164243073639257", 
              "name": "Hotel"
            }
          ], 
          "location": {
            "latitude": 1.30697135334, 
            "street": "", 
            "zip": "", 
            "longitude": 103.827920076
          }
        }, 
        {
          "category": "Local business", 
          "name": "Stuart Anderson's Black Angus Restaurant Puyallup", 
          "id": "405544482831389", 
          "category_list": [
            {
              "id": "198367566846946", 
              "name": "Steakhouse"
            }
          ], 
          "location": {
            "city": "Puyallup", 
            "zip": "98374", 
            "country": "United States", 
            "longitude": -122.29169976999999, 
            "state": "WA", 
            "street": "", 
            "latitude": 47.158870776900002
          }
        }, 
        {
          "category": "Local business", 
          "name": "Black Angus - Steak House @ Orchard Rd", 
          "id": "416699905022335", 
          "category_list": [
            {
              "id": "198367566846946", 
              "name": "Steakhouse"
            }
          ], 
          "location": {
            "city": "Singapore", 
            "zip": "", 
            "country": "Singapore", 
            "longitude": 103.82841953800001, 
            "street": "", 
            "latitude": 1.30693919017
          }
        }, 
        {
          "category": "Local business", 
          "name": "Stuart Anderson's Black Angus Restaurant", 
          "id": "111605115544053", 
          "category_list": [
            {
              "id": "198367566846946", 
              "name": "Steakhouse"
            }
          ], 
          "location": {
            "city": "Bellingham", 
            "zip": "98225-6033", 
            "country": "United States", 
            "longitude": -122.46957, 
            "state": "WA", 
            "street": "165 S Samish Way", 
            "latitude": 48.733550999999999
          }
        }, 
        {
          "category": "Local business", 
          "name": "Stuart Andersons Black Angus Restaurant", 
          "id": "116249695070499", 
          "category_list": [
            {
              "id": "198367566846946", 
              "name": "Steakhouse"
            }
          ], 
          "location": {
            "city": "Fullerton", 
            "zip": "92835-3404", 
            "country": "United States", 
            "longitude": -117.935013, 
            "state": "CA", 
            "street": "433 W Bastanchury Rd", 
            "latitude": 33.893723000000001
          }
        }, 
        {
          "category": "Local business", 
          "name": "Stuart Andersons Black Angus Restaurant", 
          "id": "120327614649605", 
          "category_list": [
            {
              "id": "198367566846946", 
              "name": "Steakhouse"
            }
          ], 
          "location": {
            "city": "Lake Forest", 
            "zip": "92630-6897", 
            "country": "United States", 
            "longitude": -117.716064, 
            "state": "CA", 
            "street": "23221 Lake Center Dr", 
            "latitude": 33.624820999999997
          }
        }, 
        {
          "category": "Local business", 
          "name": "Black Angus Cattle Company", 
          "id": "148642601849264", 
          "category_list": [
            {
              "id": "198367566846946", 
              "name": "Steakhouse"
            }
          ], 
          "location": {
            "city": "Aiea", 
            "zip": "30080", 
            "country": "United States", 
            "longitude": -157.953916956, 
            "state": "HI", 
            "street": "", 
            "latitude": 21.389126422699999
          }
        }, 
        {
          "category": "Local business", 
          "name": "Black Angus Steakhous", 
          "id": "249297211858969", 
          "category_list": [
            {
              "id": "165679780146824", 
              "name": "Food & Restaurant"
            }
          ], 
          "location": {
            "city": "Panama City", 
            "zip": "", 
            "country": "United States", 
            "longitude": -85.655231354837994, 
            "state": "FL", 
            "street": "", 
            "latitude": 30.199825968620999
          }
        }
      ]
    }
  }, 
  {
    "business_name": "Paradise Bakery & Cafe", 
    "business_id": "Y-PnvV-q4HYLIy19ubVmXQ", 
    "fb_pages": {
      "paging": {
        "next": "https://graph.facebook.com/search?type=place&access_token=229546593895315|yPLlHqq6YvDLIH4nL0kjJtIFSlU&limit=5000&offset=5000&__after_id=113438572022920"
      }, 
      "data": [
        {
          "category": "Local business", 
          "name": "Paradise Bakery", 
          "id": "115276148495371", 
          "category_list": [
            {
              "id": "273819889375819", 
              "name": "Restaurant"
            }, 
            {
              "id": "187827497907070", 
              "name": "Bakery"
            }
          ], 
          "location": {
            "city": "Avondale", 
            "zip": "85392-4612", 
            "country": "United States", 
            "longitude": -112.27427879088999, 
            "state": "AZ", 
            "street": "9995 W Mcdowell Rd", 
            "latitude": 33.464300736749998
          }
        }, 
        {
          "category": "Local business", 
          "name": "Paradise Bakery", 
          "id": "116559998367836", 
          "category_list": [
            {
              "id": "273819889375819", 
              "name": "Restaurant"
            }, 
            {
              "id": "187827497907070", 
              "name": "Bakery"
            }
          ], 
          "location": {
            "city": "Surprise", 
            "zip": "85374-3982", 
            "country": "United States", 
            "longitude": -112.36114370838, 
            "state": "AZ", 
            "street": "13959 W Bell Rd", 
            "latitude": 33.638296660950999
          }
        }, 
        {
          "category": "Local business", 
          "name": "Paradise Bakery", 
          "id": "150701101623554", 
          "category_list": [
            {
              "id": "187827497907070", 
              "name": "Bakery"
            }, 
            {
              "id": "188296324525457", 
              "name": "Sandwich Shop"
            }
          ], 
          "location": {
            "city": "Tempe", 
            "zip": "85034 ", 
            "country": "United States", 
            "longitude": -111.90203789088, 
            "state": "AZ", 
            "street": "2000 East Rio Salado Parkway", 
            "latitude": 33.433888166433
          }
        }, 
        {
          "category": "Local business", 
          "name": "Paradise Bakery", 
          "id": "120154227996139", 
          "category_list": [
            {
              "id": "273819889375819", 
              "name": "Restaurant"
            }, 
            {
              "id": "187827497907070", 
              "name": "Bakery"
            }
          ], 
          "location": {
            "city": "Phoenix", 
            "zip": "85022-2303", 
            "country": "United States", 
            "longitude": -112.06803199353, 
            "state": "AZ", 
            "street": "375 E Bell Rd", 
            "latitude": 33.639818083992999
          }
        }, 
        {
          "category": "Local business", 
          "name": "Paradise Bakery", 
          "id": "117095184975121", 
          "category_list": [
            {
              "id": "187827497907070", 
              "name": "Bakery"
            }, 
            {
              "id": "197871390225897", 
              "name": "Cafe"
            }, 
            {
              "id": "149803325077018", 
              "name": "American Restaurant"
            }
          ], 
          "location": {
            "city": "Mesa", 
            "zip": "85209-2734", 
            "country": "United States", 
            "longitude": -111.60249964019, 
            "state": "AZ", 
            "street": "1946 South Signal Butte Road, Suite 109", 
            "latitude": 33.380089939412002
          }
        }, 
        {
          "category": "Local business", 
          "name": "Paradise Bakery", 
          "id": "155332434501800", 
          "category_list": [
            {
              "id": "273819889375819", 
              "name": "Restaurant"
            }, 
            {
              "id": "187827497907070", 
              "name": "Bakery"
            }
          ], 
          "location": {
            "city": "Phoenix", 
            "zip": "85085-8508", 
            "country": "United States", 
            "longitude": -112.11098404078, 
            "state": "AZ", 
            "street": "2370 W Happy Valley Rd Ste 1069", 
            "latitude": 33.714481240589997
          }
        }, 
        {
          "category": "Local business", 
          "name": "Paradise Bakery", 
          "id": "100866609957533", 
          "category_list": [
            {
              "id": "273819889375819", 
              "name": "Restaurant"
            }, 
            {
              "id": "187827497907070", 
              "name": "Bakery"
            }
          ], 
          "location": {
            "city": "Goodyear", 
            "zip": "85395-2529", 
            "country": "United States", 
            "longitude": -112.39201844292, 
            "state": "AZ", 
            "street": "15479 W Mcdowell Rd Ste B109", 
            "latitude": 33.464095715168
          }
        }, 
        {
          "category": "Local business", 
          "name": "Paradise Bakery", 
          "id": "117204504972757", 
          "category_list": [
            {
              "id": "273819889375819", 
              "name": "Restaurant"
            }, 
            {
              "id": "187827497907070", 
              "name": "Bakery"
            }
          ], 
          "location": {
            "city": "Chandler", 
            "zip": "85286-1495", 
            "country": "United States", 
            "longitude": -111.79135875740999, 
            "state": "AZ", 
            "street": "2970 E Germann Rd Ste 1", 
            "latitude": 33.278265004409
          }
        }, 
        {
          "category": "Local business", 
          "name": "Paradise Bakery", 
          "id": "166152216745192", 
          "category_list": [
            {
              "id": "187827497907070", 
              "name": "Bakery"
            }, 
            {
              "id": "273819889375819", 
              "name": "Restaurant"
            }, 
            {
              "id": "128673187201735", 
              "name": "Coffee Shop"
            }
          ], 
          "location": {
            "city": "Dallas", 
            "zip": "75240-1318", 
            "country": "United States", 
            "longitude": -96.820734040960005, 
            "state": "TX", 
            "street": "13710 Dallas Pkwy Ste H", 
            "latitude": 32.933086452319998
          }
        }, 
        {
          "category": "Local business", 
          "name": "Paradise Bakery", 
          "id": "168237746548677", 
          "category_list": [
            {
              "id": "273819889375819", 
              "name": "Restaurant"
            }, 
            {
              "id": "187827497907070", 
              "name": "Bakery"
            }
          ], 
          "location": {
            "city": "Queen Creek", 
            "zip": "85142", 
            "country": "United States", 
            "longitude": -111.63877198030001, 
            "state": "AZ", 
            "street": "21202 S Ellsworth Loop Rd #100", 
            "latitude": 33.256069776894002
          }
        }, 
        {
          "category": "Local business", 
          "name": "Paradise Bakery", 
          "id": "115547568468795", 
          "category_list": [
            {
              "id": "273819889375819", 
              "name": "Restaurant"
            }, 
            {
              "id": "187827497907070", 
              "name": "Bakery"
            }, 
            {
              "id": "128673187201735", 
              "name": "Coffee Shop"
            }
          ], 
          "location": {
            "city": "Phoenix", 
            "zip": "85016-9311", 
            "country": "United States", 
            "longitude": -112.02892194605, 
            "state": "AZ", 
            "street": "2502 E Camelback Rd Ste 119", 
            "latitude": 33.510180424628999
          }
        }, 
        {
          "category": "Local business", 
          "name": "Paradise Bakery", 
          "id": "112535372134383", 
          "category_list": [
            {
              "id": "187827497907070", 
              "name": "Bakery"
            }, 
            {
              "id": "197871390225897", 
              "name": "Cafe"
            }, 
            {
              "id": "187153754656815", 
              "name": "Dessert Restaurant"
            }
          ], 
          "location": {
            "city": "Noblesville", 
            "zip": " 46060", 
            "country": "United States", 
            "longitude": -85.929393924661994, 
            "state": "IN", 
            "street": "13230 Harrell parkway", 
            "latitude": 39.993375275783002
          }
        }, 
        {
          "category": "Local business", 
          "name": "Paradise Bakery", 
          "id": "111652928871979", 
          "category_list": [
            {
              "id": "187827497907070", 
              "name": "Bakery"
            }, 
            {
              "id": "149803325077018", 
              "name": "American Restaurant"
            }
          ], 
          "location": {
            "city": "Glendale", 
            "zip": "85308-7209", 
            "country": "United States", 
            "longitude": -112.20255277455, 
            "state": "AZ", 
            "street": "20199 N 67th Ave Ste 100", 
            "latitude": 33.666986063739998
          }
        }, 
        {
          "category": "Local business", 
          "name": "Paradise Bakery", 
          "id": "153112328061153", 
          "category_list": [
            {
              "id": "273819889375819", 
              "name": "Restaurant"
            }, 
            {
              "id": "187827497907070", 
              "name": "Bakery"
            }
          ], 
          "location": {
            "city": "Chandler", 
            "zip": "85226-1503", 
            "country": "United States", 
            "longitude": -111.97024821361001, 
            "state": "AZ", 
            "street": "940 N 54th St Ste 100", 
            "latitude": 33.318951294412003
          }
        }, 
        {
          "category": "Local business", 
          "name": "Paradise Bakery", 
          "id": "113479655353499", 
          "category_list": [
            {
              "id": "273819889375819", 
              "name": "Restaurant"
            }, 
            {
              "id": "109527622457518", 
              "name": "Shopping Mall"
            }, 
            {
              "id": "187827497907070", 
              "name": "Bakery"
            }
          ], 
          "location": {
            "city": "Phoenix", 
            "zip": "85050-5213", 
            "country": "United States", 
            "longitude": -111.97160255961001, 
            "state": "AZ", 
            "street": "21001 N Tatum Blvd Ste 48-152", 
            "latitude": 33.676134847994
          }
        }, 
        {
          "category": "Local business", 
          "name": "Paradise Bakery", 
          "id": "375888019136809", 
          "category_list": [
            {
              "id": "165679780146824", 
              "name": "Food & Restaurant"
            }
          ], 
          "location": {
            "city": "Scottsdale", 
            "zip": "85251", 
            "country": "United States", 
            "longitude": -111.92704985183001, 
            "state": "AZ", 
            "street": "", 
            "latitude": 33.494775061932003
          }
        }, 
        {
          "category": "Local business", 
          "name": "Paradise Bakery", 
          "id": "343552882358025", 
          "category_list": [
            {
              "id": "187827497907070", 
              "name": "Bakery"
            }, 
            {
              "id": "197871390225897", 
              "name": "Cafe"
            }
          ], 
          "location": {
            "city": "Tucson", 
            "zip": "85711", 
            "country": "United States", 
            "longitude": -110.86128518076001, 
            "state": "AZ", 
            "street": "", 
            "latitude": 32.222041517949997
          }
        }, 
        {
          "category": "Local business", 
          "name": "Paradise Bakery", 
          "id": "121768997836523", 
          "category_list": [
            {
              "id": "273819889375819", 
              "name": "Restaurant"
            }, 
            {
              "id": "187827497907070", 
              "name": "Bakery"
            }
          ], 
          "location": {
            "city": "Plano", 
            "zip": "75024-2373", 
            "country": "United States", 
            "longitude": -96.804998643313994, 
            "state": "TX", 
            "street": "8240 Preston Rd", 
            "latitude": 33.090684170707
          }
        }, 
        {
          "category": "Local business", 
          "name": "Paradise Bakery", 
          "id": "100868119957891", 
          "category_list": [
            {
              "id": "273819889375819", 
              "name": "Restaurant"
            }, 
            {
              "id": "187827497907070", 
              "name": "Bakery"
            }
          ], 
          "location": {
            "city": "Chandler", 
            "zip": "85248-8135", 
            "country": "United States", 
            "longitude": -111.86004703894, 
            "state": "AZ", 
            "street": "1075 W Queen Creek Rd Ste 1", 
            "latitude": 33.260929444508001
          }
        }, 
        {
          "category": "Local business", 
          "name": "Paradise Bakery and Cafe", 
          "id": "108432015881518", 
          "category_list": [
            {
              "id": "197871390225897", 
              "name": "Cafe"
            }, 
            {
              "id": "128673187201735", 
              "name": "Coffee Shop"
            }, 
            {
              "id": "187827497907070", 
              "name": "Bakery"
            }
          ], 
          "location": {
            "city": "Gilbert", 
            "zip": "85296", 
            "country": "United States", 
            "longitude": -111.74389320198, 
            "state": "AZ", 
            "street": "2156 East Williams Field Road, #101", 
            "latitude": 33.308693166295001
          }
        }, 
        {
          "category": "Local business", 
          "name": "Paradise Bakery", 
          "id": "111824972188656", 
          "category_list": [
            {
              "id": "187827497907070", 
              "name": "Bakery"
            }, 
            {
              "id": "197871390225897", 
              "name": "Cafe"
            }
          ], 
          "location": {
            "city": "Phoenix", 
            "zip": "85028-3062", 
            "country": "United States", 
            "longitude": -111.97726835570001, 
            "state": "AZ", 
            "street": "10625 N Tatum Blvd", 
            "latitude": 33.583581944412003
          }
        }, 
        {
          "category": "Local business", 
          "name": "Paradise Bakery", 
          "id": "118732208140809", 
          "category_list": [
            {
              "id": "273819889375819", 
              "name": "Restaurant"
            }, 
            {
              "id": "187827497907070", 
              "name": "Bakery"
            }
          ], 
          "location": {
            "city": "Scottsdale", 
            "zip": "85253-2330", 
            "country": "United States", 
            "longitude": -111.92544321256, 
            "state": "AZ", 
            "street": "8777 N Scottsdale Rd Ste 302", 
            "latitude": 33.564775642530002
          }
        }, 
        {
          "category": "Local business", 
          "name": "Paradise Bakery", 
          "id": "121030007950071", 
          "category_list": [
            {
              "id": "187827497907070", 
              "name": "Bakery"
            }, 
            {
              "id": "273819889375819", 
              "name": "Restaurant"
            }
          ], 
          "location": {
            "city": "Omaha", 
            "zip": "68118", 
            "country": "United States", 
            "longitude": -96.185714986790998, 
            "state": "NE", 
            "street": "17305 Davenport St # 101", 
            "latitude": 41.260666350823001
          }
        }, 
        {
          "category": "Local business", 
          "name": "Paradise Bakery", 
          "id": "111506865556319", 
          "category_list": [
            {
              "id": "273819889375819", 
              "name": "Restaurant"
            }, 
            {
              "id": "187827497907070", 
              "name": "Bakery"
            }
          ], 
          "location": {
            "city": "Bountiful", 
            "zip": "84010-7168", 
            "country": "United States", 
            "longitude": -111.89263272596, 
            "state": "UT", 
            "street": "135 N 500 W Ste C", 
            "latitude": 40.890707821173002
          }
        }, 
        {
          "category": "Local business", 
          "name": "Paradise Bakery", 
          "id": "115561288466812", 
          "category_list": [
            {
              "id": "273819889375819", 
              "name": "Restaurant"
            }
          ], 
          "location": {
            "city": "Sandy", 
            "zip": "84070-4112", 
            "country": "United States", 
            "longitude": -111.89039834653001, 
            "state": "UT", 
            "street": "10431 S State St", 
            "latitude": 40.562076293377999
          }
        }, 
        {
          "category": "Local business", 
          "name": "Paradise Bakery-Dana Park", 
          "id": "139219592791794", 
          "category_list": [
            {
              "id": "199236533423806", 
              "name": "Beauty Salon"
            }, 
            {
              "id": "273819889375819", 
              "name": "Restaurant"
            }, 
            {
              "id": "187827497907070", 
              "name": "Bakery"
            }
          ], 
          "location": {
            "city": "Mesa", 
            "zip": "85204-7292", 
            "country": "United States", 
            "longitude": -111.75724207167001, 
            "state": "AZ", 
            "street": "3426 East Baseline Road, Suite 113", 
            "latitude": 33.381118202393999
          }
        }, 
        {
          "category": "Local business", 
          "name": "Paradise Bakery", 
          "id": "119921048023868", 
          "category_list": [
            {
              "id": "162264673824073", 
              "name": "Specialty Grocery Store"
            }, 
            {
              "id": "187827497907070", 
              "name": "Bakery"
            }, 
            {
              "id": "273819889375819", 
              "name": "Restaurant"
            }
          ], 
          "location": {
            "city": "Aspen", 
            "zip": "81611-1818", 
            "country": "United States", 
            "longitude": -106.81879459802001, 
            "state": "CO", 
            "street": "320 S Galena St", 
            "latitude": 39.188082450945998
          }
        }, 
        {
          "category": "Local business", 
          "name": "Paradise Bakery", 
          "id": "121751857835126", 
          "category_list": [
            {
              "id": "273819889375819", 
              "name": "Restaurant"
            }, 
            {
              "id": "187827497907070", 
              "name": "Bakery"
            }
          ], 
          "location": {
            "city": "Salt Lake City", 
            "zip": "84121-2858", 
            "country": "United States", 
            "longitude": -111.85224362762, 
            "state": "UT", 
            "street": "1400 Fort Union Blvd", 
            "latitude": 40.625480016757997
          }
        }, 
        {
          "category": "Local business", 
          "name": "Paradise Bakery", 
          "id": "171212949560169", 
          "category_list": [
            {
              "id": "273819889375819", 
              "name": "Restaurant"
            }, 
            {
              "id": "187827497907070", 
              "name": "Bakery"
            }
          ], 
          "location": {
            "city": "Phoenix", 
            "zip": "85054-5169", 
            "country": "United States", 
            "longitude": -111.92587932828, 
            "state": "AZ", 
            "street": "7000 E Mayo Blvd Ste 1032", 
            "latitude": 33.656643156283003
          }
        }, 
        {
          "category": "Local business", 
          "name": "Paradise Bakery", 
          "id": "115806438439786", 
          "category_list": [
            {
              "id": "187153754656815", 
              "name": "Dessert Restaurant"
            }, 
            {
              "id": "191334337551378", 
              "name": "Restaurant Wholesale"
            }, 
            {
              "id": "187827497907070", 
              "name": "Bakery"
            }
          ], 
          "location": {
            "city": "Salt Lake City", 
            "zip": "84106-3590", 
            "country": "United States", 
            "longitude": -111.86238409924, 
            "state": "UT", 
            "street": "1010 E 2100 S", 
            "latitude": 40.725226911490999
          }
        }, 
        {
          "category": "Local business", 
          "name": "Paradise Bakery", 
          "id": "142783045762260", 
          "category_list": [
            {
              "id": "187827497907070", 
              "name": "Bakery"
            }, 
            {
              "id": "273819889375819", 
              "name": "Restaurant"
            }
          ], 
          "location": {
            "city": "Salt Lake City", 
            "zip": "84102", 
            "country": "United States", 
            "longitude": -111.87318516508, 
            "state": "UT", 
            "street": "618 E 400 S", 
            "latitude": 40.760371142118998
          }
        }, 
        {
          "category": "Local business", 
          "name": "Paradise Bakery", 
          "id": "116951421656122", 
          "category_list": [
            {
              "id": "273819889375819", 
              "name": "Restaurant"
            }, 
            {
              "id": "187827497907070", 
              "name": "Bakery"
            }, 
            {
              "id": "139433292785470", 
              "name": "Caterer"
            }
          ], 
          "location": {
            "city": "Omaha", 
            "zip": "68114-4307", 
            "country": "United States", 
            "longitude": -96.072040977018005, 
            "state": "NE", 
            "street": "120 Regency Pkwy Ste 156", 
            "latitude": 41.258941894037001
          }
        }, 
        {
          "category": "Local business", 
          "name": "Paradise Bakery & Caf\u00e9", 
          "id": "268939559794289", 
          "category_list": [
            {
              "id": "187827497907070", 
              "name": "Bakery"
            }, 
            {
              "id": "192108214153222", 
              "name": "Breakfast & Brunch Restaurant"
            }, 
            {
              "id": "135468489860087", 
              "name": "Soup Restaurant"
            }
          ], 
          "location": {
            "city": "Albuquerque", 
            "zip": "87110", 
            "country": "United States", 
            "longitude": -106.56997831539, 
            "state": "NM", 
            "street": "6600 Menaul Blvd ne suite 1000", 
            "latitude": 35.106018909658999
          }
        }, 
        {
          "category": "Local business", 
          "name": "Paradise Bakery", 
          "id": "109726785729964", 
          "category_list": [
            {
              "id": "273819889375819", 
              "name": "Restaurant"
            }, 
            {
              "id": "187827497907070", 
              "name": "Bakery"
            }
          ], 
          "location": {
            "city": "Phoenix", 
            "zip": "85034-3713", 
            "country": "United States", 
            "longitude": -111.99794714862, 
            "state": "AZ", 
            "street": "3800 E Sky Harbor Blvd Ste 4348", 
            "latitude": 33.435646547319998
          }
        }, 
        {
          "category": "Local business", 
          "name": "Paradise Bakery", 
          "id": "116225318405569", 
          "category_list": [
            {
              "id": "188296324525457", 
              "name": "Sandwich Shop"
            }
          ], 
          "location": {
            "city": "Chandler", 
            "zip": "85226-5071", 
            "country": "United States", 
            "longitude": -111.89851587541, 
            "state": "AZ", 
            "street": "3111 W Chandler Blvd", 
            "latitude": 33.300926227994999
          }
        }, 
        {
          "category": "Restaurant/cafe", 
          "name": "Paradise Bakery-St. George", 
          "id": "186146341454420", 
          "category_list": [
            {
              "id": "273819889375819", 
              "name": "Restaurant"
            }
          ], 
          "location": {
            "city": "Saint George", 
            "zip": "84790", 
            "country": "United States", 
            "longitude": -113.5544527687, 
            "state": "UT", 
            "street": "231 N. Red Cliffs Drive, Suite 22", 
            "latitude": 37.111765486050999
          }
        }, 
        {
          "category": "Local business", 
          "name": "Paradise Bakery & Caf\u00e9 Mission Viejo", 
          "id": "125473957501095", 
          "category_list": [
            {
              "id": "273819889375819", 
              "name": "Restaurant"
            }
          ], 
          "location": {
            "city": "Mission Viejo", 
            "zip": "92691", 
            "country": "United States", 
            "longitude": -117.66866225477, 
            "state": "CA", 
            "street": "1006 The Shops at Mission Viejo", 
            "latitude": 33.558072210394002
          }
        }, 
        {
          "category": "Local business", 
          "name": "Paradise Bakery N Cafe", 
          "id": "216038935095303", 
          "category_list": [
            {
              "id": "197871390225897", 
              "name": "Cafe"
            }, 
            {
              "id": "187827497907070", 
              "name": "Bakery"
            }
          ], 
          "location": {
            "city": "American Fork", 
            "zip": "84003", 
            "country": "United States", 
            "longitude": -111.81342716972, 
            "state": "UT", 
            "street": "562 W Main St", 
            "latitude": 40.377207502864003
          }
        }, 
        {
          "category": "Local business", 
          "name": "Paradise Bakery & Cafe - 67th & 101", 
          "id": "120290354712351", 
          "category_list": [
            {
              "id": "273819889375819", 
              "name": "Restaurant"
            }
          ], 
          "location": {
            "city": "Glendale", 
            "zip": "85308", 
            "country": "United States", 
            "longitude": -112.20254433144, 
            "state": "AZ", 
            "street": "", 
            "latitude": 33.666918304722998
          }
        }, 
        {
          "category": "Local business", 
          "name": "Paradise Bakery & Cafe", 
          "id": "404756036256535", 
          "category_list": [
            {
              "id": "197871390225897", 
              "name": "Cafe"
            }
          ], 
          "location": {
            "city": "Logan", 
            "zip": "84341", 
            "country": "United States", 
            "longitude": -111.83227143800001, 
            "state": "UT", 
            "street": "", 
            "latitude": 41.7559113477
          }
        }, 
        {
          "category": "Local business", 
          "name": "Paradise Bakery", 
          "id": "267482776668895", 
          "category_list": [
            {
              "id": "165679780146824", 
              "name": "Food & Restaurant"
            }
          ], 
          "location": {
            "city": "Allen", 
            "zip": "75002", 
            "country": "United States", 
            "longitude": -96.655325833700005, 
            "state": "TX", 
            "street": "", 
            "latitude": 33.129376989699999
          }
        }, 
        {
          "category": "Food/beverages", 
          "name": "Paradise Bakery Hico Texas", 
          "id": "472578089473965", 
          "category_list": [
            {
              "id": "2252", 
              "name": "Food/Beverages"
            }
          ], 
          "location": {
            "city": "Hico", 
            "zip": "76457", 
            "country": "United States", 
            "longitude": -98.034750480100001, 
            "state": "TX", 
            "street": "505 N. 2nd street", 
            "latitude": 31.984256858799998
          }
        }, 
        {
          "category": "Food/grocery", 
          "name": "Paradise Bakery", 
          "id": "217547258378167", 
          "category_list": [
            {
              "id": "150108431712141", 
              "name": "Food & Grocery"
            }
          ], 
          "location": {
            "city": "New Ipswich", 
            "zip": "03071", 
            "country": "United States", 
            "longitude": -71.872590000000002, 
            "state": "NH", 
            "street": "809 Turnpike Rd", 
            "latitude": 42.760663000000001
          }
        }, 
        {
          "category": "Restaurant/cafe", 
          "name": "Paradise Bakery", 
          "id": "383223161778784", 
          "category_list": [
            {
              "id": "273819889375819", 
              "name": "Restaurant"
            }
          ], 
          "location": {
            "city": "Winchester", 
            "zip": "22601", 
            "country": "United States", 
            "longitude": -78.149113999999997, 
            "state": "VA", 
            "street": "714 Berryville Ave", 
            "latitude": 39.186315999999998
          }
        }, 
        {
          "category": "Local business", 
          "name": "Paradise Bakery Mesa Gateway Airport", 
          "id": "176765979048457", 
          "category_list": [
            {
              "id": "273819889375819", 
              "name": "Restaurant"
            }
          ], 
          "location": {
            "city": "Mesa", 
            "zip": "85212", 
            "country": "United States", 
            "longitude": -111.66896255499999, 
            "state": "AZ", 
            "street": "6033 s. sossaman rd ", 
            "latitude": 33.307117170399998
          }
        }, 
        {
          "category": "Local business", 
          "name": "Paradise Bakery", 
          "id": "111569548881261", 
          "category_list": [
            {
              "id": "273819889375819", 
              "name": "Restaurant"
            }
          ], 
          "location": {
            "city": "Portland", 
            "zip": "97232-1313", 
            "country": "United States", 
            "longitude": -122.653503, 
            "state": "OR", 
            "street": "2304 Lloyd Ctr", 
            "latitude": 45.532589000000002
          }
        }, 
        {
          "category": "Local business", 
          "name": "Paradise Bakery", 
          "id": "146523638750051", 
          "category_list": [
            {
              "id": "273819889375819", 
              "name": "Restaurant"
            }, 
            {
              "id": "187827497907070", 
              "name": "Bakery"
            }
          ], 
          "location": {
            "city": "Glendale", 
            "zip": "91201", 
            "country": "United States", 
            "longitude": -118.29219744, 
            "state": "CA", 
            "street": "", 
            "latitude": 34.173145591400001
          }
        }, 
        {
          "category": "Restaurant/cafe", 
          "name": "Paradise Pastry & Cafe", 
          "id": "107729949345903", 
          "category_list": [
            {
              "id": "187827497907070", 
              "name": "Bakery"
            }, 
            {
              "id": "197871390225897", 
              "name": "Cafe"
            }, 
            {
              "id": "188334264523313", 
              "name": "Deli"
            }
          ], 
          "location": {
            "city": "Glendale", 
            "zip": "91201", 
            "country": "United States", 
            "longitude": -118.292401877, 
            "state": "CA", 
            "street": "1825 W. GLENOAKS BLVD", 
            "latitude": 34.173307707399999
          }
        }, 
        {
          "category": "Local business", 
          "name": "Paradise Bakery", 
          "id": "120355364643896", 
          "category_list": [
            {
              "id": "273819889375819", 
              "name": "Restaurant"
            }, 
            {
              "id": "187827497907070", 
              "name": "Bakery"
            }
          ], 
          "location": {
            "city": "Phoenix", 
            "zip": "85004-2375", 
            "country": "United States", 
            "longitude": -112.07105154198, 
            "state": "AZ", 
            "street": "3 S 2nd St", 
            "latitude": 33.447505401401003
          }
        }, 
        {
          "category": "Local business", 
          "name": "Paradise Bakery", 
          "id": "177772855679266", 
          "category_list": [
            {
              "id": "273819889375819", 
              "name": "Restaurant"
            }
          ], 
          "location": {
            "city": "Hyderabad", 
            "zip": "", 
            "country": "India", 
            "longitude": 78.487107289700006, 
            "state": "", 
            "street": "", 
            "latitude": 17.442070385299999
          }
        }, 
        {
          "category": "Local business", 
          "name": "Paradise Bakery at Denver Intl Airport", 
          "id": "171758692844437", 
          "category_list": [
            {
              "id": "128966563840349", 
              "name": "Airport"
            }, 
            {
              "id": "273819889375819", 
              "name": "Restaurant"
            }
          ], 
          "location": {
            "city": "Denver", 
            "zip": "80249", 
            "country": "United States", 
            "longitude": -104.673836098, 
            "state": "CO", 
            "street": "", 
            "latitude": 39.858737697599999, 
            "located_in": 1412557042293187
          }
        }, 
        {
          "category": "Local business", 
          "name": "Paradise Bakery", 
          "id": "111691125533423", 
          "category_list": [
            {
              "id": "273819889375819", 
              "name": "Restaurant"
            }, 
            {
              "id": "187827497907070", 
              "name": "Bakery"
            }, 
            {
              "id": "150108431712141", 
              "name": "Food & Grocery"
            }
          ], 
          "location": {
            "city": "Dallas", 
            "zip": "75201-2104", 
            "country": "United States", 
            "longitude": -96.805609552483006, 
            "state": "TX", 
            "street": "2101 Cedar Springs Rd", 
            "latitude": 32.794203000412999
          }
        }, 
        {
          "category": "Food/grocery", 
          "name": "Baking Paradise", 
          "id": "182213748637594", 
          "category_list": [
            {
              "id": "187827497907070", 
              "name": "Bakery"
            }
          ], 
          "location": {
            "city": "Hyderabad", 
            "zip": "", 
            "country": "Pakistan", 
            "longitude": 68.368300000000005, 
            "state": "", 
            "street": "", 
            "latitude": 25.379200000000001
          }
        }, 
        {
          "category": "Local business", 
          "name": "Paradise Bakery   Cafe So", 
          "id": "178578555533405", 
          "category_list": [
            {
              "id": "187827497907070", 
              "name": "Bakery"
            }, 
            {
              "id": "197871390225897", 
              "name": "Cafe"
            }
          ], 
          "location": {
            "city": "Aurora", 
            "zip": "80016", 
            "country": "United States", 
            "longitude": -104.708795636, 
            "state": "CO", 
            "street": "6240 S Main St Ste 112", 
            "latitude": 39.602714291399998
          }
        }, 
        {
          "category": "Food/grocery", 
          "name": "Paradise Bakery", 
          "id": "106089582897533", 
          "category_list": [
            {
              "id": "150108431712141", 
              "name": "Food & Grocery"
            }
          ], 
          "location": {
            "city": "Phoenix", 
            "zip": "85032", 
            "country": "United States", 
            "longitude": -111.983064, 
            "state": "AZ", 
            "street": "4550-118 East Cactus Road", 
            "latitude": 33.601917999999998
          }
        }, 
        {
          "category": "Local business", 
          "name": "Paradise Bakery", 
          "id": "111730532195867", 
          "category_list": [
            {
              "id": "191334337551378", 
              "name": "Restaurant Wholesale"
            }, 
            {
              "id": "273819889375819", 
              "name": "Restaurant"
            }
          ], 
          "location": {
            "city": "Salt Lake City", 
            "zip": "84115-2914", 
            "country": "United States", 
            "longitude": -111.901933, 
            "state": "UT", 
            "street": "395 Lawndale Dr", 
            "latitude": 40.716143000000002
          }
        }, 
        {
          "category": "Restaurant/cafe", 
          "name": "Paradise Bakery", 
          "id": "392962937411904", 
          "category_list": [
            {
              "id": "273819889375819", 
              "name": "Restaurant"
            }
          ], 
          "location": {
            "city": "Philadelphia", 
            "zip": "19115", 
            "country": "United States", 
            "longitude": -75.028727000000003, 
            "state": "PA", 
            "street": "9997 Bustleton Ave", 
            "latitude": 40.102102000000002
          }
        }, 
        {
          "category": "Local business", 
          "name": "Paradise Bakery", 
          "id": "423810114380430", 
          "category_list": [
            {
              "id": "165679780146824", 
              "name": "Food & Restaurant"
            }
          ], 
          "location": {
            "city": "Chandler", 
            "zip": "", 
            "country": "United States", 
            "longitude": -111.956961388, 
            "state": "AZ", 
            "street": "", 
            "latitude": 33.303454988699997
          }
        }, 
        {
          "category": "Local business", 
          "name": "Paradise Bakery", 
          "id": "514471865240685", 
          "category_list": [
            {
              "id": "187827497907070", 
              "name": "Bakery"
            }
          ], 
          "location": {
            "city": "Scottsdale", 
            "zip": "85253", 
            "country": "United States", 
            "longitude": -111.92639256299999, 
            "state": "AZ", 
            "street": "", 
            "latitude": 33.530532845400003
          }
        }, 
        {
          "category": "Local business", 
          "name": "Paradise Bakery", 
          "id": "154971207873240", 
          "category_list": [
            {
              "id": "162264673824073", 
              "name": "Specialty Grocery Store"
            }, 
            {
              "id": "273819889375819", 
              "name": "Restaurant"
            }, 
            {
              "id": "187827497907070", 
              "name": "Bakery"
            }
          ], 
          "location": {
            "city": "Dallas", 
            "zip": "75270-2155", 
            "country": "United States", 
            "longitude": -96.802032999999994, 
            "state": "TX", 
            "street": "1201 Elm St Ste LL08", 
            "latitude": 32.781277000000003
          }
        }, 
        {
          "category": "Local business", 
          "name": "Paradise Bakery", 
          "id": "113667402001572", 
          "category_list": [
            {
              "id": "273819889375819", 
              "name": "Restaurant"
            }
          ], 
          "location": {
            "city": "Phoenix", 
            "zip": "85051", 
            "country": "United States", 
            "longitude": -112.124207, 
            "state": "AZ", 
            "street": "9649 N Metro Pkwy W", 
            "latitude": 33.573351000000002
          }
        }, 
        {
          "category": "Local business", 
          "name": "Paradise Bakery", 
          "id": "115511301812137", 
          "category_list": [
            {
              "id": "273819889375819", 
              "name": "Restaurant"
            }, 
            {
              "id": "187827497907070", 
              "name": "Bakery"
            }
          ], 
          "location": {
            "city": "Lehi", 
            "zip": "84043", 
            "country": "United States", 
            "longitude": -111.85787500000001, 
            "state": "UT", 
            "street": "562 W Main St", 
            "latitude": 40.387363000000001
          }
        }, 
        {
          "category": "Local business", 
          "name": "Paradise Bakery", 
          "id": "117592824925510", 
          "category_list": [
            {
              "id": "273819889375819", 
              "name": "Restaurant"
            }
          ], 
          "location": {
            "city": "Denver", 
            "zip": "80206-4904", 
            "country": "United States", 
            "longitude": -104.953226, 
            "state": "CO", 
            "street": "2900 E 2nd Ave", 
            "latitude": 39.719292000000003
          }
        }, 
        {
          "category": "Local business", 
          "name": "Paradise Bakery", 
          "id": "120623201282087", 
          "category_list": [
            {
              "id": "273819889375819", 
              "name": "Restaurant"
            }
          ], 
          "location": {
            "city": "Lone Tree", 
            "zip": "80124-5018", 
            "country": "United States", 
            "longitude": -104.873724, 
            "state": "CO", 
            "street": "8515 Park Meadows Center Dr Ste 3000", 
            "latitude": 39.559086999999998
          }
        }, 
        {
          "category": "Local business", 
          "name": "Paradise Bakery", 
          "id": "155278647841587", 
          "category_list": [
            {
              "id": "273819889375819", 
              "name": "Restaurant"
            }, 
            {
              "id": "187827497907070", 
              "name": "Bakery"
            }
          ], 
          "location": {
            "city": "Riverside", 
            "zip": "92503-4142", 
            "country": "United States", 
            "longitude": -117.4558, 
            "state": "CA", 
            "street": "2026 Galleria At Tyler", 
            "latitude": 33.908417999999998
          }
        }, 
        {
          "category": "Local business", 
          "name": "Paradise Bakery", 
          "id": "169299399756484", 
          "category_list": [
            {
              "id": "273819889375819", 
              "name": "Restaurant"
            }
          ], 
          "location": {
            "city": "Vancouver", 
            "zip": "98662", 
            "country": "United States", 
            "longitude": -122.582429885, 
            "state": "WA", 
            "street": "", 
            "latitude": 45.658273560799998
          }
        }, 
        {
          "category": "Local business", 
          "name": "Paradise Bakery", 
          "id": "262318903882083", 
          "category_list": [
            {
              "id": "2500", 
              "name": "Local Business"
            }
          ], 
          "location": {
            "city": "Phoenix", 
            "zip": "85028", 
            "country": "United States", 
            "longitude": -112.00809585899999, 
            "state": "AZ", 
            "street": "", 
            "latitude": 33.5825107573
          }
        }, 
        {
          "category": "Local business", 
          "name": "Paradise Bakery", 
          "id": "434473569903087", 
          "category_list": [
            {
              "id": "2500", 
              "name": "Local Business"
            }
          ], 
          "location": {
            "city": "Tempe", 
            "zip": "", 
            "country": "United States", 
            "longitude": -111.94242911000001, 
            "state": "AZ", 
            "street": "", 
            "latitude": 33.413184870000002
          }
        }, 
        {
          "category": "Local business", 
          "name": "Paradise Bakery", 
          "id": "456647607700123", 
          "category_list": [
            {
              "id": "2500", 
              "name": "Local Business"
            }
          ], 
          "location": {
            "city": "Mesa", 
            "zip": "", 
            "country": "United States", 
            "longitude": -111.667714815, 
            "state": "AZ", 
            "street": "", 
            "latitude": 33.393446325600003
          }
        }, 
        {
          "category": "Local business", 
          "name": "Paradise Bakery", 
          "id": "520219424681700", 
          "category_list": [
            {
              "id": "2500", 
              "name": "Local Business"
            }
          ], 
          "location": {
            "city": "Phoenix", 
            "zip": "", 
            "country": "United States", 
            "longitude": -112.05004, 
            "state": "AZ", 
            "street": "", 
            "latitude": 33.448779999999999
          }
        }, 
        {
          "category": "Food/grocery", 
          "name": "Sweet Paradise Bakery", 
          "id": "122255664512458", 
          "category_list": [
            {
              "id": "150108431712141", 
              "name": "Food & Grocery"
            }
          ], 
          "location": {
            "city": "Hamilton", 
            "zip": "L9B 1A7", 
            "country": "Canada", 
            "longitude": -79.916976646500004, 
            "state": "ON", 
            "street": "630 Stonechurch Road West", 
            "latitude": 43.218336005300003
          }
        }, 
        {
          "category": "Restaurant/cafe", 
          "name": "Paradise Bakery & Cafe at Main Gate Square - uofa", 
          "id": "558932990793657", 
          "category_list": [
            {
              "id": "273819889375819", 
              "name": "Restaurant"
            }
          ], 
          "location": {
            "city": "Tucson", 
            "zip": "85719", 
            "country": "United States", 
            "longitude": -110.957375, 
            "state": "AZ", 
            "street": "845 N. Park Ave.", 
            "latitude": 32.232708000000002
          }
        }, 
        {
          "category": "Local business", 
          "name": "Paradise Bakery", 
          "id": "113462392021015", 
          "category_list": [
            {
              "id": "187827497907070", 
              "name": "Bakery"
            }, 
            {
              "id": "187153754656815", 
              "name": "Dessert Restaurant"
            }
          ], 
          "location": {
            "city": "Boston", 
            "zip": "02199-8001", 
            "country": "United States", 
            "longitude": -71.082358481399993, 
            "state": "MA", 
            "street": "800 Boylston St", 
            "latitude": 42.347837537300002
          }
        }, 
        {
          "category": "Local business", 
          "name": "Paradise Bakery", 
          "id": "115367418490120", 
          "category_list": [
            {
              "id": "273819889375819", 
              "name": "Restaurant"
            }
          ], 
          "location": {
            "city": "Tempe", 
            "zip": "85282-6439", 
            "country": "United States", 
            "longitude": -111.96491585299999, 
            "state": "AZ", 
            "street": "5000 S Arizona Mills Cir Ste 641", 
            "latitude": 33.3849621496
          }
        }, 
        {
          "category": "Local business", 
          "name": "Slice of Paradise Bakery", 
          "id": "153039531408548", 
          "category_list": [
            {
              "id": "187827497907070", 
              "name": "Bakery"
            }, 
            {
              "id": "273819889375819", 
              "name": "Restaurant"
            }
          ], 
          "location": {
            "city": "Inverloch", 
            "zip": "", 
            "country": "Australia", 
            "longitude": 145.729453275, 
            "state": "VIC", 
            "street": "", 
            "latitude": -38.6336956329
          }
        }, 
        {
          "category": "Local business", 
          "name": "Paradise Bakery", 
          "id": "116271135064296", 
          "category_list": [
            {
              "id": "273819889375819", 
              "name": "Restaurant"
            }
          ], 
          "location": {
            "city": "Boulder", 
            "zip": "80302-5204", 
            "country": "United States", 
            "longitude": -105.279788272, 
            "state": "CO", 
            "street": "1207 Pearl St", 
            "latitude": 40.017992935800002
          }
        }, 
        {
          "category": "Local business", 
          "name": "Paradise Bakery", 
          "id": "104931876217107", 
          "category_list": [
            {
              "id": "197871390225897", 
              "name": "Cafe"
            }
          ], 
          "location": {
            "city": "Portland", 
            "zip": "97224-7765", 
            "country": "United States", 
            "longitude": -122.75152684337, 
            "state": "OR", 
            "street": "7211 SW Bridgeport Rd", 
            "latitude": 45.395620575504999
          }
        }, 
        {
          "category": "Local business", 
          "name": "Mitzi's Bakery Paradise", 
          "id": "179917198716322", 
          "category_list": [
            {
              "id": "187827497907070", 
              "name": "Bakery"
            }
          ], 
          "location": {
            "city": "Delray Beach", 
            "zip": "33444", 
            "country": "United States", 
            "longitude": -80.086519999999993, 
            "state": "FL", 
            "street": "", 
            "latitude": 26.5336
          }
        }, 
        {
          "category": "Local business", 
          "name": "Cakes Of Paradise", 
          "id": "191730120915110", 
          "category_list": [
            {
              "id": "187827497907070", 
              "name": "Bakery"
            }
          ], 
          "location": {
            "city": "Seattle", 
            "zip": "98108", 
            "country": "United States", 
            "longitude": -122.32597167900001, 
            "state": "WA", 
            "street": "6322 6th Avenue S", 
            "latitude": 47.545629173499997
          }
        }, 
        {
          "category": "Local business", 
          "name": "Paradise Bakery", 
          "id": "113464422021184", 
          "category_list": [
            {
              "id": "273819889375819", 
              "name": "Restaurant"
            }, 
            {
              "id": "196434697050078", 
              "name": "Tobacco Store"
            }
          ], 
          "location": {
            "city": "Santa Ana", 
            "zip": "92705-6607", 
            "country": "United States", 
            "longitude": -117.87076582900001, 
            "state": "CA", 
            "street": "2800 N Main St", 
            "latitude": 33.775159083200002
          }
        }, 
        {
          "category": "Business services", 
          "name": "AZ Paradise", 
          "id": "213643115463205", 
          "category_list": [
            {
              "id": "187827497907070", 
              "name": "Bakery"
            }, 
            {
              "id": "128753240528981", 
              "name": "Women's Clothing Store"
            }, 
            {
              "id": "187443774619522", 
              "name": "Event Planner"
            }
          ], 
          "location": {
            "city": "Johor Bahru", 
            "zip": "81300", 
            "country": "Malaysia", 
            "longitude": 103.75, 
            "state": "", 
            "street": "Skudai", 
            "latitude": 1.4666699999999999
          }
        }, 
        {
          "category": "Restaurant/cafe", 
          "name": "Paradise Bakery, Deli & Grill", 
          "id": "128493540563971", 
          "category_list": [
            {
              "id": "273819889375819", 
              "name": "Restaurant"
            }
          ], 
          "location": {
            "city": "Camden", 
            "zip": "71701", 
            "country": "United States", 
            "longitude": -92.833676999999994, 
            "state": "AR", 
            "street": "447 California Avenue SW", 
            "latitude": 33.579498000000001
          }
        }, 
        {
          "category": "Local business", 
          "name": "Paradise Bakery & Cafe's Restroom Taking A Shit!", 
          "id": "141964265873623", 
          "category_list": [
            {
              "id": "273819889375819", 
              "name": "Restaurant"
            }
          ], 
          "location": {
            "city": "Indianapolis", 
            "zip": "46122", 
            "country": "United States", 
            "longitude": -86.158439783600002, 
            "state": "IN", 
            "street": "", 
            "latitude": 39.926121791
          }
        }, 
        {
          "category": "Local business", 
          "name": "Cravings Paradise", 
          "id": "415677588496579", 
          "category_list": [
            {
              "id": "187827497907070", 
              "name": "Bakery"
            }
          ], 
          "location": {
            "city": "Singapore", 
            "zip": "510635", 
            "country": "Singapore", 
            "longitude": 103.94059624800001, 
            "street": "blok 635 Pasir Ris Drive 1", 
            "latitude": 1.3772152953600001
          }
        }, 
        {
          "category": "Local business", 
          "name": "Paradise Bakery And Cafe", 
          "id": "110937959037862", 
          "category_list": [
            {
              "id": "2500", 
              "name": "Local Business"
            }
          ], 
          "location": {
            "city": "Chandler", 
            "zip": "85224", 
            "country": "United States", 
            "longitude": -111.870716793, 
            "state": "AZ", 
            "street": "", 
            "latitude": 33.306121132800001
          }
        }, 
        {
          "category": "Local business", 
          "name": "Paradise Bakery & Cafe", 
          "id": "125292614184619", 
          "category_list": [
            {
              "id": "273819889375819", 
              "name": "Restaurant"
            }, 
            {
              "id": "187827497907070", 
              "name": "Bakery"
            }
          ], 
          "location": {
            "city": "Greenwood", 
            "zip": "46142", 
            "country": "United States", 
            "longitude": -86.122339820999997, 
            "state": "IN", 
            "street": "", 
            "latitude": 39.6328167542
          }
        }, 
        {
          "category": "Local business", 
          "name": "Paradise Bakery & Cafe", 
          "id": "153391284723572", 
          "category_list": [
            {
              "id": "273819889375819", 
              "name": "Restaurant"
            }, 
            {
              "id": "187827497907070", 
              "name": "Bakery"
            }
          ], 
          "location": {
            "city": "Phoenix", 
            "zip": "", 
            "country": "United States", 
            "longitude": -112.01147159999999, 
            "state": "AZ", 
            "street": "", 
            "latitude": 33.475618099999998
          }
        }, 
        {
          "category": "Local business", 
          "name": "Paradise Bakery & Cafe", 
          "id": "253676484643991", 
          "category_list": [
            {
              "id": "187827497907070", 
              "name": "Bakery"
            }
          ], 
          "location": {
            "city": "Goodyear", 
            "zip": "", 
            "country": "United States", 
            "longitude": -112.427550012, 
            "state": "AZ", 
            "street": "", 
            "latitude": 33.460886576199997
          }
        }, 
        {
          "category": "Local business", 
          "name": "Lover Paradise", 
          "id": "1380788998810133", 
          "category_list": [
            {
              "id": "187827497907070", 
              "name": "Bakery"
            }
          ], 
          "location": {
            "city": "Nakhon Lampang", 
            "zip": "", 
            "country": "Thailand", 
            "longitude": 99.507199999999997, 
            "state": "", 
            "street": " 272 \u0e16\u0e19\u0e19\u0e1e\u0e2b\u0e25\u0e42\u0e22\u0e18\u0e34\u0e19 \u0e15.\u0e2b\u0e31\u0e27\u0e40\u0e27\u0e35\u0e22\u0e07 \u0e2d. \u0e40\u0e21\u0e37\u0e2d\u0e07 \u0e08.\u0e25\u0e33\u0e1b\u0e32\u0e07 52000", 
            "latitude": 18.298300000000001
          }
        }, 
        {
          "category": "Local business", 
          "name": "Paradise Bakery", 
          "id": "117215911629754", 
          "category_list": [
            {
              "id": "273819889375819", 
              "name": "Restaurant"
            }
          ], 
          "location": {
            "city": "Denver", 
            "zip": "80237-2712", 
            "country": "United States", 
            "longitude": -104.899953, 
            "state": "CO", 
            "street": "5073 S Syracuse St", 
            "latitude": 39.625377999999998
          }
        }, 
        {
          "category": "Food/grocery", 
          "name": "Paradise pays", 
          "id": "453027911483010", 
          "category_list": [
            {
              "id": "187827497907070", 
              "name": "Bakery"
            }
          ], 
          "location": {
            "city": "Zapopan", 
            "zip": "45236", 
            "country": "Mexico", 
            "longitude": -103.341538, 
            "state": "", 
            "street": "", 
            "latitude": 20.766061300000001
          }
        }, 
        {
          "category": "Food/grocery", 
          "name": "Cakes of Paradise", 
          "id": "285740418229086", 
          "category_list": [
            {
              "id": "187827497907070", 
              "name": "Bakery"
            }
          ], 
          "location": {
            "city": "Braintree", 
            "zip": "", 
            "country": "United Kingdom", 
            "longitude": 0.58308152863841001, 
            "state": "", 
            "street": "", 
            "latitude": 51.871688610827
          }
        }, 
        {
          "category": "Local business", 
          "name": "Cupcake Paradise, Inc.", 
          "id": "207497659289257", 
          "category_list": [
            {
              "id": "187827497907070", 
              "name": "Bakery"
            }, 
            {
              "id": "325310894151007", 
              "name": "Cupcake Shop"
            }, 
            {
              "id": "200742186618963", 
              "name": "Vegetarian & Vegan Restaurant"
            }
          ], 
          "location": {
            "city": "Jacksonville", 
            "zip": "32221", 
            "country": "United States", 
            "longitude": -81.783158, 
            "state": "FL", 
            "street": "8081-2 Normandy Blvd", 
            "latitude": 30.292404000000001
          }
        }, 
        {
          "category": "Local business", 
          "name": "Cakes Of Paradise Bakery", 
          "id": "72652259727", 
          "category_list": [
            {
              "id": "273819889375819", 
              "name": "Restaurant"
            }
          ], 
          "location": {
            "city": "Renton", 
            "zip": "98057", 
            "country": "United States", 
            "longitude": -122.220935, 
            "state": "WA", 
            "street": "281 SW 41st St., Bldg#13 East", 
            "latitude": 47.443703999999997
          }
        }, 
        {
          "category": "Food/grocery", 
          "name": "Bakers Paradise", 
          "id": "309219795845656", 
          "category_list": [
            {
              "id": "187827497907070", 
              "name": "Bakery"
            }
          ], 
          "location": {
            "city": "Puchong", 
            "zip": "47100", 
            "country": "Malaysia", 
            "longitude": 101.61654938888999, 
            "state": "", 
            "street": "18, Jalan PU 7/2, Taman Puchong Utama", 
            "latitude": 2.9924357962649002
          }
        }, 
        {
          "category": "Local business", 
          "name": "Paradise Bakery 610027", 
          "id": "110601029030253", 
          "category_list": [
            {
              "id": "273819889375819", 
              "name": "Restaurant"
            }
          ], 
          "location": {
            "city": "Chandler", 
            "zip": "85224", 
            "country": "United States", 
            "longitude": -111.890264081, 
            "state": "AZ", 
            "street": "2855 W Ray Rd Ste 4", 
            "latitude": 33.319938827599998
          }
        }, 
        {
          "category": "Local business", 
          "name": "Vinnie Baking Paradise", 
          "id": "117184128475526", 
          "category_list": [
            {
              "id": "187827497907070", 
              "name": "Bakery"
            }
          ], 
          "location": {
            "city": "Kuala Lumpur", 
            "zip": "", 
            "country": "Malaysia", 
            "longitude": 101.75336183500001, 
            "state": "", 
            "street": "", 
            "latitude": 3.1227109527399999
          }
        }, 
        {
          "category": "Food/grocery", 
          "name": "Cake Paradise", 
          "id": "131020137068520", 
          "category_list": [
            {
              "id": "187827497907070", 
              "name": "Bakery"
            }
          ], 
          "location": {
            "city": "Harare", 
            "zip": "", 
            "country": "Zimbabwe", 
            "longitude": 31.007617490365, 
            "state": "", 
            "street": "2 Roy Rd Sentosa", 
            "latitude": -17.794061796659999
          }
        }, 
        {
          "category": "Food/grocery", 
          "name": "Reggi Sugary Paradise", 
          "id": "194601974044957", 
          "category_list": [
            {
              "id": "187827497907070", 
              "name": "Bakery"
            }, 
            {
              "id": "150108431712141", 
              "name": "Food & Grocery"
            }
          ], 
          "location": {
            "city": "Shah Alam", 
            "zip": "46150", 
            "country": "Malaysia", 
            "longitude": 101.533, 
            "state": "", 
            "street": "Shah Alam", 
            "latitude": 3.0833300000000001
          }
        }, 
        {
          "category": "Restaurant/cafe", 
          "name": "Paradise Donuts Of Manhattan Kansas", 
          "id": "359415470834730", 
          "category_list": [
            {
              "id": "187827497907070", 
              "name": "Bakery"
            }
          ], 
          "location": {
            "city": "Manhattan", 
            "zip": "66502", 
            "country": "United States", 
            "longitude": -96.571703999999997, 
            "state": "KS", 
            "street": "2307 B Tuttle Creek Blvd.", 
            "latitude": 39.207994999999997
          }
        }, 
        {
          "category": "Restaurant/cafe", 
          "name": "Paradise Donuts Wichita Maple", 
          "id": "193313637515077", 
          "category_list": [
            {
              "id": "187827497907070", 
              "name": "Bakery"
            }, 
            {
              "id": "273819889375819", 
              "name": "Restaurant"
            }
          ], 
          "location": {
            "city": "Wichita", 
            "zip": "67209-4013", 
            "country": "United States", 
            "longitude": -97.465439000000003, 
            "state": "KS", 
            "street": "10607 W Maple", 
            "latitude": 37.678673000000003
          }
        }, 
        {
          "category": "Local business", 
          "name": "Publix Super Market At Paradise Shoppes of Largo", 
          "id": "100877566623591", 
          "category_list": [
            {
              "id": "187827497907070", 
              "name": "Bakery"
            }, 
            {
              "id": "182190828486727", 
              "name": "Meat Shop"
            }, 
            {
              "id": "200253979990258", 
              "name": "Convenience Store"
            }
          ], 
          "location": {
            "city": "Largo", 
            "zip": "33771-3530", 
            "country": "United States", 
            "longitude": -82.783776173232994, 
            "state": "FL", 
            "street": "10411 Ulmerton Rd", 
            "latitude": 27.896190115101
          }
        }, 
        {
          "category": "Local business", 
          "name": "Bakers Paradise Hyderabad", 
          "id": "449263145150050", 
          "category_list": [
            {
              "id": "187827497907070", 
              "name": "Bakery"
            }, 
            {
              "id": "200019523363001", 
              "name": "Food & Beverage Service & Distribution"
            }, 
            {
              "id": "150108431712141", 
              "name": "Food & Grocery"
            }
          ], 
          "location": {
            "city": "Hyderabad", 
            "zip": "500047", 
            "country": "India", 
            "longitude": 78.488009589599997, 
            "state": "", 
            "street": "Goutham Nagar", 
            "latitude": 17.434197508600001
          }
        }, 
        {
          "category": "Local business", 
          "name": "Iberry Paradise Park", 
          "id": "436596413080085", 
          "category_list": [
            {
              "id": "187827497907070", 
              "name": "Bakery"
            }, 
            {
              "id": "200863816597800", 
              "name": "Ice Cream Parlor"
            }
          ], 
          "location": {
            "city": "Bangkok", 
            "zip": "", 
            "country": "Thailand", 
            "longitude": 100.64758172034, 
            "state": "", 
            "street": "", 
            "latitude": 13.687627377819
          }
        }, 
        {
          "category": "Local business", 
          "name": "Bakery & Cafe Paradise", 
          "id": "159034220796633", 
          "category_list": [
            {
              "id": "273819889375819", 
              "name": "Restaurant"
            }
          ], 
          "location": {
            "city": "Broomfield", 
            "zip": "80021-8256", 
            "country": "United States", 
            "longitude": -105.132542, 
            "state": "CO", 
            "street": "1 W Flatiron Crossing Dr Ste FF-220", 
            "latitude": 39.932734000000004
          }
        }, 
        {
          "category": "Food/grocery", 
          "name": "Sausage Paradise Deli and Bakery", 
          "id": "1435207036708258", 
          "category_list": [
            {
              "id": "150108431712141", 
              "name": "Food & Grocery"
            }
          ], 
          "location": {
            "city": "Jacksonville", 
            "zip": "32256", 
            "country": "United States", 
            "longitude": -81.579239000000001, 
            "state": "FL", 
            "street": "8600 Baymeadows Rd #24  ", 
            "latitude": 30.21977
          }
        }, 
        {
          "category": "Restaurant/cafe", 
          "name": "Jessica' Sweet Paradise", 
          "id": "140836559443759", 
          "category_list": [
            {
              "id": "187827497907070", 
              "name": "Bakery"
            }
          ], 
          "location": {
            "city": "Plymouth", 
            "zip": "53073", 
            "country": "United States", 
            "longitude": -87.979635999999999, 
            "state": "WI", 
            "street": "", 
            "latitude": 43.747363
          }
        }, 
        {
          "category": "Local business", 
          "name": "Paradise Cheesecakes", 
          "id": "120415967974356", 
          "category_list": [
            {
              "id": "187827497907070", 
              "name": "Bakery"
            }, 
            {
              "id": "191173027579272", 
              "name": "Wedding Planning"
            }, 
            {
              "id": "273819889375819", 
              "name": "Restaurant"
            }
          ], 
          "location": {
            "city": "Ormond Beach", 
            "zip": "32174-3106", 
            "country": "United States", 
            "longitude": -81.079273000000001, 
            "state": "FL", 
            "street": "1220 Hand Ave Ste C", 
            "latitude": 29.261597999999999
          }
        }, 
        {
          "category": "Local business", 
          "name": "Taste of Paradise Catering & Bakery", 
          "id": "348877525204255", 
          "category_list": [
            {
              "id": "2500", 
              "name": "Local Business"
            }
          ], 
          "location": {
            "city": "Dearborn Heights", 
            "zip": "48127", 
            "country": "United States", 
            "longitude": -83.0458, 
            "state": "MI", 
            "street": "", 
            "latitude": 42.331400000000002
          }
        }, 
        {
          "category": "Local business", 
          "name": "Paradise Cake Creations", 
          "id": "146893438789020", 
          "category_list": [
            {
              "id": "187827497907070", 
              "name": "Bakery"
            }
          ], 
          "location": {
            "city": "Naples", 
            "zip": "34112", 
            "country": "United States", 
            "longitude": -81.798500000000004, 
            "state": "FL", 
            "street": "", 
            "latitude": 26.152899999999999
          }
        }, 
        {
          "category": "Local business", 
          "name": "Paradise Cafe", 
          "id": "318033094982051", 
          "category_list": [
            {
              "id": "187827497907070", 
              "name": "Bakery"
            }
          ], 
          "location": {
            "city": "Juneau", 
            "zip": "99801", 
            "country": "United States", 
            "longitude": -134.59104928100001, 
            "state": "AK", 
            "street": "", 
            "latitude": 58.366277069600002
          }
        }, 
        {
          "category": "Food/grocery", 
          "name": "Surfer's Paradise", 
          "id": "180507622118731", 
          "category_list": [
            {
              "id": "187827497907070", 
              "name": "Bakery"
            }, 
            {
              "id": "325310894151007", 
              "name": "Cupcake Shop"
            }
          ], 
          "location": {
            "city": "Floridablanca", 
            "zip": "", 
            "country": "Colombia", 
            "longitude": -73.066699999999997, 
            "state": "", 
            "street": "cra25 no 36-84 ", 
            "latitude": 7.2167000000000003
          }
        }, 
        {
          "category": "Food/grocery", 
          "name": "Safeway", 
          "id": "117884184964076", 
          "category_list": [
            {
              "id": "187827497907070", 
              "name": "Bakery"
            }, 
            {
              "id": "169207329791658", 
              "name": "Grocery Store"
            }, 
            {
              "id": "134381433294944", 
              "name": "Pharmacy"
            }
          ], 
          "location": {
            "city": "Paradise", 
            "zip": "95969", 
            "country": "United States", 
            "longitude": -121.604744482, 
            "state": "CA", 
            "street": "6020 Clark Rd", 
            "latitude": 39.760475861000003
          }
        }, 
        {
          "category": "Local business", 
          "name": "Publix Super Market At Paradise Key", 
          "id": "116719341689594", 
          "category_list": [
            {
              "id": "187827497907070", 
              "name": "Bakery"
            }, 
            {
              "id": "273819889375819", 
              "name": "Restaurant"
            }, 
            {
              "id": "169207329791658", 
              "name": "Grocery Store"
            }
          ], 
          "location": {
            "city": "Destin", 
            "zip": "32541-3414", 
            "country": "United States", 
            "longitude": -86.429647992400007, 
            "state": "FL", 
            "street": "4425 Commons Dr E", 
            "latitude": 30.3904563382
          }
        }, 
        {
          "category": "Event planning/event services", 
          "name": "Paradise of Pastries", 
          "id": "128637980637242", 
          "category_list": [
            {
              "id": "187827497907070", 
              "name": "Bakery"
            }
          ], 
          "location": {
            "city": "North Andover", 
            "zip": "01845", 
            "country": "United States", 
            "longitude": -71.067535000000007, 
            "state": "MA", 
            "street": "", 
            "latitude": 42.697375999999998
          }
        }, 
        {
          "category": "Food/grocery", 
          "name": "Paradise Catering and Bakery", 
          "id": "111706312228120", 
          "category_list": [
            {
              "id": "139433292785470", 
              "name": "Caterer"
            }, 
            {
              "id": "199797140033948", 
              "name": "Educational Consultant"
            }, 
            {
              "id": "187827497907070", 
              "name": "Bakery"
            }
          ], 
          "location": {
            "city": "Cary", 
            "zip": "27619", 
            "country": "United States", 
            "longitude": -77.795278578500003, 
            "state": "NC", 
            "street": "", 
            "latitude": 42.157022274799999
          }
        }, 
        {
          "category": "Local business", 
          "name": "Paradise Donuts", 
          "id": "119637068086991", 
          "category_list": [
            {
              "id": "187827497907070", 
              "name": "Bakery"
            }, 
            {
              "id": "273819889375819", 
              "name": "Restaurant"
            }, 
            {
              "id": "124818864257882", 
              "name": "Donuts & Bagels"
            }
          ], 
          "location": {
            "city": "Kingston", 
            "zip": "73439", 
            "country": "United States", 
            "longitude": -96.705920000000006, 
            "state": "OK", 
            "street": "709 Highway 70 E", 
            "latitude": 33.997492000000001
          }
        }, 
        {
          "category": "Local business", 
          "name": "Paradise Donuts", 
          "id": "117283224956569", 
          "category_list": [
            {
              "id": "187827497907070", 
              "name": "Bakery"
            }, 
            {
              "id": "273819889375819", 
              "name": "Restaurant"
            }, 
            {
              "id": "124818864257882", 
              "name": "Donuts & Bagels"
            }
          ], 
          "location": {
            "city": "Barling", 
            "zip": "72923-2161", 
            "country": "United States", 
            "longitude": -94.307485, 
            "state": "AR", 
            "street": "1100 Fort St", 
            "latitude": 35.330542999999999
          }
        }, 
        {
          "category": "Local business", 
          "name": "Paradise Donuts", 
          "id": "121616917848319", 
          "category_list": [
            {
              "id": "187827497907070", 
              "name": "Bakery"
            }, 
            {
              "id": "124818864257882", 
              "name": "Donuts & Bagels"
            }, 
            {
              "id": "192108214153222", 
              "name": "Breakfast & Brunch Restaurant"
            }
          ], 
          "location": {
            "city": "Jerseyville", 
            "zip": "62052-2344", 
            "country": "United States", 
            "longitude": -90.319305999999997, 
            "state": "IL", 
            "street": "933 S State St", 
            "latitude": 39.110075999999999
          }
        }, 
        {
          "category": "Local business", 
          "name": "Publix Super Market At Paradise Shoppes of Prominence Point", 
          "id": "140421109329002", 
          "category_list": [
            {
              "id": "187827497907070", 
              "name": "Bakery"
            }, 
            {
              "id": "273819889375819", 
              "name": "Restaurant"
            }, 
            {
              "id": "182190828486727", 
              "name": "Meat Shop"
            }
          ], 
          "location": {
            "city": "Canton", 
            "zip": "30114-9008", 
            "country": "United States", 
            "longitude": -84.511469821399999, 
            "state": "GA", 
            "street": "120 Prominence Point Pkwy", 
            "latitude": 34.191453162599998
          }
        }, 
        {
          "category": "Local business", 
          "name": "Paradise Donuts", 
          "id": "485866438144788", 
          "category_list": [
            {
              "id": "187827497907070", 
              "name": "Bakery"
            }
          ], 
          "location": {
            "city": "Bella Vista", 
            "zip": "72714", 
            "country": "United States", 
            "longitude": -94.239528857899998, 
            "state": "AR", 
            "street": "", 
            "latitude": 36.4449820034
          }
        }, 
        {
          "category": "Local business", 
          "name": "Kababayan Bakery", 
          "id": "105004606208843", 
          "category_list": [
            {
              "id": "187827497907070", 
              "name": "Bakery"
            }, 
            {
              "id": "273819889375819", 
              "name": "Restaurant"
            }
          ], 
          "location": {
            "city": "Spring Valley", 
            "zip": "91977-6241", 
            "country": "United States", 
            "longitude": -117.01781082594, 
            "state": "CA", 
            "street": "8423 Paradise Valley Rd", 
            "latitude": 32.697422323467997
          }
        }, 
        {
          "category": "Local business", 
          "name": "Panera Bread", 
          "id": "325677254137007", 
          "category_list": [
            {
              "id": "187827497907070", 
              "name": "Bakery"
            }, 
            {
              "id": "188296324525457", 
              "name": "Sandwich Shop"
            }, 
            {
              "id": "135468489860087", 
              "name": "Soup Restaurant"
            }
          ], 
          "location": {
            "city": "Swampscott", 
            "zip": "1907", 
            "country": "United States", 
            "longitude": -70.901852175189006, 
            "state": "MA", 
            "street": "433 Paradise Road", 
            "latitude": 42.481709589556999
          }
        }, 
        {
          "category": "Food/grocery", 
          "name": "PLC Baking Paradise", 
          "id": "524222511001596", 
          "category_list": [
            {
              "id": "187827497907070", 
              "name": "Bakery"
            }
          ], 
          "location": {
            "city": "Sabah", 
            "zip": "91008", 
            "country": "Malaysia", 
            "longitude": 100.983, 
            "state": "", 
            "street": "No 20 Kampung Kau Sin", 
            "latitude": 3.76667
          }
        }, 
        {
          "category": "Food/grocery", 
          "name": "Nourish", 
          "id": "137216139651131", 
          "category_list": [
            {
              "id": "187827497907070", 
              "name": "Bakery"
            }, 
            {
              "id": "162264673824073", 
              "name": "Specialty Grocery Store"
            }, 
            {
              "id": "155358844524028", 
              "name": "Gluten-Free Restaurant"
            }
          ], 
          "location": {
            "city": "Paradise", 
            "zip": "A1L 1N9", 
            "country": "Canada", 
            "longitude": -52.840097581000002, 
            "state": "NL", 
            "street": "1304 Topsail Road", 
            "latitude": 47.534397917200003
          }
        }, 
        {
          "category": "Local business", 
          "name": "Paradise International Rest & Bakery", 
          "id": "121262687888720", 
          "category_list": [
            {
              "id": "273819889375819", 
              "name": "Restaurant"
            }, 
            {
              "id": "187827497907070", 
              "name": "Bakery"
            }
          ], 
          "location": {
            "city": "Brooklyn", 
            "zip": "11212-4220", 
            "country": "United States", 
            "longitude": -73.914232999999996, 
            "state": "NY", 
            "street": "488 E 98th St", 
            "latitude": 40.656731000000001
          }
        }, 
        {
          "category": "Food/grocery", 
          "name": "Taste of Paradise (Paris-Brest Bakery)", 
          "id": "305266152191", 
          "category_list": [
            {
              "id": "150108431712141", 
              "name": "Food & Grocery"
            }
          ], 
          "location": {
            "city": "Toronto", 
            "zip": "M1E 0A3", 
            "country": "Canada", 
            "longitude": -79.409890000000004, 
            "state": "ON", 
            "street": "38,Ignatius Lane", 
            "latitude": 43.671500000000002
          }
        }, 
        {
          "category": "Local business", 
          "name": "Auntie Anne's Paradise", 
          "id": "1393870740829859", 
          "category_list": [
            {
              "id": "187827497907070", 
              "name": "Bakery"
            }
          ], 
          "location": {
            "city": "Bangkok", 
            "zip": "", 
            "country": "Thailand", 
            "longitude": 100.64730418800001, 
            "state": "", 
            "street": "Thanon Srinagarindra", 
            "latitude": 13.6881228569
          }
        }, 
        {
          "category": "Local business", 
          "name": "Cakes by Christa", 
          "id": "111042558979563", 
          "category_list": [
            {
              "id": "187827497907070", 
              "name": "Bakery"
            }
          ], 
          "location": {
            "city": "Paradise", 
            "zip": "A1L 1W2", 
            "country": "Canada", 
            "longitude": -52.869065656586997, 
            "state": "NL", 
            "street": "Tiverton Street", 
            "latitude": 47.526126616093002
          }
        }, 
        {
          "category": "Local business", 
          "name": "Baby Got Cakes", 
          "id": "141679602567146", 
          "category_list": [
            {
              "id": "2500", 
              "name": "Local Business"
            }
          ], 
          "location": {
            "city": "Paradise", 
            "zip": "", 
            "country": "Canada", 
            "longitude": -52.8542481948, 
            "state": "NL", 
            "street": "", 
            "latitude": 47.530014209800001
          }
        }, 
        {
          "category": "Food/grocery", 
          "name": "Choc Fudge's Paradise", 
          "id": "602024796479036", 
          "category_list": [
            {
              "id": "187827497907070", 
              "name": "Bakery"
            }
          ], 
          "location": {
            "city": "Yishun", 
            "zip": "", 
            "country": "Singapore", 
            "longitude": 103.83802404055, 
            "street": "Yishun", 
            "latitude": 1.4338295818908
          }
        }, 
        {
          "category": "Restaurant/cafe", 
          "name": "tsp Bakeshop", 
          "id": "172380129631943", 
          "category_list": [
            {
              "id": "187827497907070", 
              "name": "Bakery"
            }
          ], 
          "location": {
            "city": "West Richland", 
            "zip": "99353", 
            "country": "United States", 
            "longitude": -119.35097500000001, 
            "state": "WA", 
            "street": "4850 Paradise Way Suite 202", 
            "latitude": 46.286225000000002
          }
        }, 
        {
          "category": "Food/grocery", 
          "name": "Sri vinayaka cake paradise", 
          "id": "182931095241528", 
          "category_list": [
            {
              "id": "187827497907070", 
              "name": "Bakery"
            }
          ], 
          "location": {
            "city": "Bangalore", 
            "zip": "560073", 
            "country": "India", 
            "longitude": 77.583299999999994, 
            "state": "", 
            "street": "havanoor badavane", 
            "latitude": 12.9833
          }
        }, 
        {
          "category": "Local business", 
          "name": "International Paradise Restaurant & Bakery Corp", 
          "id": "115710795117542", 
          "category_list": [
            {
              "id": "192831537402299", 
              "name": "Family Style Restaurant"
            }, 
            {
              "id": "191765907520539", 
              "name": "Caribbean Restaurant"
            }
          ], 
          "location": {
            "city": "Brooklyn", 
            "zip": "11210-2631", 
            "country": "United States", 
            "longitude": -73.948479000000006, 
            "state": "NY", 
            "street": "2905 Glenwood Rd", 
            "latitude": 40.634098000000002
          }
        }, 
        {
          "category": "Restaurant/cafe", 
          "name": "Paradise Donuts 81st & Garnett, Broken Arrow", 
          "id": "444612288914291", 
          "category_list": [
            {
              "id": "192108214153222", 
              "name": "Breakfast & Brunch Restaurant"
            }
          ], 
          "location": {
            "city": "Broken Arrow", 
            "zip": "74012", 
            "country": "United States", 
            "longitude": -95.848309999999998, 
            "state": "OK", 
            "street": "4656 W. Houston", 
            "latitude": 36.046458999999999
          }
        }, 
        {
          "category": "Food/grocery", 
          "name": "Sweetbox Gensan", 
          "id": "223520407771810", 
          "category_list": [
            {
              "id": "187827497907070", 
              "name": "Bakery"
            }
          ], 
          "location": {
            "city": "General Santos City", 
            "zip": "", 
            "country": "Philippines", 
            "longitude": 125.172, 
            "state": "", 
            "street": "Barangay City Heights,Paradise Subdivision, GSC", 
            "latitude": 6.1127799999999999
          }
        }, 
        {
          "category": "Food/grocery", 
          "name": "3, 2, 1, Bake", 
          "id": "196959107156127", 
          "category_list": [
            {
              "id": "187827497907070", 
              "name": "Bakery"
            }
          ], 
          "location": {
            "city": "Paradise", 
            "zip": "a1l 3b3", 
            "country": "Canada", 
            "longitude": -55.333300000000001, 
            "state": "NL", 
            "street": "Paradise Rd", 
            "latitude": 49.366700000000002
          }
        }, 
        {
          "category": "Food/grocery", 
          "name": "Batik Flavours", 
          "id": "377688409001868", 
          "category_list": [
            {
              "id": "187827497907070", 
              "name": "Bakery"
            }
          ], 
          "location": {
            "city": "Bandar Seri Begawan", 
            "zip": "BG3122", 
            "country": "Brunei", 
            "longitude": 114.93300000000001, 
            "street": "Batik Paradise", 
            "latitude": 4.8833299999999999
          }
        }, 
        {
          "category": "Food/grocery", 
          "name": "Sugar Krystles DFW", 
          "id": "411768035595054", 
          "category_list": [
            {
              "id": "187827497907070", 
              "name": "Bakery"
            }
          ], 
          "location": {
            "city": "Fort Worth", 
            "zip": "76112", 
            "country": "United States", 
            "longitude": -97.221615999999997, 
            "state": "TX", 
            "street": "6453 Paradise Valley Rd", 
            "latitude": 32.752327999999999
          }
        }, 
        {
          "category": "Restaurant/cafe", 
          "name": "Morgan Brothers Bakery and Deli", 
          "id": "260665214039508", 
          "category_list": [
            {
              "id": "187827497907070", 
              "name": "Bakery"
            }, 
            {
              "id": "188334264523313", 
              "name": "Deli"
            }
          ], 
          "location": {
            "city": "Kennett", 
            "zip": "63857", 
            "country": "United States", 
            "longitude": -90.044073999999995, 
            "state": "MO", 
            "street": "1123 First Street", 
            "latitude": 36.236451000000002
          }
        }, 
        {
          "category": "Food/grocery", 
          "name": "G-Mama's Kitchen", 
          "id": "694275293925878", 
          "category_list": [
            {
              "id": "187827497907070", 
              "name": "Bakery"
            }, 
            {
              "id": "325310894151007", 
              "name": "Cupcake Shop"
            }, 
            {
              "id": "414430838570027", 
              "name": "Candy Store"
            }
          ], 
          "location": {
            "city": "San Diego", 
            "zip": "91977", 
            "country": "United States", 
            "longitude": -117.06350500000001, 
            "state": "CA", 
            "street": "Paradise Valley Road", 
            "latitude": 32.688876
          }
        }, 
        {
          "category": "Local business", 
          "name": "Save Mart Supermarkets", 
          "id": "113438572022920", 
          "category_list": [
            {
              "id": "187827497907070", 
              "name": "Bakery"
            }, 
            {
              "id": "188334264523313", 
              "name": "Deli"
            }, 
            {
              "id": "169207329791658", 
              "name": "Grocery Store"
            }
          ], 
          "location": {
            "city": "Modesto", 
            "zip": "95351-3104", 
            "country": "United States", 
            "longitude": -121.01229600000001, 
            "state": "CA", 
            "street": "415 Paradise Rd", 
            "latitude": 37.627659000000001
          }
        }
      ]
    }
  }, 
  {
    "business_name": "Altered Tails", 
    "business_id": "pXE8u5EBP_v1HbPnr0U6xQ", 
    "fb_pages": {
      "paging": {
        "next": "https://graph.facebook.com/search?type=place&access_token=229546593895315|yPLlHqq6YvDLIH4nL0kjJtIFSlU&limit=5000&offset=5000&__after_id=141092749239768"
      }, 
      "data": [
        {
          "category": "Pet services", 
          "name": "Altered Tails Sterilization Clinic", 
          "id": "218008591563382", 
          "category_list": [
            {
              "id": "144982405562750", 
              "name": "Pet Service"
            }
          ], 
          "location": {
            "city": "Phoenix", 
            "zip": "85021", 
            "country": "United States", 
            "longitude": -112.086697688, 
            "state": "AZ", 
            "street": "950 W. Hatcher Rd.", 
            "latitude": 33.5715081154
          }
        }, 
        {
          "category": "Non-profit organization", 
          "name": "Altered Tails Barnhart Clinic Mesa", 
          "id": "473611492756200", 
          "category_list": [
            {
              "id": "137847742955715", 
              "name": "Clinic"
            }, 
            {
              "id": "162068413843305", 
              "name": "Veterinarian"
            }
          ], 
          "location": {
            "city": "Mesa", 
            "zip": "85207", 
            "country": "United States", 
            "longitude": -111.674155, 
            "state": "AZ", 
            "street": "7246 E. Main Street Suite 3", 
            "latitude": 33.415579999999999
          }
        }, 
        {
          "category": "Local business", 
          "name": "Altered Tails", 
          "id": "158303124192184", 
          "category_list": [
            {
              "id": "144982405562750", 
              "name": "Pet Service"
            }
          ], 
          "location": {
            "city": "Mesa", 
            "zip": "85201-2410", 
            "country": "United States", 
            "longitude": -111.854401, 
            "state": "AZ", 
            "street": "1108 W Harvest St", 
            "latitude": 33.442753000000003
          }
        }, 
        {
          "category": "Local business", 
          "name": "Altered Tails Barnhart Clinic", 
          "id": "141092749239768", 
          "category_list": [
            {
              "id": "2500", 
              "name": "Local Business"
            }
          ], 
          "location": {
            "city": "Phoenix", 
            "zip": "85021", 
            "country": "United States", 
            "longitude": -112.086457, 
            "state": "AZ", 
            "street": "950 West Hatcher Road", 
            "latitude": 33.571390000000001
          }
        }
      ]
    }
  }
]