[
  {
    "business_name": "Casa Paloma Home Interiors & Design", 
    "business_id": "IqCiBDhb-QE25SAia-tC6A", 
    "fb_pages": {
      "data": []
    }
  }, 
  {
    "business_name": "Culture Fresh Boutique", 
    "business_id": "fwFkMP9JKrtcxmG68TsPmA", 
    "fb_pages": {
      "data": []
    }
  }, 
  {
    "business_name": "Suite 301", 
    "business_id": "ulA3iI3YQGJWn6cfrpty3g", 
    "fb_pages": {
      "paging": {
        "next": "https://graph.facebook.com/search?type=place&access_token=229546593895315|yPLlHqq6YvDLIH4nL0kjJtIFSlU&limit=5000&offset=5000&__after_id=180521582003150"
      }, 
      "data": [
        {
          "category": "Bar", 
          "name": "Suite 301 Sky Lounge", 
          "id": "187915461776", 
          "category_list": [
            {
              "id": "110290705711626", 
              "name": "Bar"
            }
          ], 
          "location": {
            "city": "Tempe", 
            "zip": "85281", 
            "country": "United States", 
            "longitude": -111.9398446806, 
            "state": "AZ", 
            "street": "501 S. Mill Ave 3rd Floor", 
            "latitude": 33.425529383348
          }
        }, 
        {
          "category": "Real estate", 
          "name": "Suite 301", 
          "id": "119770341373320", 
          "category_list": [
            {
              "id": "198327773511962", 
              "name": "Real Estate"
            }
          ], 
          "location": {
            "city": "Darlinghurst", 
            "zip": "2010", 
            "country": "Australia", 
            "longitude": 151.21620028800001, 
            "state": "NSW", 
            "street": "Suite 301, 85 William Street", 
            "latitude": -33.874315537500003
          }
        }, 
        {
          "category": "Spas/beauty/personal care", 
          "name": "Suite 301", 
          "id": "278780972153702", 
          "category_list": [
            {
              "id": "139225689474222", 
              "name": "Spa, Beauty & Personal Care"
            }
          ], 
          "location": {
            "city": "Vancouver", 
            "zip": "", 
            "country": "Canada", 
            "longitude": -123.10827639999999, 
            "state": "BC", 
            "street": "119 west Pender Street, Crosstown", 
            "latitude": 49.281230899999997
          }
        }, 
        {
          "category": "Local business", 
          "name": "Suite301", 
          "id": "123462374381601", 
          "category_list": [
            {
              "id": "2500", 
              "name": "Local Business"
            }
          ], 
          "location": {
            "city": "London", 
            "zip": "08012  ", 
            "country": "United Kingdom", 
            "longitude": -0.20061529555900001, 
            "state": "", 
            "street": "Prudential Fox and Roach Realtors  5200 Route 42 Ganttown Plaza  ", 
            "latitude": 51.563981510399998
          }
        }, 
        {
          "category": "Local business", 
          "name": "Westwood Suites 301", 
          "id": "180521582003150", 
          "category_list": [
            {
              "id": "2500", 
              "name": "Local Business"
            }
          ], 
          "location": {
            "latitude": 28.392700095999999, 
            "street": "", 
            "zip": "32821", 
            "longitude": -81.4724138375
          }
        }
      ]
    }
  }, 
  {
    "business_name": "PostalMax", 
    "business_id": "ybrXM8JeI2x0brAFoEawuQ", 
    "fb_pages": {
      "paging": {
        "next": "https://graph.facebook.com/search?type=place&access_token=229546593895315|yPLlHqq6YvDLIH4nL0kjJtIFSlU&limit=5000&offset=5000&__after_id=153178871390510"
      }, 
      "data": [
        {
          "category": "Shopping/retail", 
          "name": "Postalmax", 
          "id": "507517879300239", 
          "category_list": [
            {
              "id": "200600219953504", 
              "name": "Shopping & Retail"
            }
          ], 
          "location": {
            "city": "Placentia", 
            "zip": "92870", 
            "country": "United States", 
            "longitude": -117.844171, 
            "state": "CA", 
            "street": "1057 E. Imperial Hwy", 
            "latitude": 33.905414999999998
          }
        }, 
        {
          "category": "Local business", 
          "name": "Postal-Max", 
          "id": "165774946766812", 
          "category_list": [
            {
              "id": "175838732461622", 
              "name": "Post Office"
            }
          ], 
          "location": {
            "city": "Houston", 
            "zip": "77057-3206", 
            "country": "United States", 
            "longitude": -95.486161999999993, 
            "state": "TX", 
            "street": "1940 Fountain View Dr", 
            "latitude": 29.747496999999999
          }
        }, 
        {
          "category": "Professional services", 
          "name": "Postal Max Etc.", 
          "id": "157233820974567", 
          "category_list": [
            {
              "id": "124999390906893", 
              "name": "Packaging Supplies & Equipment"
            }, 
            {
              "id": "187133811318958", 
              "name": "Business Services"
            }
          ], 
          "location": {
            "city": "Rancho Palos Verdes", 
            "zip": "90275-1434", 
            "country": "United States", 
            "longitude": -118.311582, 
            "state": "CA", 
            "street": "28364 S Western Ave", 
            "latitude": 33.762343000000001
          }
        }, 
        {
          "category": "Local business", 
          "name": "Postal Max", 
          "id": "200726443399261", 
          "category_list": [
            {
              "id": "2500", 
              "name": "Local Business"
            }
          ], 
          "location": {
            "city": "Phoenix", 
            "zip": "85033", 
            "country": "United States", 
            "longitude": -112.22324500000001, 
            "state": "AZ", 
            "street": "7611 W. Thomas Rd #CS06", 
            "latitude": 33.479911999999999
          }
        }, 
        {
          "category": "Local business", 
          "name": "Maxine Postal Memorial Park", 
          "id": "142972595734849", 
          "category_list": [
            {
              "id": "188662441155211", 
              "name": "Community & Government"
            }
          ], 
          "location": {
            "city": "Amityville", 
            "zip": "", 
            "country": "United States", 
            "longitude": -73.422565840900006, 
            "state": "NY", 
            "street": "", 
            "latitude": 40.658202130799999
          }
        }, 
        {
          "category": "Local business", 
          "name": "Postal Maxx", 
          "id": "153178871390510", 
          "category_list": [
            {
              "id": "128197080583700", 
              "name": "Cash Advance Service"
            }
          ], 
          "location": {
            "city": "Houston", 
            "zip": "77083-3397", 
            "country": "United States", 
            "longitude": -95.644104999999996, 
            "state": "TX", 
            "street": "6804 Highway 6 S Ste E", 
            "latitude": 29.70327
          }
        }
      ]
    }
  }, 
  {
    "business_name": "Pei Wei Asian Diner", 
    "business_id": "9Vu9KhK2-kBSM-FXvxXGNg", 
    "fb_pages": {
      "paging": {
        "next": "https://graph.facebook.com/search?type=place&access_token=229546593895315|yPLlHqq6YvDLIH4nL0kjJtIFSlU&limit=5000&offset=5000&__after_id=285857628181815"
      }, 
      "data": [
        {
          "category": "Local business", 
          "name": "Pei Wei Asian Diner", 
          "id": "139761642759139", 
          "category_list": [
            {
              "id": "174483852595760", 
              "name": "Chinese Restaurant"
            }
          ], 
          "location": {
            "city": "Garland", 
            "zip": "75040", 
            "country": "United States", 
            "longitude": -96.616972221791002, 
            "state": "TX", 
            "street": "4170 Lavon Dr.", 
            "latitude": 32.955148185238002
          }
        }, 
        {
          "category": "Local business", 
          "name": "Pei Wei Asian Diner", 
          "id": "103024343114899", 
          "category_list": [
            {
              "id": "174483852595760", 
              "name": "Chinese Restaurant"
            }
          ], 
          "location": {
            "city": "Lubbock", 
            "zip": "78250", 
            "country": "United States", 
            "longitude": -98.661850000000001, 
            "state": "TX", 
            "street": "11398 Bandera Rd. Building 1, Suite 101", 
            "latitude": 29.551259999999999
          }
        }, 
        {
          "category": "Local business", 
          "name": "Pei Wei Asian Diner", 
          "id": "151167484947070", 
          "category_list": [
            {
              "id": "174483852595760", 
              "name": "Chinese Restaurant"
            }
          ], 
          "location": {
            "city": "San Diego", 
            "zip": "92108", 
            "country": "United States", 
            "longitude": -117.15276472876, 
            "state": "CA", 
            "street": "1025 Camino De La Reina Suite P-5", 
            "latitude": 32.768063660827998
          }
        }, 
        {
          "category": "Local business", 
          "name": "Pei Wei Asian Diner", 
          "id": "156752957719666", 
          "category_list": [
            {
              "id": "174483852595760", 
              "name": "Chinese Restaurant"
            }
          ], 
          "location": {
            "city": "Arlington", 
            "zip": "77005", 
            "country": "United States", 
            "longitude": -95.428993000000006, 
            "state": "TX", 
            "street": "5110 Buffalo Speedway Suite 100", 
            "latitude": 29.728031000000001
          }
        }, 
        {
          "category": "Local business", 
          "name": "Pei Wei Asian Diner", 
          "id": "171884046194701", 
          "category_list": [
            {
              "id": "174483852595760", 
              "name": "Chinese Restaurant"
            }
          ], 
          "location": {
            "city": "Little Rock", 
            "zip": "72205", 
            "country": "United States", 
            "longitude": -92.340545937724002, 
            "state": "AR", 
            "street": "205 N University Ave.", 
            "latitude": 34.754279457081999
          }
        }, 
        {
          "category": "Local business", 
          "name": "Pei Wei Asian Diner", 
          "id": "204264992926136", 
          "category_list": [
            {
              "id": "174483852595760", 
              "name": "Chinese Restaurant"
            }
          ], 
          "location": {
            "city": "Fort Worth", 
            "zip": "79936", 
            "country": "United States", 
            "longitude": -106.303067, 
            "state": "TX", 
            "street": "1325 George Dieter Dr. Space K2", 
            "latitude": 31.724653
          }
        }, 
        {
          "category": "Local business", 
          "name": "Pei Wei Asian Diner", 
          "id": "194590673912874", 
          "category_list": [
            {
              "id": "174483852595760", 
              "name": "Chinese Restaurant"
            }
          ], 
          "location": {
            "city": "San Antonio", 
            "zip": "78230", 
            "country": "United States", 
            "longitude": -98.576877129707, 
            "state": "TX", 
            "street": "11267 Huebner Rd.", 
            "latitude": 29.547121943547001
          }
        }, 
        {
          "category": "Local business", 
          "name": "Pei Wei Asian Diner", 
          "id": "177111382336885", 
          "category_list": [
            {
              "id": "174483852595760", 
              "name": "Chinese Restaurant"
            }
          ], 
          "location": {
            "city": "Phoenix", 
            "zip": "85022", 
            "country": "United States", 
            "longitude": -112.07049886311, 
            "state": "AZ", 
            "street": "267 E Bell Rd. Suite 1", 
            "latitude": 33.639807472074999
          }
        }, 
        {
          "category": "Local business", 
          "name": "Pei Wei Asian Diner", 
          "id": "135732793167349", 
          "category_list": [
            {
              "id": "174483852595760", 
              "name": "Chinese Restaurant"
            }
          ], 
          "location": {
            "city": "Oklahoma City", 
            "zip": "73118", 
            "country": "United States", 
            "longitude": -97.541022446357005, 
            "state": "OK", 
            "street": "1841 Belle Isle Blvd.", 
            "latitude": 35.524411960367999
          }
        }, 
        {
          "category": "Local business", 
          "name": "Pei Wei Asian Diner", 
          "id": "210157972330211", 
          "category_list": [
            {
              "id": "174483852595760", 
              "name": "Chinese Restaurant"
            }
          ], 
          "location": {
            "city": "Fort Worth", 
            "zip": "76107", 
            "country": "United States", 
            "longitude": -97.353348176799997, 
            "state": "TX", 
            "street": "2600 W 7th St. Suite 101", 
            "latitude": 32.751519421912
          }
        }, 
        {
          "category": "Local business", 
          "name": "Pei Wei Asian Diner", 
          "id": "115414625148590", 
          "category_list": [
            {
              "id": "174483852595760", 
              "name": "Chinese Restaurant"
            }
          ], 
          "location": {
            "city": "El Paso", 
            "zip": "79936-7485", 
            "country": "United States", 
            "longitude": -106.30340156955, 
            "state": "TX", 
            "street": "1325 George Dieter Dr", 
            "latitude": 31.725015388886
          }
        }, 
        {
          "category": "Local business", 
          "name": "Pei Wei Asian Diner", 
          "id": "189108421132630", 
          "category_list": [
            {
              "id": "174483852595760", 
              "name": "Chinese Restaurant"
            }
          ], 
          "location": {
            "city": "Albuquerque", 
            "zip": "87114", 
            "country": "United States", 
            "longitude": -106.65837020538, 
            "state": "NM", 
            "street": "10420 Coors Bypass NW Suite 1B", 
            "latitude": 35.206955662893002
          }
        }, 
        {
          "category": "Local business", 
          "name": "Pei Wei Asian Diner", 
          "id": "199718720061398", 
          "category_list": [
            {
              "id": "174483852595760", 
              "name": "Chinese Restaurant"
            }
          ], 
          "location": {
            "city": "Albuquerque", 
            "zip": "87110", 
            "country": "United States", 
            "longitude": -106.56904567567, 
            "state": "NM", 
            "street": "2201 Louisiana Blvd. NE Suite G", 
            "latitude": 35.104041665749001
          }
        }, 
        {
          "category": "Local business", 
          "name": "Pei Wei Asian Diner", 
          "id": "136096193129475", 
          "category_list": [
            {
              "id": "174483852595760", 
              "name": "Chinese Restaurant"
            }
          ], 
          "location": {
            "city": "Orlando", 
            "zip": "33331", 
            "country": "United States", 
            "longitude": -81.346383930775005, 
            "state": "FL", 
            "street": "4517 Weston Rd.", 
            "latitude": 28.553708582658999
          }
        }, 
        {
          "category": "Local business", 
          "name": "Pei Wei Asian Diner", 
          "id": "174099129305981", 
          "category_list": [
            {
              "id": "174483852595760", 
              "name": "Chinese Restaurant"
            }
          ], 
          "location": {
            "city": "Beaumont", 
            "zip": "77706", 
            "country": "United States", 
            "longitude": -94.167909817950999, 
            "state": "TX", 
            "street": "3050 Dowlen Rd. Suite N", 
            "latitude": 30.106798483734998
          }
        }, 
        {
          "category": "Local business", 
          "name": "Pei Wei Asian Diner", 
          "id": "120055254739597", 
          "category_list": [
            {
              "id": "174483852595760", 
              "name": "Chinese Restaurant"
            }
          ], 
          "location": {
            "city": "Pasadena", 
            "zip": "77584", 
            "country": "United States", 
            "longitude": -95.394482999999994, 
            "state": "TX", 
            "street": "11302 Broadway Suite 102", 
            "latitude": 29.555199000000002
          }
        }, 
        {
          "category": "Local business", 
          "name": "Pei Wei Asian Diner", 
          "id": "198477490184020", 
          "category_list": [
            {
              "id": "174483852595760", 
              "name": "Chinese Restaurant"
            }
          ], 
          "location": {
            "city": "Orlando", 
            "zip": "32817", 
            "country": "United States", 
            "longitude": -81.221059999999994, 
            "state": "FL", 
            "street": "3402 Technological Ave. Suite 232", 
            "latitude": 28.598213999999999
          }
        }, 
        {
          "category": "Local business", 
          "name": "Pei Wei Asian Diner", 
          "id": "186584818052234", 
          "category_list": [
            {
              "id": "174483852595760", 
              "name": "Chinese Restaurant"
            }
          ], 
          "location": {
            "city": "Tulsa", 
            "zip": "74135", 
            "country": "United States", 
            "longitude": -95.922751358113999, 
            "state": "OK", 
            "street": "5954 S Yale Ave.", 
            "latitude": 36.077438757362003
          }
        }, 
        {
          "category": "Local business", 
          "name": "Pei Wei Asian Diner", 
          "id": "213165595365340", 
          "category_list": [
            {
              "id": "174483852595760", 
              "name": "Chinese Restaurant"
            }
          ], 
          "location": {
            "city": "Plano", 
            "zip": "75075", 
            "country": "United States", 
            "longitude": -96.712726000000004, 
            "state": "TX", 
            "street": "601 W 15th St. Suite 101", 
            "latitude": 33.019630999999997
          }
        }, 
        {
          "category": "Local business", 
          "name": "Pei Wei Asian Diner", 
          "id": "199954823358365", 
          "category_list": [
            {
              "id": "174483852595760", 
              "name": "Chinese Restaurant"
            }
          ], 
          "location": {
            "city": "Houston", 
            "zip": "77019", 
            "country": "United States", 
            "longitude": -95.397771000000006, 
            "state": "TX", 
            "street": "1005 Waugh St. Suite A", 
            "latitude": 29.756371999999999
          }
        }, 
        {
          "category": "Local business", 
          "name": "Pei Wei Asian Diner", 
          "id": "214463148569325", 
          "category_list": [
            {
              "id": "174483852595760", 
              "name": "Chinese Restaurant"
            }
          ], 
          "location": {
            "city": "Sandy", 
            "zip": "84070", 
            "country": "United States", 
            "longitude": -111.89020420708, 
            "state": "UT", 
            "street": "10373 S State St.", 
            "latitude": 40.562942620737999
          }
        }, 
        {
          "category": "Local business", 
          "name": "Pei Wei Asian Diner", 
          "id": "114112272002083", 
          "category_list": [
            {
              "id": "174483852595760", 
              "name": "Chinese Restaurant"
            }
          ], 
          "location": {
            "city": "The Crossings", 
            "zip": "33431", 
            "country": "United States", 
            "longitude": -80.077674999999999, 
            "state": "FL", 
            "street": "1914 NE Fifth Ave.", 
            "latitude": 26.367415999999999
          }
        }, 
        {
          "category": "Local business", 
          "name": "Pei Wei Asian Diner", 
          "id": "209904839020835", 
          "category_list": [
            {
              "id": "174483852595760", 
              "name": "Chinese Restaurant"
            }
          ], 
          "location": {
            "city": "Henderson", 
            "zip": "89014", 
            "country": "United States", 
            "longitude": -115.04368364112, 
            "state": "NV", 
            "street": "1311 W Sunset Rd Suite 120", 
            "latitude": 36.063212492354999
          }
        }, 
        {
          "category": "Local business", 
          "name": "Pei Wei Asian Diner", 
          "id": "135481946524654", 
          "category_list": [
            {
              "id": "174483852595760", 
              "name": "Chinese Restaurant"
            }
          ], 
          "location": {
            "city": "Fort Worth", 
            "zip": "76132", 
            "country": "United States", 
            "longitude": -97.414342947140995, 
            "state": "TX", 
            "street": "5900 Overton Ridge Blvd. Suite 130", 
            "latitude": 32.677081348115003
          }
        }, 
        {
          "category": "Local business", 
          "name": "Pei Wei Asian Diner", 
          "id": "174181822634298", 
          "category_list": [
            {
              "id": "174483852595760", 
              "name": "Chinese Restaurant"
            }
          ], 
          "location": {
            "city": "Tucson", 
            "zip": "85204", 
            "country": "United States", 
            "longitude": -111.756889, 
            "state": "AZ", 
            "street": "3426 E Baseline Rd. Suite 121", 
            "latitude": 33.379347000000003
          }
        }, 
        {
          "category": "Local business", 
          "name": "Pei Wei Asian Diner", 
          "id": "164317713622956", 
          "category_list": [
            {
              "id": "174483852595760", 
              "name": "Chinese Restaurant"
            }
          ], 
          "location": {
            "city": "Orlando", 
            "zip": "33710", 
            "country": "United States", 
            "longitude": -82.728651999999997, 
            "state": "FL", 
            "street": "1402 66th St.", 
            "latitude": 27.785098999999999
          }
        }, 
        {
          "category": "Local business", 
          "name": "Pei Wei Asian Diner", 
          "id": "210135062332994", 
          "category_list": [
            {
              "id": "174483852595760", 
              "name": "Chinese Restaurant"
            }
          ], 
          "location": {
            "city": "Irving", 
            "zip": "76015", 
            "country": "United States", 
            "longitude": -97.134428, 
            "state": "TX", 
            "street": "4133 S Cooper St. Suite 307", 
            "latitude": 32.680194
          }
        }, 
        {
          "category": "Local business", 
          "name": "Pei Wei Asian Diner", 
          "id": "100885136623185", 
          "category_list": [
            {
              "id": "174483852595760", 
              "name": "Chinese Restaurant"
            }
          ], 
          "location": {
            "city": "El Paso", 
            "zip": "79912-3501", 
            "country": "United States", 
            "longitude": -106.56550065847, 
            "state": "TX", 
            "street": "7500 N Mesa St", 
            "latitude": 31.838929251467999
          }
        }, 
        {
          "category": "Local business", 
          "name": "Pei Wei Asian Diner", 
          "id": "191634787544777", 
          "category_list": [
            {
              "id": "174483852595760", 
              "name": "Chinese Restaurant"
            }
          ], 
          "location": {
            "city": "Tulsa", 
            "zip": "74105", 
            "country": "United States", 
            "longitude": -95.975457399551004, 
            "state": "OK", 
            "street": "3535 S Peoria", 
            "latitude": 36.112242968128001
          }
        }, 
        {
          "category": "Local business", 
          "name": "Pei Wei Asian Diner", 
          "id": "203795189639950", 
          "category_list": [
            {
              "id": "174483852595760", 
              "name": "Chinese Restaurant"
            }
          ], 
          "location": {
            "city": "Las Vegas", 
            "zip": "89135", 
            "country": "United States", 
            "longitude": -115.33125983316, 
            "state": "NV", 
            "street": "10830 W Charleston Blvd. Suite 110", 
            "latitude": 36.161215906485999
          }
        }, 
        {
          "category": "Local business", 
          "name": "Pei Wei Asian Diner", 
          "id": "103036579782709", 
          "category_list": [
            {
              "id": "174483852595760", 
              "name": "Chinese Restaurant"
            }
          ], 
          "location": {
            "city": "Phoenix", 
            "zip": "85018", 
            "country": "United States", 
            "longitude": -111.98791805094, 
            "state": "AZ", 
            "street": "4340 E Indian School Rd. Bldg. A Suite 23", 
            "latitude": 33.495777170880999
          }
        }, 
        {
          "category": "Local business", 
          "name": "Pei Wei Asian Diner", 
          "id": "173268936058734", 
          "category_list": [
            {
              "id": "174483852595760", 
              "name": "Chinese Restaurant"
            }
          ], 
          "location": {
            "city": "Huntington Beach", 
            "zip": "92647", 
            "country": "United States", 
            "longitude": -117.99615755172, 
            "state": "CA", 
            "street": "7621 Edinger Ave. Suite 102", 
            "latitude": 33.730613024382997
          }
        }, 
        {
          "category": "Local business", 
          "name": "Pei Wei Asian Diner", 
          "id": "109592149077203", 
          "category_list": [
            {
              "id": "174483852595760", 
              "name": "Chinese Restaurant"
            }
          ], 
          "location": {
            "city": "Gilbert", 
            "zip": "85296-3464", 
            "country": "United States", 
            "longitude": -111.79082765387, 
            "state": "AZ", 
            "street": "1084 S Gilbert Rd", 
            "latitude": 33.330165858454002
          }
        }, 
        {
          "category": "Local business", 
          "name": "Pei Wei Asian Diner", 
          "id": "166139116746362", 
          "category_list": [
            {
              "id": "174483852595760", 
              "name": "Chinese Restaurant"
            }
          ], 
          "location": {
            "city": "Mesa", 
            "zip": "85204-7293", 
            "country": "United States", 
            "longitude": -111.75672248767, 
            "state": "AZ", 
            "street": "3426 E Baseline Rd Ste 121", 
            "latitude": 33.381135907782003
          }
        }, 
        {
          "category": "Local business", 
          "name": "Pei Wei Asian Diner", 
          "id": "203562712996624", 
          "category_list": [
            {
              "id": "174483852595760", 
              "name": "Chinese Restaurant"
            }
          ], 
          "location": {
            "city": "Nashville", 
            "zip": "38016", 
            "country": "United States", 
            "longitude": -89.792895999999999, 
            "state": "TN", 
            "street": "2257 N Germantown Pkwy. Suite 110", 
            "latitude": 35.187545
          }
        }, 
        {
          "category": "Local business", 
          "name": "Pei Wei Asian Diner", 
          "id": "118572434824282", 
          "category_list": [
            {
              "id": "174483852595760", 
              "name": "Chinese Restaurant"
            }
          ], 
          "location": {
            "city": "Glendale", 
            "zip": "85308-4619", 
            "country": "United States", 
            "longitude": -112.20407603999, 
            "state": "AZ", 
            "street": "20022 N 67th Ave", 
            "latitude": 33.665902676715
          }
        }, 
        {
          "category": "Local business", 
          "name": "Pei Wei Asian Diner", 
          "id": "120813647994563", 
          "category_list": [
            {
              "id": "174483852595760", 
              "name": "Chinese Restaurant"
            }
          ], 
          "location": {
            "city": "Waco", 
            "zip": "78750", 
            "country": "United States", 
            "longitude": -97.789564999999996, 
            "state": "TX", 
            "street": "13429 N Hwy 183", 
            "latitude": 30.447890000000001
          }
        }, 
        {
          "category": "Local business", 
          "name": "Pei Wei Asian Diner", 
          "id": "111916795511498", 
          "category_list": [
            {
              "id": "174483852595760", 
              "name": "Chinese Restaurant"
            }
          ], 
          "location": {
            "city": "Avondale", 
            "zip": "85392-1200", 
            "country": "United States", 
            "longitude": -112.34036743071999, 
            "state": "AZ", 
            "street": "1619 N Dysart Rd", 
            "latitude": 33.465461758522999
          }
        }, 
        {
          "category": "Local business", 
          "name": "Pei Wei Asian Diner", 
          "id": "151933128204280", 
          "category_list": [
            {
              "id": "174483852595760", 
              "name": "Chinese Restaurant"
            }
          ], 
          "location": {
            "city": "Lewisville", 
            "zip": "77069", 
            "country": "United States", 
            "longitude": -95.508947000000006, 
            "state": "TX", 
            "street": "5203 FM 1960 W Suite E", 
            "latitude": 29.981884000000001
          }
        }, 
        {
          "category": "Local business", 
          "name": "Pei Wei Asian Diner", 
          "id": "120685884673833", 
          "category_list": [
            {
              "id": "174483852595760", 
              "name": "Chinese Restaurant"
            }
          ], 
          "location": {
            "city": "Arlington", 
            "zip": "76011", 
            "country": "United States", 
            "longitude": -97.097747509398999, 
            "state": "TX", 
            "street": "2100 N Collins St. Suite 120", 
            "latitude": 32.767478143692998
          }
        }, 
        {
          "category": "Local business", 
          "name": "Pei Wei Asian Diner", 
          "id": "200059223348172", 
          "category_list": [
            {
              "id": "174483852595760", 
              "name": "Chinese Restaurant"
            }
          ], 
          "location": {
            "city": "Wichita", 
            "zip": "67205", 
            "country": "United States", 
            "longitude": -97.463174932360005, 
            "state": "KS", 
            "street": "2441 North Maize Rd. Suite 1501", 
            "latitude": 37.728476545069
          }
        }, 
        {
          "category": "Local business", 
          "name": "Pei Wei Asian Diner", 
          "id": "164669990254763", 
          "category_list": [
            {
              "id": "174483852595760", 
              "name": "Chinese Restaurant"
            }
          ], 
          "location": {
            "city": "McKinney", 
            "zip": "79912", 
            "country": "United States", 
            "longitude": -106.563712, 
            "state": "TX", 
            "street": "7500 N Mesa St. Suite 101", 
            "latitude": 31.838705999999998
          }
        }, 
        {
          "category": "Local business", 
          "name": "Pei Wei Asian Diner", 
          "id": "205369082825513", 
          "category_list": [
            {
              "id": "174483852595760", 
              "name": "Chinese Restaurant"
            }
          ], 
          "location": {
            "city": "Chicago", 
            "zip": "60647", 
            "country": "United States", 
            "longitude": -87.685167135160995, 
            "state": "IL", 
            "street": "2709 N Elston Ave.", 
            "latitude": 41.930988034475
          }
        }, 
        {
          "category": "Local business", 
          "name": "Pei Wei Asian Diner", 
          "id": "199196053436812", 
          "category_list": [
            {
              "id": "174483852595760", 
              "name": "Chinese Restaurant"
            }
          ], 
          "location": {
            "city": "Pembroke Pines", 
            "zip": "32819", 
            "country": "United States", 
            "longitude": -81.476493000000005, 
            "state": "FL", 
            "street": "8015 Turkey Lake Rd. Suite 400", 
            "latitude": 28.448540999999999
          }
        }, 
        {
          "category": "Local business", 
          "name": "Pei Wei Asian Diner", 
          "id": "139203852814397", 
          "category_list": [
            {
              "id": "174483852595760", 
              "name": "Chinese Restaurant"
            }
          ], 
          "location": {
            "city": "Miami Lakes", 
            "zip": "33026", 
            "country": "United States", 
            "longitude": -80.294027999999997, 
            "state": "FL", 
            "street": "11049 Pines Blvd. Suite 424", 
            "latitude": 26.008030000000002
          }
        }, 
        {
          "category": "Local business", 
          "name": "Pei Wei Asian Diner", 
          "id": "111591292213071", 
          "category_list": [
            {
              "id": "174483852595760", 
              "name": "Chinese Restaurant"
            }
          ], 
          "location": {
            "city": "San Antonio", 
            "zip": "78209-1801", 
            "country": "United States", 
            "longitude": -98.469164893460999, 
            "state": "TX", 
            "street": "999 E Basse Rd", 
            "latitude": 29.497222426760999
          }
        }, 
        {
          "category": "Local business", 
          "name": "Pei Wei Asian Diner", 
          "id": "175520452495732", 
          "category_list": [
            {
              "id": "174483852595760", 
              "name": "Chinese Restaurant"
            }
          ], 
          "location": {
            "city": "Goldstein", 
            "zip": "33618", 
            "country": "United States", 
            "longitude": -82.502932646719003, 
            "state": "FL", 
            "street": "12927 N Dale Mabry Hwy.", 
            "latitude": 28.064255156064998
          }
        }, 
        {
          "category": "Local business", 
          "name": "Pei Wei Asian Diner", 
          "id": "120839124598043", 
          "category_list": [
            {
              "id": "174483852595760", 
              "name": "Chinese Restaurant"
            }
          ], 
          "location": {
            "city": "Kissimmee", 
            "zip": "34741-0765", 
            "country": "United States", 
            "longitude": -81.429177399839006, 
            "state": "FL", 
            "street": "2501 W Osceola Pkwy", 
            "latitude": 28.342511930920999
          }
        }, 
        {
          "category": "Local business", 
          "name": "Pei Wei Asian Diner", 
          "id": "104980489583133", 
          "category_list": [
            {
              "id": "192049437499122", 
              "name": "Residence & Other"
            }, 
            {
              "id": "174483852595760", 
              "name": "Chinese Restaurant"
            }
          ], 
          "location": {
            "city": "Phoenix", 
            "zip": "85010", 
            "country": "United States", 
            "longitude": -112.0830046122, 
            "state": "AZ", 
            "street": "701 W McDowell Rd. Suite 101", 
            "latitude": 33.465520705967997
          }
        }, 
        {
          "category": "Local business", 
          "name": "Pei Wei Asian Diner", 
          "id": "117759294916794", 
          "category_list": [
            {
              "id": "174483852595760", 
              "name": "Chinese Restaurant"
            }
          ], 
          "location": {
            "city": "Conroe", 
            "zip": "77385-8701", 
            "country": "United States", 
            "longitude": -95.451031274388001, 
            "state": "TX", 
            "street": "19075 Interstate 45 S Ste 480", 
            "latitude": 30.182707705639
          }
        }, 
        {
          "category": "Local business", 
          "name": "Pei Wei Asian Diner", 
          "id": "150015191708506", 
          "category_list": [
            {
              "id": "174483852595760", 
              "name": "Chinese Restaurant"
            }
          ], 
          "location": {
            "city": "San Antonio", 
            "zip": "78232-1639", 
            "country": "United States", 
            "longitude": -98.463087181651005, 
            "state": "TX", 
            "street": "1802 N Loop 1604 E", 
            "latitude": 29.606933730632001
          }
        }, 
        {
          "category": "Local business", 
          "name": "Pei Wei Asian Diner", 
          "id": "120278624651919", 
          "category_list": [
            {
              "id": "174483852595760", 
              "name": "Chinese Restaurant"
            }
          ], 
          "location": {
            "city": "Dallas", 
            "zip": "75205-5584", 
            "country": "United States", 
            "longitude": -96.787351732084005, 
            "state": "TX", 
            "street": "3001 Knox St", 
            "latitude": 32.820811203853999
          }
        }, 
        {
          "category": "Local business", 
          "name": "Pei Wei Asian Diner", 
          "id": "114214665324928", 
          "category_list": [
            {
              "id": "174483852595760", 
              "name": "Chinese Restaurant"
            }
          ], 
          "location": {
            "city": "Columbia", 
            "zip": "21045", 
            "country": "United States", 
            "longitude": -76.819519089455994, 
            "state": "MD", 
            "street": "6478 Dobbin Center Way Suite A", 
            "latitude": 39.198655476371997
          }
        }, 
        {
          "category": "Local business", 
          "name": "Pei Wei Asian Diner", 
          "id": "190720701029237", 
          "category_list": [
            {
              "id": "174483852595760", 
              "name": "Chinese Restaurant"
            }
          ], 
          "location": {
            "city": "Indianapolis", 
            "zip": "46220", 
            "country": "United States", 
            "longitude": -86.121066601096999, 
            "state": "IN", 
            "street": "6159 N. Keystone Ave., Suite 100", 
            "latitude": 39.867768936125998
          }
        }, 
        {
          "category": "Local business", 
          "name": "Pei Wei Asian Diner", 
          "id": "136101043130343", 
          "category_list": [
            {
              "id": "174483852595760", 
              "name": "Chinese Restaurant"
            }
          ], 
          "location": {
            "city": "Plantation", 
            "zip": "33609", 
            "country": "United States", 
            "longitude": -82.506195000000005, 
            "state": "FL", 
            "street": "217 S Dale Mabry Hwy.", 
            "latitude": 27.942319999999999
          }
        }, 
        {
          "category": "Local business", 
          "name": "Pei Wei Asian Diner", 
          "id": "187594837951286", 
          "category_list": [
            {
              "id": "174483852595760", 
              "name": "Chinese Restaurant"
            }
          ], 
          "location": {
            "city": "Stuart", 
            "zip": "34994", 
            "country": "United States", 
            "longitude": -80.235915479810998, 
            "state": "FL", 
            "street": "2101 SE Federal Hwy.", 
            "latitude": 27.179060587959
          }
        }, 
        {
          "category": "Local business", 
          "name": "Pei Wei Asian Diner", 
          "id": "173989265984854", 
          "category_list": [
            {
              "id": "174483852595760", 
              "name": "Chinese Restaurant"
            }
          ], 
          "location": {
            "city": "Norman", 
            "zip": "73069", 
            "country": "United States", 
            "longitude": -97.483275765518002, 
            "state": "OK", 
            "street": "1500 24th Ave. NW", 
            "latitude": 35.237227476313997
          }
        }, 
        {
          "category": "Local business", 
          "name": "Pei Wei Asian Diner", 
          "id": "121545324587526", 
          "category_list": [
            {
              "id": "174483852595760", 
              "name": "Chinese Restaurant"
            }
          ], 
          "location": {
            "city": "Aventura", 
            "zip": "33180", 
            "country": "United States", 
            "longitude": -80.145440321405999, 
            "state": "FL", 
            "street": "18801 Biscayne Blvd., Suite B", 
            "latitude": 25.950117474544999
          }
        }, 
        {
          "category": "Local business", 
          "name": "Pei Wei Asian Diner", 
          "id": "113399332027203", 
          "category_list": [
            {
              "id": "174483852595760", 
              "name": "Chinese Restaurant"
            }
          ], 
          "location": {
            "city": "Round Rock", 
            "zip": "78665-1001", 
            "country": "United States", 
            "longitude": -97.689923467800995, 
            "state": "TX", 
            "street": "200 University Blvd", 
            "latitude": 30.560071761793001
          }
        }, 
        {
          "category": "Local business", 
          "name": "Pei Wei Asian Diner", 
          "id": "121859254491161", 
          "category_list": [
            {
              "id": "174483852595760", 
              "name": "Chinese Restaurant"
            }
          ], 
          "location": {
            "city": "Tempe", 
            "zip": "85283-3274", 
            "country": "United States", 
            "longitude": -111.91073634083, 
            "state": "AZ", 
            "street": "1825 E Guadalupe Rd", 
            "latitude": 33.361346640192998
          }
        }, 
        {
          "category": "Local business", 
          "name": "Pei Wei Asian Diner", 
          "id": "113501828682212", 
          "category_list": [
            {
              "id": "174483852595760", 
              "name": "Chinese Restaurant"
            }
          ], 
          "location": {
            "city": "Southlake", 
            "zip": "76092-6421", 
            "country": "United States", 
            "longitude": -97.126118011304001, 
            "state": "TX", 
            "street": "1582 E Southlake Blvd", 
            "latitude": 32.94149278215
          }
        }, 
        {
          "category": "Local business", 
          "name": "Pei Wei Asian Diner", 
          "id": "120180541328284", 
          "category_list": [
            {
              "id": "174483852595760", 
              "name": "Chinese Restaurant"
            }
          ], 
          "location": {
            "city": "Orlando", 
            "zip": "32817", 
            "country": "United States", 
            "longitude": -81.220810557963006, 
            "state": "FL", 
            "street": "3402 Technological Ave", 
            "latitude": 28.598413829355
          }
        }, 
        {
          "category": "Local business", 
          "name": "Pei Wei Asian Diner", 
          "id": "155636231163497", 
          "category_list": [
            {
              "id": "174483852595760", 
              "name": "Chinese Restaurant"
            }
          ], 
          "location": {
            "city": "Allen", 
            "zip": "75013", 
            "country": "United States", 
            "longitude": -96.687771899986998, 
            "state": "TX", 
            "street": "1008 W McDermott Dr. Suite 100", 
            "latitude": 33.101315277905996
          }
        }, 
        {
          "category": "Local business", 
          "name": "Pei Wei Asian Diner", 
          "id": "115475038482327", 
          "category_list": [
            {
              "id": "174201535963762", 
              "name": "Asian Fusion Restaurant"
            }, 
            {
              "id": "174483852595760", 
              "name": "Chinese Restaurant"
            }
          ], 
          "location": {
            "city": "Dallas", 
            "zip": "75201-1805", 
            "country": "United States", 
            "longitude": -96.802299894499996, 
            "state": "TX", 
            "street": "2222 McKinney Avenue, Suite 100", 
            "latitude": 32.792729559534997
          }
        }, 
        {
          "category": "Local business", 
          "name": "Pei Wei Asian Diner", 
          "id": "209607575733083", 
          "category_list": [
            {
              "id": "174483852595760", 
              "name": "Chinese Restaurant"
            }
          ], 
          "location": {
            "city": "Denton", 
            "zip": "79124", 
            "country": "United States", 
            "longitude": -101.94000200000001, 
            "state": "TX", 
            "street": "3350 S Soncy Suite 194", 
            "latitude": 35.177379999999999
          }
        }, 
        {
          "category": "Local business", 
          "name": "Pei Wei Asian Diner", 
          "id": "136632789743356", 
          "category_list": [
            {
              "id": "174483852595760", 
              "name": "Chinese Restaurant"
            }
          ], 
          "location": {
            "city": "Wellington", 
            "zip": "33414", 
            "country": "United States", 
            "longitude": -80.214844638277, 
            "state": "FL", 
            "street": "10610 Bay 10 Forest Hill Blvd.", 
            "latitude": 26.649946530485
          }
        }, 
        {
          "category": "Local business", 
          "name": "Pei Wei Asian Diner", 
          "id": "116000948427240", 
          "category_list": [
            {
              "id": "174483852595760", 
              "name": "Chinese Restaurant"
            }
          ], 
          "location": {
            "city": "Houston", 
            "zip": "77069", 
            "country": "United States", 
            "longitude": -95.509303415838005, 
            "state": "TX", 
            "street": "5230 Fm 1960 Rd W", 
            "latitude": 29.981449327050001
          }
        }, 
        {
          "category": "Local business", 
          "name": "Pei Wei Asian Diner", 
          "id": "117700644916024", 
          "category_list": [
            {
              "id": "174483852595760", 
              "name": "Chinese Restaurant"
            }
          ], 
          "location": {
            "city": "Cordova", 
            "zip": "38016-7405", 
            "country": "United States", 
            "longitude": -89.793208226108007, 
            "state": "TN", 
            "street": "2257 N Germantown Pkwy Ste 110", 
            "latitude": 35.187222055046
          }
        }, 
        {
          "category": "Local business", 
          "name": "Pei Wei Asian Diner", 
          "id": "163903086961496", 
          "category_list": [
            {
              "id": "174483852595760", 
              "name": "Chinese Restaurant"
            }
          ], 
          "location": {
            "city": "Chandler", 
            "zip": "85226-1520", 
            "country": "United States", 
            "longitude": -111.96723396665, 
            "state": "AZ", 
            "street": "7131 W Ray Rd", 
            "latitude": 33.317769136789998
          }
        }, 
        {
          "category": "Local business", 
          "name": "Pei Wei Asian Diner", 
          "id": "121447491263656", 
          "category_list": [
            {
              "id": "174483852595760", 
              "name": "Chinese Restaurant"
            }
          ], 
          "location": {
            "city": "Amarillo", 
            "zip": "76205", 
            "country": "United States", 
            "longitude": -97.100144999999998, 
            "state": "TX", 
            "street": "1931 S Loop 288 Suite 130", 
            "latitude": 33.190252999999998
          }
        }, 
        {
          "category": "Local business", 
          "name": "Pei Wei Asian Diner", 
          "id": "115687788451528", 
          "category_list": [
            {
              "id": "174483852595760", 
              "name": "Chinese Restaurant"
            }
          ], 
          "location": {
            "city": "Kingwood", 
            "zip": "77339-4486", 
            "country": "United States", 
            "longitude": -95.245145600282001, 
            "state": "TX", 
            "street": "702 Kingwood Dr", 
            "latitude": 30.050910016056001
          }
        }, 
        {
          "category": "Local business", 
          "name": "Pei Wei Asian Diner", 
          "id": "117947598222236", 
          "category_list": [
            {
              "id": "174483852595760", 
              "name": "Chinese Restaurant"
            }
          ], 
          "location": {
            "city": "Tucson", 
            "zip": "85719-5041", 
            "country": "United States", 
            "longitude": -110.95873794982001, 
            "state": "AZ", 
            "street": "845 E University Blvd Ste 135", 
            "latitude": 32.231931972654003
          }
        }, 
        {
          "category": "Local business", 
          "name": "Pei Wei Asian Diner", 
          "id": "121277641280981", 
          "category_list": [
            {
              "id": "174483852595760", 
              "name": "Chinese Restaurant"
            }
          ], 
          "location": {
            "city": "Dallas", 
            "zip": "75230", 
            "country": "United States", 
            "longitude": -96.802878303808001, 
            "state": "TX", 
            "street": "11700 Preston Rd. Suite A", 
            "latitude": 32.909050657731001
          }
        }, 
        {
          "category": "Local business", 
          "name": "Pei Wei Asian Diner", 
          "id": "151835554880816", 
          "category_list": [
            {
              "id": "174483852595760", 
              "name": "Chinese Restaurant"
            }
          ], 
          "location": {
            "city": "Edmond", 
            "zip": "73034", 
            "country": "United States", 
            "longitude": -97.465168300513, 
            "state": "OK", 
            "street": "1141 E 2nd St. Suite 100-A", 
            "latitude": 35.653859621453002
          }
        }, 
        {
          "category": "Local business", 
          "name": "Pei Wei Asian Diner", 
          "id": "113901018689279", 
          "category_list": [
            {
              "id": "174483852595760", 
              "name": "Chinese Restaurant"
            }
          ], 
          "location": {
            "city": "Houston", 
            "zip": "77057", 
            "country": "United States", 
            "longitude": -95.500761431499996, 
            "state": "TX", 
            "street": "1413 S Voss Rd. Suite A", 
            "latitude": 29.751763466549001
          }
        }, 
        {
          "category": "Local business", 
          "name": "Pei Wei Asian Diner", 
          "id": "103033929781032", 
          "category_list": [
            {
              "id": "174483852595760", 
              "name": "Chinese Restaurant"
            }
          ], 
          "location": {
            "city": "Knoxville", 
            "zip": "37901", 
            "country": "United States", 
            "longitude": -84.158829915390996, 
            "state": "TN", 
            "street": "11301 Parkside Dr. Suite 1200", 
            "latitude": 35.900283839011003
          }
        }, 
        {
          "category": "Local business", 
          "name": "Pei Wei Asian Diner", 
          "id": "111748388862861", 
          "category_list": [
            {
              "id": "174201535963762", 
              "name": "Asian Fusion Restaurant"
            }, 
            {
              "id": "174483852595760", 
              "name": "Chinese Restaurant"
            }
          ], 
          "location": {
            "city": "Tucson", 
            "zip": "85704-4435", 
            "country": "United States", 
            "longitude": -110.9789386559, 
            "state": "AZ", 
            "street": "635 W Ina Rd", 
            "latitude": 32.336633267640998
          }
        }, 
        {
          "category": "Local business", 
          "name": "Pei Wei Asian Diner", 
          "id": "120211771389725", 
          "category_list": [
            {
              "id": "174483852595760", 
              "name": "Chinese Restaurant"
            }
          ], 
          "location": {
            "city": "Raleigh", 
            "zip": "27617", 
            "country": "United States", 
            "longitude": -78.784859286647006, 
            "state": "NC", 
            "street": "10251 Little Brier Creek Ln. Suite 112", 
            "latitude": 35.911428238244
          }
        }, 
        {
          "category": "Local business", 
          "name": "Pei Wei Asian Diner", 
          "id": "120076258070593", 
          "category_list": [
            {
              "id": "174483852595760", 
              "name": "Chinese Restaurant"
            }
          ], 
          "location": {
            "city": "Midvale", 
            "zip": "84047", 
            "country": "United States", 
            "longitude": -111.8603035786, 
            "state": "UT", 
            "street": "1148 E Fort. Union Blvd. Unit 162", 
            "latitude": 40.624158718427999
          }
        }, 
        {
          "category": "Local business", 
          "name": "Pei Wei Asian Diner", 
          "id": "115020325182977", 
          "category_list": [
            {
              "id": "174201535963762", 
              "name": "Asian Fusion Restaurant"
            }, 
            {
              "id": "174483852595760", 
              "name": "Chinese Restaurant"
            }
          ], 
          "location": {
            "city": "Chandler", 
            "zip": "85248-8128", 
            "country": "United States", 
            "longitude": -111.86056252501, 
            "state": "AZ", 
            "street": "1085 W Queen Creek Rd", 
            "latitude": 33.261258887456002
          }
        }, 
        {
          "category": "Local business", 
          "name": "Pei Wei Asian Diner", 
          "id": "120196184658051", 
          "category_list": [
            {
              "id": "174483852595760", 
              "name": "Chinese Restaurant"
            }
          ], 
          "location": {
            "city": "Dallas", 
            "zip": "75254-7540", 
            "country": "United States", 
            "longitude": -96.829987710021001, 
            "state": "TX", 
            "street": "4801 Belt Line Rd", 
            "latitude": 32.954342677471999
          }
        }, 
        {
          "category": "Local business", 
          "name": "Pei Wei Asian Diner", 
          "id": "150530515011954", 
          "category_list": [
            {
              "id": "174483852595760", 
              "name": "Chinese Restaurant"
            }
          ], 
          "location": {
            "city": "Seal Beach", 
            "zip": "90740", 
            "country": "United States", 
            "longitude": -118.07329234341, 
            "state": "CA", 
            "street": "12235 Seal Beach Blvd.", 
            "latitude": 33.784633992121996
          }
        }, 
        {
          "category": "Local business", 
          "name": "Pei Wei Asian Diner", 
          "id": "151545694908214", 
          "category_list": [
            {
              "id": "174483852595760", 
              "name": "Chinese Restaurant"
            }
          ], 
          "location": {
            "city": "Olathe", 
            "zip": "66062", 
            "country": "United States", 
            "longitude": -94.762463654436004, 
            "state": "KS", 
            "street": "15141 W 119th St.", 
            "latitude": 38.912358652122002
          }
        }, 
        {
          "category": "Local business", 
          "name": "Pei Wei Asian Diner", 
          "id": "210018242344194", 
          "category_list": [
            {
              "id": "174483852595760", 
              "name": "Chinese Restaurant"
            }
          ], 
          "location": {
            "city": "Torrance", 
            "zip": "90505", 
            "country": "United States", 
            "longitude": -118.33458934728, 
            "state": "CA", 
            "street": "2777 Pacific Coast Hwy.", 
            "latitude": 33.793703382731003
          }
        }, 
        {
          "category": "Local business", 
          "name": "Pei Wei Asian Diner", 
          "id": "109960759085549", 
          "category_list": [
            {
              "id": "174483852595760", 
              "name": "Chinese Restaurant"
            }
          ], 
          "location": {
            "city": "San Marcos", 
            "zip": "92078", 
            "country": "United States", 
            "longitude": -117.19223350254001, 
            "state": "CA", 
            "street": "113 S Las Posas Rd. Suite 110", 
            "latitude": 33.141110534070002
          }
        }, 
        {
          "category": "Local business", 
          "name": "Pei Wei Asian Diner", 
          "id": "102976299787026", 
          "category_list": [
            {
              "id": "174483852595760", 
              "name": "Chinese Restaurant"
            }
          ], 
          "location": {
            "city": "Brentwood", 
            "zip": "37027", 
            "country": "United States", 
            "longitude": -86.800193673558994, 
            "state": "TN", 
            "street": "101 Creekside Crossing Suite 1800", 
            "latitude": 36.037106855426003
          }
        }, 
        {
          "category": "Local business", 
          "name": "Pei Wei Asian Diner", 
          "id": "156424484418440", 
          "category_list": [
            {
              "id": "174483852595760", 
              "name": "Chinese Restaurant"
            }
          ], 
          "location": {
            "city": "Creve Coeur", 
            "zip": "63141", 
            "country": "United States", 
            "longitude": -90.433292373607998, 
            "state": "MO", 
            "street": "11430 Olive Blvd.", 
            "latitude": 38.671132514139998
          }
        }, 
        {
          "category": "Local business", 
          "name": "Pei Wei Asian Diner", 
          "id": "111596165544324", 
          "category_list": [
            {
              "id": "174483852595760", 
              "name": "Chinese Restaurant"
            }, 
            {
              "id": "167954166588517", 
              "name": "Diner"
            }
          ], 
          "location": {
            "city": "Tampa", 
            "zip": "33609-2816", 
            "country": "United States", 
            "longitude": -82.505832054579997, 
            "state": "FL", 
            "street": "217 S Dale Mabry Hwy", 
            "latitude": 27.942315331071999
          }
        }, 
        {
          "category": "Local business", 
          "name": "Pei Wei Asian Diner", 
          "id": "174217192630096", 
          "category_list": [
            {
              "id": "174483852595760", 
              "name": "Chinese Restaurant"
            }
          ], 
          "location": {
            "city": "Columbus", 
            "zip": "43219", 
            "country": "United States", 
            "longitude": -82.919449162017997, 
            "state": "OH", 
            "street": "4155 Morse Crossing", 
            "latitude": 40.055220394122998
          }
        }, 
        {
          "category": "Local business", 
          "name": "Pei Wei Asian Diner", 
          "id": "197973633568845", 
          "category_list": [
            {
              "id": "174483852595760", 
              "name": "Chinese Restaurant"
            }
          ], 
          "location": {
            "city": "Charlotte", 
            "zip": "28277", 
            "country": "United States", 
            "longitude": -80.851531569659002, 
            "state": "NC", 
            "street": "13855 Conlan Circle Suite J", 
            "latitude": 35.055518167290998
          }
        }, 
        {
          "category": "Local business", 
          "name": "Pei Wei Asian Diner", 
          "id": "109621759119749", 
          "category_list": [
            {
              "id": "174483852595760", 
              "name": "Chinese Restaurant"
            }
          ], 
          "location": {
            "city": "Chantilly", 
            "zip": "22033", 
            "country": "United States", 
            "longitude": -77.376167095889002, 
            "state": "VA", 
            "street": "4461 Market Commons Dr.", 
            "latitude": 38.858329198328001
          }
        }, 
        {
          "category": "Local business", 
          "name": "Pei Wei Asian Diner", 
          "id": "120071814717962", 
          "category_list": [
            {
              "id": "174483852595760", 
              "name": "Chinese Restaurant"
            }
          ], 
          "location": {
            "city": "Colorado Springs", 
            "zip": "80920-3185", 
            "country": "United States", 
            "longitude": -104.79822005712001, 
            "state": "CO", 
            "street": "7148 N Academy Blvd", 
            "latitude": 38.936334331838999
          }
        }, 
        {
          "category": "Local business", 
          "name": "Pei Wei Asian Diner", 
          "id": "248550401894107", 
          "category_list": [
            {
              "id": "174483852595760", 
              "name": "Chinese Restaurant"
            }
          ], 
          "location": {
            "city": "Fort Lauderdale", 
            "zip": "33305", 
            "country": "United States", 
            "longitude": -80.119160546700002, 
            "state": "FL", 
            "street": "1730 N Federal Hwy", 
            "latitude": 26.150205506900001
          }
        }, 
        {
          "category": "Local business", 
          "name": "Pei Wei Asian Diner", 
          "id": "209570325719847", 
          "category_list": [
            {
              "id": "174483852595760", 
              "name": "Chinese Restaurant"
            }
          ], 
          "location": {
            "city": "Scottsdale", 
            "zip": "85253", 
            "country": "United States", 
            "longitude": -111.92466059116001, 
            "state": "AZ", 
            "street": "8787 N Scottsdale Rd. 214/216", 
            "latitude": 33.564948004423997
          }
        }, 
        {
          "category": "Local business", 
          "name": "Pei Wei Asian Diner", 
          "id": "168735493137950", 
          "category_list": [
            {
              "id": "174483852595760", 
              "name": "Chinese Restaurant"
            }
          ], 
          "location": {
            "city": "Tustin", 
            "zip": "92782-2707", 
            "country": "United States", 
            "longitude": -117.82781243437, 
            "state": "CA", 
            "street": "2695 Park Ave", 
            "latitude": 33.695572588372997
          }
        }, 
        {
          "category": "Local business", 
          "name": "Pei Wei Asian Diner", 
          "id": "162220047168356", 
          "category_list": [
            {
              "id": "174483852595760", 
              "name": "Chinese Restaurant"
            }
          ], 
          "location": {
            "city": "Boulder", 
            "zip": "80301", 
            "country": "United States", 
            "longitude": -105.25664983545001, 
            "state": "CO", 
            "street": "1675 29th St. Suite 1284", 
            "latitude": 40.016522897427997
          }
        }, 
        {
          "category": "Local business", 
          "name": "Pei Wei Asian Diner", 
          "id": "111613665544675", 
          "category_list": [
            {
              "id": "174483852595760", 
              "name": "Chinese Restaurant"
            }
          ], 
          "location": {
            "city": "Cary", 
            "zip": "27511-4734", 
            "country": "United States", 
            "longitude": -78.762716537241005, 
            "state": "NC", 
            "street": "1107 Walnut St", 
            "latitude": 35.771645978968003
          }
        }, 
        {
          "category": "Local business", 
          "name": "Pei Wei Asian Diner", 
          "id": "177454995636257", 
          "category_list": [
            {
              "id": "174483852595760", 
              "name": "Chinese Restaurant"
            }
          ], 
          "location": {
            "city": "Salt Lake City", 
            "zip": "84106", 
            "country": "United States", 
            "longitude": -111.86167918093, 
            "state": "UT", 
            "street": "1028 E 2100 S Suite 3", 
            "latitude": 40.725072558087
          }
        }, 
        {
          "category": "Local business", 
          "name": "Pei Wei Asian Diner", 
          "id": "196192180421658", 
          "category_list": [
            {
              "id": "174483852595760", 
              "name": "Chinese Restaurant"
            }
          ], 
          "location": {
            "city": "Springfield", 
            "zip": "19064", 
            "country": "United States", 
            "longitude": -75.343051653695994, 
            "state": "PA", 
            "street": "950 Baltimore Pike", 
            "latitude": 39.914664386437998
          }
        }, 
        {
          "category": "Local business", 
          "name": "Pei Wei Asian Diner", 
          "id": "103076713110852", 
          "category_list": [
            {
              "id": "174483852595760", 
              "name": "Chinese Restaurant"
            }
          ], 
          "location": {
            "city": "Murfreesboro", 
            "zip": "37129", 
            "country": "United States", 
            "longitude": -86.427909202584999, 
            "state": "TN", 
            "street": "1911 Medical Center Pkwy. Suite A", 
            "latitude": 35.857270966911997
          }
        }, 
        {
          "category": "Local business", 
          "name": "Pei Wei Asian Diner", 
          "id": "155885404449868", 
          "category_list": [
            {
              "id": "174483852595760", 
              "name": "Chinese Restaurant"
            }
          ], 
          "location": {
            "city": "Pearland", 
            "zip": "77584-9795", 
            "country": "United States", 
            "longitude": -95.394545871491005, 
            "state": "TX", 
            "street": "11302 Broadway St", 
            "latitude": 29.5553412286
          }
        }, 
        {
          "category": "Local business", 
          "name": "Pei Wei Asian Diner", 
          "id": "115935131760293", 
          "category_list": [
            {
              "id": "174483852595760", 
              "name": "Chinese Restaurant"
            }, 
            {
              "id": "174201535963762", 
              "name": "Asian Fusion Restaurant"
            }
          ], 
          "location": {
            "city": "Houston", 
            "zip": "77005-4218", 
            "country": "United States", 
            "longitude": -95.428903150916994, 
            "state": "TX", 
            "street": "5110 Buffalo Speedway", 
            "latitude": 29.728033121214999
          }
        }, 
        {
          "category": "Local business", 
          "name": "Pei Wei Asian Diner", 
          "id": "117047398313689", 
          "category_list": [
            {
              "id": "174483852595760", 
              "name": "Chinese Restaurant"
            }
          ], 
          "location": {
            "city": "Lewisville", 
            "zip": "75077-7047", 
            "country": "United States", 
            "longitude": -97.079066945828998, 
            "state": "TX", 
            "street": "3090 Justin Rd", 
            "latitude": 33.073922364044002
          }
        }, 
        {
          "category": "Local business", 
          "name": "Pei Wei Asian Diner", 
          "id": "139803769422959", 
          "category_list": [
            {
              "id": "174483852595760", 
              "name": "Chinese Restaurant"
            }
          ], 
          "location": {
            "city": "Pasadena", 
            "zip": "91107", 
            "country": "United States", 
            "longitude": -118.07918160404, 
            "state": "CA", 
            "street": "3455 E Foothill Blvd.", 
            "latitude": 34.150429011752003
          }
        }, 
        {
          "category": "Local business", 
          "name": "Pei Wei Asian Diner", 
          "id": "205075109510719", 
          "category_list": [
            {
              "id": "174483852595760", 
              "name": "Chinese Restaurant"
            }
          ], 
          "location": {
            "city": "Sugar Land", 
            "zip": "76092", 
            "country": "United States", 
            "longitude": -97.126638999999997, 
            "state": "TX", 
            "street": "1582 E Southlake Blvd.", 
            "latitude": 32.941116999999998
          }
        }, 
        {
          "category": "Local business", 
          "name": "Pei Wei Asian Diner", 
          "id": "173744362678126", 
          "category_list": [
            {
              "id": "174483852595760", 
              "name": "Chinese Restaurant"
            }
          ], 
          "location": {
            "city": "Overland Park", 
            "zip": "66212", 
            "country": "United States", 
            "longitude": -94.668692463707004, 
            "state": "KS", 
            "street": "9222 Metcalf Ave.", 
            "latitude": 38.961344712172
          }
        }, 
        {
          "category": "Local business", 
          "name": "Pei Wei Asian Diner", 
          "id": "134623949921540", 
          "category_list": [
            {
              "id": "174201535963762", 
              "name": "Asian Fusion Restaurant"
            }, 
            {
              "id": "174483852595760", 
              "name": "Chinese Restaurant"
            }
          ], 
          "location": {
            "city": "Houston", 
            "zip": "77065-5363", 
            "country": "United States", 
            "longitude": -95.599836308459999, 
            "state": "TX", 
            "street": "12020 Fm 1960 Rd W", 
            "latitude": 29.924508976519
          }
        }, 
        {
          "category": "Local business", 
          "name": "Pei Wei Asian Diner", 
          "id": "113909728640304", 
          "category_list": [
            {
              "id": "174201535963762", 
              "name": "Asian Fusion Restaurant"
            }, 
            {
              "id": "174483852595760", 
              "name": "Chinese Restaurant"
            }
          ], 
          "location": {
            "city": "Saint Petersburg", 
            "zip": "33710-5504", 
            "country": "United States", 
            "longitude": -82.728868590388998, 
            "state": "FL", 
            "street": "1402 66th St N", 
            "latitude": 27.785487685576999
          }
        }, 
        {
          "category": "Local business", 
          "name": "Pei Wei Asian Diner", 
          "id": "116042918423643", 
          "category_list": [
            {
              "id": "174483852595760", 
              "name": "Chinese Restaurant"
            }
          ], 
          "location": {
            "city": "Katy", 
            "zip": "77450-4558", 
            "country": "United States", 
            "longitude": -95.751961759188006, 
            "state": "TX", 
            "street": "1590 S Mason Rd", 
            "latitude": 29.758986947183999
          }
        }, 
        {
          "category": "Local business", 
          "name": "Pei Wei Asian Diner", 
          "id": "151632348232401", 
          "category_list": [
            {
              "id": "174483852595760", 
              "name": "Chinese Restaurant"
            }
          ], 
          "location": {
            "city": "Philadelphia", 
            "zip": "19131", 
            "country": "United States", 
            "longitude": -75.212752830087993, 
            "state": "PA", 
            "street": "4040 City Ave. Bldg. 2 Space 2", 
            "latitude": 40.007279001199997
          }
        }, 
        {
          "category": "Local business", 
          "name": "Pei Wei Asian Diner", 
          "id": "213219825358103", 
          "category_list": [
            {
              "id": "174483852595760", 
              "name": "Chinese Restaurant"
            }
          ], 
          "location": {
            "city": "Broken Arrow", 
            "zip": "74012", 
            "country": "United States", 
            "longitude": -95.8475617422, 
            "state": "OK", 
            "street": "4609 W Kenosha St.", 
            "latitude": 36.060479178100003
          }
        }, 
        {
          "category": "Local business", 
          "name": "Pei Wei Asian Diner", 
          "id": "156959051030223", 
          "category_list": [
            {
              "id": "174483852595760", 
              "name": "Chinese Restaurant"
            }
          ], 
          "location": {
            "city": "Austin", 
            "zip": "77450", 
            "country": "United States", 
            "longitude": -95.751801, 
            "state": "TX", 
            "street": "1590 S Mason Rd. Suite A", 
            "latitude": 29.758841
          }
        }, 
        {
          "category": "Local business", 
          "name": "Pei Wei Asian Diner", 
          "id": "111617835543392", 
          "category_list": [
            {
              "id": "192803624072087", 
              "name": "Fast Food Restaurant"
            }, 
            {
              "id": "174483852595760", 
              "name": "Chinese Restaurant"
            }
          ], 
          "location": {
            "city": "Carrollton", 
            "zip": "75010-4452", 
            "country": "United States", 
            "longitude": -96.842182208590003, 
            "state": "TX", 
            "street": "3412 E Hebron Pkwy", 
            "latitude": 33.025770834200003
          }
        }, 
        {
          "category": "Local business", 
          "name": "Pei Wei Asian Diner", 
          "id": "161715263887451", 
          "category_list": [
            {
              "id": "174483852595760", 
              "name": "Chinese Restaurant"
            }
          ], 
          "location": {
            "city": "Henderson", 
            "zip": "89052", 
            "country": "United States", 
            "longitude": -115.10579911681, 
            "state": "NV", 
            "street": "10575 S Eastern Ave. Suite 100", 
            "latitude": 35.999238707548002
          }
        }, 
        {
          "category": "Local business", 
          "name": "Pei Wei Asian Diner", 
          "id": "144608738939535", 
          "category_list": [
            {
              "id": "174483852595760", 
              "name": "Chinese Restaurant"
            }
          ], 
          "location": {
            "city": "Memphis", 
            "zip": "38104", 
            "country": "United States", 
            "longitude": -90.005733097307001, 
            "state": "TN", 
            "street": "1680 Union Ave. Suite 109", 
            "latitude": 35.136040634898997
          }
        }, 
        {
          "category": "Local business", 
          "name": "Pei Wei Asian Diner", 
          "id": "136125036459804", 
          "category_list": [
            {
              "id": "174483852595760", 
              "name": "Chinese Restaurant"
            }
          ], 
          "location": {
            "city": "Austin", 
            "zip": "75024", 
            "country": "United States", 
            "longitude": -96.805290999999997, 
            "state": "TX", 
            "street": "8412 Preston Rd. Suite 400", 
            "latitude": 33.092453999999996
          }
        }, 
        {
          "category": "Local business", 
          "name": "Pei Wei Asian Diner", 
          "id": "113502322018006", 
          "category_list": [
            {
              "id": "174483852595760", 
              "name": "Chinese Restaurant"
            }
          ], 
          "location": {
            "city": "Plano", 
            "zip": "75075-8842", 
            "country": "United States", 
            "longitude": -96.712576698036997, 
            "state": "TX", 
            "street": "601 W 15th St", 
            "latitude": 33.019412300671
          }
        }, 
        {
          "category": "Local business", 
          "name": "Pei Wei Asian Diner", 
          "id": "174338612617727", 
          "category_list": [
            {
              "id": "174483852595760", 
              "name": "Chinese Restaurant"
            }
          ], 
          "location": {
            "city": "Weston", 
            "zip": "33426", 
            "country": "United States", 
            "longitude": -80.090243999999998, 
            "state": "FL", 
            "street": "1750 N Congress Ave. 700", 
            "latitude": 26.541149999999998
          }
        }, 
        {
          "category": "Local business", 
          "name": "Pei Wei Asian Diner", 
          "id": "120952807981190", 
          "category_list": [
            {
              "id": "174483852595760", 
              "name": "Chinese Restaurant"
            }
          ], 
          "location": {
            "city": "Ladue", 
            "zip": "63124", 
            "country": "United States", 
            "longitude": -90.353202145338003, 
            "state": "MO", 
            "street": "8885 Ladue Rd. Suite 1", 
            "latitude": 38.653992413490002
          }
        }, 
        {
          "category": "Local business", 
          "name": "Pei Wei Asian Diner", 
          "id": "108162225891996", 
          "category_list": [
            {
              "id": "174483852595760", 
              "name": "Chinese Restaurant"
            }
          ], 
          "location": {
            "city": "Boynton Beach", 
            "zip": "33426-8213", 
            "country": "United States", 
            "longitude": -80.090236460458001, 
            "state": "FL", 
            "street": "1750 N Congress Ave Ste 700", 
            "latitude": 26.541564700774
          }
        }, 
        {
          "category": "Local business", 
          "name": "Pei Wei Asian Diner", 
          "id": "156712294389134", 
          "category_list": [
            {
              "id": "174483852595760", 
              "name": "Chinese Restaurant"
            }
          ], 
          "location": {
            "city": "Baltimore", 
            "zip": "21212", 
            "country": "United States", 
            "longitude": -76.610232434693003, 
            "state": "MD", 
            "street": "6302 York Rd.", 
            "latitude": 39.371307337988
          }
        }, 
        {
          "category": "Local business", 
          "name": "Pei Wei Asian Diner", 
          "id": "120240301321455", 
          "category_list": [
            {
              "id": "174483852595760", 
              "name": "Chinese Restaurant"
            }, 
            {
              "id": "174201535963762", 
              "name": "Asian Fusion Restaurant"
            }
          ], 
          "location": {
            "city": "Houston", 
            "zip": "77019", 
            "country": "United States", 
            "longitude": -95.398009572714997, 
            "state": "TX", 
            "street": "919 Waugh Dr", 
            "latitude": 29.756505564739001
          }
        }, 
        {
          "category": "Local business", 
          "name": "Pei Wei Asian Diner", 
          "id": "111613762209530", 
          "category_list": [
            {
              "id": "174483852595760", 
              "name": "Chinese Restaurant"
            }
          ], 
          "location": {
            "city": "Sterling Heights", 
            "zip": "48313-1319", 
            "country": "United States", 
            "longitude": -82.987749460366004, 
            "state": "MI", 
            "street": "13937 Lakeside Cir", 
            "latitude": 42.626039784793001
          }
        }, 
        {
          "category": "Local business", 
          "name": "Pei Wei Asian Diner", 
          "id": "100870686624787", 
          "category_list": [
            {
              "id": "174483852595760", 
              "name": "Chinese Restaurant"
            }
          ], 
          "location": {
            "city": "Lake Forest", 
            "zip": "92630-4713", 
            "country": "United States", 
            "longitude": -117.70200008494, 
            "state": "CA", 
            "street": "23632 El Toro Rd", 
            "latitude": 33.618810954162001
          }
        }, 
        {
          "category": "Local business", 
          "name": "Pei Wei Asian Diner", 
          "id": "199656576731398", 
          "category_list": [
            {
              "id": "174483852595760", 
              "name": "Chinese Restaurant"
            }
          ], 
          "location": {
            "city": "Newport Beach", 
            "zip": "92660", 
            "country": "United States", 
            "longitude": -117.86064720669999, 
            "state": "CA", 
            "street": "1302 Bison Ave.", 
            "latitude": 33.638768264665998
          }
        }, 
        {
          "category": "Local business", 
          "name": "Pei Wei Asian Diner", 
          "id": "156237767770874", 
          "category_list": [
            {
              "id": "174483852595760", 
              "name": "Chinese Restaurant"
            }
          ], 
          "location": {
            "city": "Denver", 
            "zip": "80210", 
            "country": "United States", 
            "longitude": -104.94212379725001, 
            "state": "CO", 
            "street": "3970 Buchtel Blvd. Suite 107", 
            "latitude": 39.679810973743002
          }
        }, 
        {
          "category": "Local business", 
          "name": "Pei Wei Asian Diner", 
          "id": "164260910294684", 
          "category_list": [
            {
              "id": "174483852595760", 
              "name": "Chinese Restaurant"
            }
          ], 
          "location": {
            "city": "Surprise", 
            "zip": "85374", 
            "country": "United States", 
            "longitude": -112.36533213359, 
            "state": "AZ", 
            "street": "14155 W Bell Rd. Suite 113", 
            "latitude": 33.638239002276002
          }
        }, 
        {
          "category": "Local business", 
          "name": "Pei Wei Asian Diner", 
          "id": "111556575550037", 
          "category_list": [
            {
              "id": "174483852595760", 
              "name": "Chinese Restaurant"
            }
          ], 
          "location": {
            "city": "College Station", 
            "zip": "77840-2184", 
            "country": "United States", 
            "longitude": -96.322947035675995, 
            "state": "TX", 
            "street": "980 University Dr E Ste 100", 
            "latitude": 30.635255581115999
          }
        }, 
        {
          "category": "Local business", 
          "name": "Pei Wei Asian Diner", 
          "id": "121914877819288", 
          "category_list": [
            {
              "id": "174483852595760", 
              "name": "Chinese Restaurant"
            }
          ], 
          "location": {
            "city": "Raleigh", 
            "zip": "27609-6202", 
            "country": "United States", 
            "longitude": -78.612119793863997, 
            "state": "NC", 
            "street": "4408 Falls Of Neuse Rd", 
            "latitude": 35.842414658437001
          }
        }, 
        {
          "category": "Local business", 
          "name": "Pei Wei Asian Diner", 
          "id": "114080355290802", 
          "category_list": [
            {
              "id": "174483852595760", 
              "name": "Chinese Restaurant"
            }
          ], 
          "location": {
            "city": "Houston", 
            "zip": "77079-6863", 
            "country": "United States", 
            "longitude": -95.590399044642993, 
            "state": "TX", 
            "street": "14008 Memorial Dr", 
            "latitude": 29.771859746939999
          }
        }, 
        {
          "category": "Local business", 
          "name": "Pei Wei Asian Diner", 
          "id": "178747902173542", 
          "category_list": [
            {
              "id": "174483852595760", 
              "name": "Chinese Restaurant"
            }
          ], 
          "location": {
            "city": "Golden Triangle", 
            "zip": "08057", 
            "country": "United States", 
            "longitude": -75.039721726216996, 
            "state": "NJ", 
            "street": "400 Route 38 Suite 8120", 
            "latitude": 39.922040762464
          }
        }, 
        {
          "category": "Local business", 
          "name": "Pei Wei Asian Diner", 
          "id": "111720358864929", 
          "category_list": [
            {
              "id": "174483852595760", 
              "name": "Chinese Restaurant"
            }
          ], 
          "location": {
            "city": "Phoenix", 
            "zip": "85020-5345", 
            "country": "United States", 
            "longitude": -112.06483001896, 
            "state": "AZ", 
            "street": "742 E Glendale Ave", 
            "latitude": 33.538946944572999
          }
        }, 
        {
          "category": "Local business", 
          "name": "Pei Wei Asian Diner", 
          "id": "113414475358211", 
          "category_list": [
            {
              "id": "174483852595760", 
              "name": "Chinese Restaurant"
            }
          ], 
          "location": {
            "city": "Lakewood", 
            "zip": "80401-3211", 
            "country": "United States", 
            "longitude": -105.15962471544999, 
            "state": "CO", 
            "street": "14255 W Colfax Ave", 
            "latitude": 39.734209126879001
          }
        }, 
        {
          "category": "Local business", 
          "name": "Pei Wei Asian Diner", 
          "id": "164860886902456", 
          "category_list": [
            {
              "id": "174483852595760", 
              "name": "Chinese Restaurant"
            }
          ], 
          "location": {
            "city": "San Antonio", 
            "zip": "78251", 
            "country": "United States", 
            "longitude": -98.708628006051995, 
            "state": "TX", 
            "street": "430 W Loop 1604 N Suite 101", 
            "latitude": 29.436367608443
          }
        }, 
        {
          "category": "Local business", 
          "name": "Pei Wei Asian Diner", 
          "id": "139274986141714", 
          "category_list": [
            {
              "id": "174483852595760", 
              "name": "Chinese Restaurant"
            }
          ], 
          "location": {
            "city": "Saint Louis Park", 
            "zip": "55416", 
            "country": "United States", 
            "longitude": -93.348262545175999, 
            "state": "MN", 
            "street": "5330 Cedar Lake Rd.", 
            "latitude": 44.962661343626003
          }
        }, 
        {
          "category": "Local business", 
          "name": "Pei Wei Asian Diner", 
          "id": "116011771756245", 
          "category_list": [
            {
              "id": "174483852595760", 
              "name": "Chinese Restaurant"
            }, 
            {
              "id": "218838724804749", 
              "name": "Ramen Restaurant"
            }
          ], 
          "location": {
            "city": "Moorestown", 
            "zip": "08057-3219", 
            "country": "United States", 
            "longitude": -74.960852632292003, 
            "state": "NJ", 
            "street": "400 W Route 38", 
            "latitude": 39.945970824615003
          }
        }, 
        {
          "category": "Local business", 
          "name": "Pei Wei Asian Diner", 
          "id": "108162895891948", 
          "category_list": [
            {
              "id": "174483852595760", 
              "name": "Chinese Restaurant"
            }
          ], 
          "location": {
            "city": "Novi", 
            "zip": "48375-1734", 
            "country": "United States", 
            "longitude": -83.472801956213999, 
            "state": "MI", 
            "street": "43170 Grand River Ave", 
            "latitude": 42.480747498466002
          }
        }, 
        {
          "category": "Local business", 
          "name": "Pei Wei Asian Diner", 
          "id": "156121517782756", 
          "category_list": [
            {
              "id": "174483852595760", 
              "name": "Chinese Restaurant"
            }
          ], 
          "location": {
            "city": "Royal Oak", 
            "zip": "48083", 
            "country": "United States", 
            "longitude": -83.180197997822006, 
            "state": "MI", 
            "street": "730 E Big Beaver Rd.", 
            "latitude": 42.512211902996
          }
        }, 
        {
          "category": "Local business", 
          "name": "Pei Wei Asian Diner", 
          "id": "116346441727181", 
          "category_list": [
            {
              "id": "174483852595760", 
              "name": "Chinese Restaurant"
            }, 
            {
              "id": "192803624072087", 
              "name": "Fast Food Restaurant"
            }
          ], 
          "location": {
            "city": "Bountiful", 
            "zip": "84010-7185", 
            "country": "United States", 
            "longitude": -111.89263367015, 
            "state": "UT", 
            "street": "71 N 500 W", 
            "latitude": 40.890320812101997
          }
        }, 
        {
          "category": "Local business", 
          "name": "Pei Wei Asian Diner", 
          "id": "161942613861800", 
          "category_list": [
            {
              "id": "174483852595760", 
              "name": "Chinese Restaurant"
            }
          ], 
          "location": {
            "city": "San Antonio", 
            "zip": "79423", 
            "country": "United States", 
            "longitude": -101.90094999999999, 
            "state": "TX", 
            "street": "4210 82nd St. Suite 230", 
            "latitude": 33.519869999999997
          }
        }, 
        {
          "category": "Local business", 
          "name": "Pei Wei Asian Diner", 
          "id": "120234204720268", 
          "category_list": [
            {
              "id": "174483852595760", 
              "name": "Chinese Restaurant"
            }
          ], 
          "location": {
            "city": "Dallas", 
            "zip": "75057", 
            "country": "United States", 
            "longitude": -96.970719000000003, 
            "state": "TX", 
            "street": "713 Hebron Pkwy. Suite 200", 
            "latitude": 33.009770000000003
          }
        }, 
        {
          "category": "Local business", 
          "name": "Pei Wei Asian Diner", 
          "id": "162469877111101", 
          "category_list": [
            {
              "id": "174483852595760", 
              "name": "Chinese Restaurant"
            }
          ], 
          "location": {
            "city": "Saint Paul", 
            "zip": "55125-5359", 
            "country": "United States", 
            "longitude": -92.939173454488994, 
            "state": "MN", 
            "street": "8300 Tamarack Vlg Ste 102", 
            "latitude": 44.941714864924997
          }
        }, 
        {
          "category": "Local business", 
          "name": "Pei Wei Asian Diner", 
          "id": "111781925523948", 
          "category_list": [
            {
              "id": "174483852595760", 
              "name": "Chinese Restaurant"
            }
          ], 
          "location": {
            "city": "Troy", 
            "zip": "48083-1407", 
            "country": "United States", 
            "longitude": -83.132955944765001, 
            "state": "MI", 
            "street": "730 E Big Beaver Rd", 
            "latitude": 42.562513723209001
          }
        }, 
        {
          "category": "Local business", 
          "name": "Pei Wei Asian Diner", 
          "id": "113363202032002", 
          "category_list": [
            {
              "id": "174483852595760", 
              "name": "Chinese Restaurant"
            }
          ], 
          "location": {
            "city": "Boca Raton", 
            "zip": "33433", 
            "country": "United States", 
            "longitude": -80.156401070176997, 
            "state": "FL", 
            "street": "7152-B Beracasa Way", 
            "latitude": 26.351261713661
          }
        }, 
        {
          "category": "Local business", 
          "name": "Pei Wei Asian Diner", 
          "id": "120511724627157", 
          "category_list": [
            {
              "id": "174483852595760", 
              "name": "Chinese Restaurant"
            }, 
            {
              "id": "199035016778342", 
              "name": "Japanese Restaurant"
            }
          ], 
          "location": {
            "city": "Naples", 
            "zip": "34109-2767", 
            "country": "United States", 
            "longitude": -81.772155309357998, 
            "state": "FL", 
            "street": "2355 Vanderbilt Beach Rd Ste 116", 
            "latitude": 26.244907537277999
          }
        }, 
        {
          "category": "Local business", 
          "name": "Pei Wei Asian Diner", 
          "id": "164800200241791", 
          "category_list": [
            {
              "id": "174483852595760", 
              "name": "Chinese Restaurant"
            }
          ], 
          "location": {
            "city": "Highlands Ranch", 
            "zip": "80126", 
            "country": "United States", 
            "longitude": -104.943278777, 
            "state": "CO", 
            "street": "9352 S Colorado Blvd. Suite G-1", 
            "latitude": 39.545293209599997
          }
        }, 
        {
          "category": "Local business", 
          "name": "Pei Wei Asian Diner", 
          "id": "112635085466218", 
          "category_list": [
            {
              "id": "174201535963762", 
              "name": "Asian Fusion Restaurant"
            }, 
            {
              "id": "174483852595760", 
              "name": "Chinese Restaurant"
            }
          ], 
          "location": {
            "city": "Sterling", 
            "zip": "20166-2512", 
            "country": "United States", 
            "longitude": -77.438533006442, 
            "state": "VA", 
            "street": "22000 Dulles Retail Plz", 
            "latitude": 39.005842326664002
          }
        }, 
        {
          "category": "Local business", 
          "name": "Pei Wei Asian Diner", 
          "id": "155488601156125", 
          "category_list": [
            {
              "id": "174483852595760", 
              "name": "Chinese Restaurant"
            }
          ], 
          "location": {
            "city": "San Diego", 
            "zip": "92127-3508", 
            "country": "United States", 
            "longitude": -117.11057582591, 
            "state": "CA", 
            "street": "10562 Craftsman Way", 
            "latitude": 33.019748600214001
          }
        }, 
        {
          "category": "Local business", 
          "name": "Pei Wei Asian Diner", 
          "id": "135807389824824", 
          "category_list": [
            {
              "id": "174483852595760", 
              "name": "Chinese Restaurant"
            }
          ], 
          "location": {
            "city": "Willowbrook", 
            "zip": "60527", 
            "country": "United States", 
            "longitude": -87.944287983400002, 
            "state": "IL", 
            "street": "7135 S Kingery Hwy.", 
            "latitude": 41.7601335242
          }
        }, 
        {
          "category": "Local business", 
          "name": "Pei Wei Asian Diner", 
          "id": "192522077449935", 
          "category_list": [
            {
              "id": "174483852595760", 
              "name": "Chinese Restaurant"
            }
          ], 
          "location": {
            "city": "Boca Raton", 
            "zip": "33014", 
            "country": "United States", 
            "longitude": -80.308843999999993, 
            "state": "FL", 
            "street": "15519 NW 67th Ave.", 
            "latitude": 25.914522999999999
          }
        }, 
        {
          "category": "Local business", 
          "name": "Pei Wei Asian Diner", 
          "id": "200014050030623", 
          "category_list": [
            {
              "id": "174483852595760", 
              "name": "Chinese Restaurant"
            }
          ], 
          "location": {
            "city": "Rochester Hills", 
            "zip": "48307", 
            "country": "United States", 
            "longitude": -83.150556733710005, 
            "state": "MI", 
            "street": "1206 Walton Blvd.", 
            "latitude": 42.682309207166
          }
        }, 
        {
          "category": "Local business", 
          "name": "Pei Wei Asian Diner", 
          "id": "163893803666593", 
          "category_list": [
            {
              "id": "174483852595760", 
              "name": "Chinese Restaurant"
            }
          ], 
          "location": {
            "city": "Mount Prospect", 
            "zip": "60056", 
            "country": "United States", 
            "longitude": -87.935808060300005, 
            "state": "IL", 
            "street": "1021 N. Elmhurst Rd.", 
            "latitude": 42.083691475599998
          }
        }, 
        {
          "category": "Local business", 
          "name": "Pei Wei Asian Diner", 
          "id": "194691663903362", 
          "category_list": [
            {
              "id": "174483852595760", 
              "name": "Chinese Restaurant"
            }
          ], 
          "location": {
            "city": "Denver", 
            "zip": "80920", 
            "country": "United States", 
            "longitude": -104.798007, 
            "state": "CO", 
            "street": "7148 N Academy Blvd.", 
            "latitude": 38.936329999999998
          }
        }, 
        {
          "category": "Local business", 
          "name": "Pei Wei Asian Diner", 
          "id": "126708494051780", 
          "category_list": [
            {
              "id": "174483852595760", 
              "name": "Chinese Restaurant"
            }
          ], 
          "location": {
            "city": "Scottsdale", 
            "zip": "85255-6491", 
            "country": "United States", 
            "longitude": -111.92394887763, 
            "state": "AZ", 
            "street": "20851 N Scottsdale Rd", 
            "latitude": 33.676485665050997
          }
        }, 
        {
          "category": "Local business", 
          "name": "Pei Wei Asian Diner", 
          "id": "215480048466348", 
          "category_list": [
            {
              "id": "174483852595760", 
              "name": "Chinese Restaurant"
            }
          ], 
          "location": {
            "city": "Eden Prairie", 
            "zip": "55125", 
            "country": "United States", 
            "longitude": -92.93759, 
            "state": "MN", 
            "street": "8300 Tamarack Village Suite 102", 
            "latitude": 44.942304
          }
        }, 
        {
          "category": "Local business", 
          "name": "Pei Wei Asian Diner", 
          "id": "121524357860933", 
          "category_list": [
            {
              "id": "174483852595760", 
              "name": "Chinese Restaurant"
            }
          ], 
          "location": {
            "city": "Scottsdale", 
            "zip": "85266-1520", 
            "country": "United States", 
            "longitude": -111.92407535005, 
            "state": "AZ", 
            "street": "32607 N Scottsdale Rd", 
            "latitude": 33.781067726261
          }
        }, 
        {
          "category": "Local business", 
          "name": "Pei Wei Asian Diner", 
          "id": "108127049228433", 
          "category_list": [
            {
              "id": "174483852595760", 
              "name": "Chinese Restaurant"
            }
          ], 
          "location": {
            "city": "Encinitas", 
            "zip": "92024-2397", 
            "country": "United States", 
            "longitude": -117.26512881983, 
            "state": "CA", 
            "street": "1560 Leucadia Blvd Ste A", 
            "latitude": 33.06840561389
          }
        }, 
        {
          "category": "Local business", 
          "name": "Pei Wei Asian Diner", 
          "id": "158298160876458", 
          "category_list": [
            {
              "id": "174483852595760", 
              "name": "Chinese Restaurant"
            }
          ], 
          "location": {
            "city": "Warren", 
            "zip": "48092-4640", 
            "country": "United States", 
            "longitude": -83.048721376748006, 
            "state": "MI", 
            "street": "5753 E 12 Mile Rd", 
            "latitude": 42.506665317296999
          }
        }, 
        {
          "category": "Local business", 
          "name": "Pei Wei Asian Diner", 
          "id": "111524942244073", 
          "category_list": [
            {
              "id": "174483852595760", 
              "name": "Chinese Restaurant"
            }
          ], 
          "location": {
            "city": "Austin", 
            "zip": "78738", 
            "country": "United States", 
            "longitude": -97.943002306913002, 
            "state": "TX", 
            "street": "12913 Galleria Cir", 
            "latitude": 30.308608307410999
          }
        }, 
        {
          "category": "Local business", 
          "name": "Pei Wei Asian Diner", 
          "id": "193519544020601", 
          "category_list": [
            {
              "id": "174483852595760", 
              "name": "Chinese Restaurant"
            }
          ], 
          "location": {
            "city": "Columbus", 
            "zip": "43240", 
            "country": "United States", 
            "longitude": -82.962934851900002, 
            "state": "OH", 
            "street": "2050 Polaris Pkwy.", 
            "latitude": 40.1452834575
          }
        }, 
        {
          "category": "Local business", 
          "name": "Pei Wei Asian Diner", 
          "id": "199116890119703", 
          "category_list": [
            {
              "id": "174483852595760", 
              "name": "Chinese Restaurant"
            }
          ], 
          "location": {
            "city": "Gainesville", 
            "zip": "20155", 
            "country": "United States", 
            "longitude": -77.607629108352995, 
            "state": "VA", 
            "street": "5035 Wellington Rd.", 
            "latitude": 38.791807712104998
          }
        }, 
        {
          "category": "Local business", 
          "name": "Pei Wei Asian Diner", 
          "id": "169356313080930", 
          "category_list": [
            {
              "id": "174483852595760", 
              "name": "Chinese Restaurant"
            }
          ], 
          "location": {
            "city": "Leesburg", 
            "zip": "20175", 
            "country": "United States", 
            "longitude": -77.55154412601, 
            "state": "VA", 
            "street": "528 E Market St", 
            "latitude": 39.109595529525997
          }
        }, 
        {
          "category": "Local business", 
          "name": "Pei Wei Asian Diner", 
          "id": "182978055081354", 
          "category_list": [
            {
              "id": "174483852595760", 
              "name": "Chinese Restaurant"
            }
          ], 
          "location": {
            "city": "Austin", 
            "zip": "78704", 
            "country": "United States", 
            "longitude": -97.795046168300004, 
            "state": "TX", 
            "street": "4200 S Lamar Blvd.", 
            "latitude": 30.235800067
          }
        }, 
        {
          "category": "Local business", 
          "name": "Pei Wei Asian Diner", 
          "id": "120283511382175", 
          "category_list": [
            {
              "id": "174483852595760", 
              "name": "Chinese Restaurant"
            }
          ], 
          "location": {
            "city": "Dallas", 
            "zip": "75252", 
            "country": "United States", 
            "longitude": -96.794494173399997, 
            "state": "TX", 
            "street": "18204 Preston Rd Suite E-1", 
            "latitude": 32.998657991100004
          }
        }, 
        {
          "category": "Local business", 
          "name": "Pei Wei Asian Diner", 
          "id": "121090481301135", 
          "category_list": [
            {
              "id": "174483852595760", 
              "name": "Chinese Restaurant"
            }
          ], 
          "location": {
            "city": "Columbus", 
            "zip": "43017", 
            "country": "United States", 
            "longitude": -83.090755302299996, 
            "state": "OH", 
            "street": "7571 Sawmill Rd.", 
            "latitude": 40.120304124199997
          }
        }, 
        {
          "category": "Local business", 
          "name": "Pei Wei Asian Diner", 
          "id": "118942961603387", 
          "category_list": [
            {
              "id": "174483852595760", 
              "name": "Chinese Restaurant"
            }
          ], 
          "location": {
            "city": "Fort Lauderdale", 
            "zip": "33316", 
            "country": "United States", 
            "longitude": -80.126286010399994, 
            "state": "FL", 
            "street": "1515 SE 17th St.", 
            "latitude": 26.100943772800001
          }
        }, 
        {
          "category": "Local business", 
          "name": "Pei Wei Asian Diner", 
          "id": "404663609629194", 
          "category_list": [
            {
              "id": "199146280116687", 
              "name": "Taiwanese Restaurant"
            }, 
            {
              "id": "174483852595760", 
              "name": "Chinese Restaurant"
            }
          ], 
          "location": {
            "city": "Miami", 
            "zip": "33145", 
            "country": "United States", 
            "longitude": -80.254534273100006, 
            "state": "FL", 
            "street": "Miracle Mile", 
            "latitude": 25.749152393999999
          }
        }, 
        {
          "category": "Local business", 
          "name": "Pei Wei Asian Diner", 
          "id": "182979018414591", 
          "category_list": [
            {
              "id": "174483852595760", 
              "name": "Chinese Restaurant"
            }
          ], 
          "location": {
            "city": "Herndon", 
            "zip": "20176", 
            "country": "United States", 
            "longitude": -77.553081000000006, 
            "state": "VA", 
            "street": "528A E Market St.", 
            "latitude": 39.109510999999998
          }
        }, 
        {
          "category": "Local business", 
          "name": "Pei Wei Asian Diner", 
          "id": "210478038964347", 
          "category_list": [
            {
              "id": "174483852595760", 
              "name": "Chinese Restaurant"
            }
          ], 
          "location": {
            "city": "Fountain Hills", 
            "zip": "85268", 
            "country": "United States", 
            "longitude": -111.76124654173999, 
            "state": "AZ", 
            "street": "14835 E Shea Blvd. Suite 100", 
            "latitude": 33.579030617813999
          }
        }, 
        {
          "category": "Local business", 
          "name": "Pei Wei Asian Diner", 
          "id": "368201023303093", 
          "category_list": [
            {
              "id": "185855984789970", 
              "name": "Asian Restaurant"
            }
          ], 
          "location": {
            "city": "Frisco", 
            "zip": "75034", 
            "country": "United States", 
            "longitude": -96.842033789400006, 
            "state": "TX", 
            "street": "5110 W Main St. #100", 
            "latitude": 33.153760376500003
          }
        }, 
        {
          "category": "Local business", 
          "name": "Pei Wei Asian Diner", 
          "id": "111636535538958", 
          "category_list": [
            {
              "id": "174483852595760", 
              "name": "Chinese Restaurant"
            }
          ], 
          "location": {
            "city": "Chino Hills", 
            "zip": "91709-5854", 
            "country": "United States", 
            "longitude": -117.7053079416, 
            "state": "CA", 
            "street": "4517 Chino Hills Pkwy", 
            "latitude": 33.982278176667997
          }
        }, 
        {
          "category": "Local business", 
          "name": "Pei Wei Asian Diner", 
          "id": "164125926948263", 
          "category_list": [
            {
              "id": "174483852595760", 
              "name": "Chinese Restaurant"
            }
          ], 
          "location": {
            "city": "Irvine", 
            "zip": "92618-4057", 
            "country": "United States", 
            "longitude": -117.7853451408, 
            "state": "CA", 
            "street": "5781 Alton Pkwy", 
            "latitude": 33.668616364927999
          }
        }, 
        {
          "category": "Local business", 
          "name": "Pei Wei Asian Diner", 
          "id": "104934296216649", 
          "category_list": [
            {
              "id": "174483852595760", 
              "name": "Chinese Restaurant"
            }
          ], 
          "location": {
            "city": "Farmington", 
            "zip": "48334-1345", 
            "country": "United States", 
            "longitude": -83.360805029377005, 
            "state": "MI", 
            "street": "31367 Orchard Lake Rd", 
            "latitude": 42.527790683958997
          }
        }, 
        {
          "category": "Local business", 
          "name": "Pei Wei Asian Diner", 
          "id": "127969600683175", 
          "category_list": [
            {
              "id": "185855984789970", 
              "name": "Asian Restaurant"
            }
          ], 
          "location": {
            "city": "Kuwait", 
            "zip": "", 
            "country": "Kuwait", 
            "longitude": 47.935861407318001, 
            "state": "", 
            "street": "", 
            "latitude": 29.302229064167001
          }
        }, 
        {
          "category": "Local business", 
          "name": "Pei Wei Asian Diner", 
          "id": "194182080620097", 
          "category_list": [
            {
              "id": "174483852595760", 
              "name": "Chinese Restaurant"
            }
          ], 
          "location": {
            "city": "Austin", 
            "zip": "77065", 
            "country": "United States", 
            "longitude": -95.599655999999996, 
            "state": "TX", 
            "street": "12020 FM 1960 W", 
            "latitude": 29.924738000000001
          }
        }, 
        {
          "category": "Local business", 
          "name": "Pei Wei Asian Diner", 
          "id": "198308190202774", 
          "category_list": [
            {
              "id": "174483852595760", 
              "name": "Chinese Restaurant"
            }
          ], 
          "location": {
            "city": "Santa Clarita", 
            "zip": "91355", 
            "country": "United States", 
            "longitude": -118.55810336499999, 
            "state": "CA", 
            "street": "24250 Valencia Blvd.", 
            "latitude": 34.412869350599998
          }
        }, 
        {
          "category": "Local business", 
          "name": "Pei Wei Asian Diner", 
          "id": "111528508887206", 
          "category_list": [
            {
              "id": "174483852595760", 
              "name": "Chinese Restaurant"
            }
          ], 
          "location": {
            "city": "San Antonio", 
            "zip": "78201", 
            "country": "United States", 
            "longitude": -98.525857999999999, 
            "state": "TX", 
            "street": "430 West Ave", 
            "latitude": 29.466608000000001
          }
        }, 
        {
          "category": "Local business", 
          "name": "Pei Wei Asian Diner", 
          "id": "188766814501805", 
          "category_list": [
            {
              "id": "174483852595760", 
              "name": "Chinese Restaurant"
            }
          ], 
          "location": {
            "city": "Avalon", 
            "zip": "76092", 
            "country": "United States", 
            "longitude": -97.126638999999997, 
            "state": "CA", 
            "street": "1582 E Southlake Blvd.", 
            "latitude": 32.941116999999998
          }
        }, 
        {
          "category": "Local business", 
          "name": "Pei-Wei Asian Diner", 
          "id": "128685610620824", 
          "category_list": [
            {
              "id": "185855984789970", 
              "name": "Asian Restaurant"
            }
          ], 
          "location": {
            "city": "Brea", 
            "zip": "92821", 
            "country": "United States", 
            "longitude": -117.885125817, 
            "state": "CA", 
            "street": "", 
            "latitude": 33.918366358900002
          }
        }, 
        {
          "category": "Local business", 
          "name": "Pei Wei Asian Diner", 
          "id": "143439029056613", 
          "category_list": [
            {
              "id": "174483852595760", 
              "name": "Chinese Restaurant"
            }
          ], 
          "location": {
            "city": "Pasadena", 
            "zip": "77505", 
            "country": "United States", 
            "longitude": -95.150660999999999, 
            "state": "TX", 
            "street": "5932 Fairmont Pkwy. Suite 150", 
            "latitude": 29.649477999999998
          }
        }, 
        {
          "category": "Local business", 
          "name": "Pei Wei Asian Diner", 
          "id": "116077808417297", 
          "category_list": [
            {
              "id": "174483852595760", 
              "name": "Chinese Restaurant"
            }
          ], 
          "location": {
            "city": "Saint Paul", 
            "zip": "55109-1328", 
            "country": "United States", 
            "longitude": -93.019256999999996, 
            "state": "MN", 
            "street": "3095 White Bear Ave N", 
            "latitude": 45.035300999999997
          }
        }, 
        {
          "category": "Local business", 
          "name": "Pei Wei Asian Diner", 
          "id": "100874869957576", 
          "category_list": [
            {
              "id": "174483852595760", 
              "name": "Chinese Restaurant"
            }
          ], 
          "location": {
            "city": "Sacramento", 
            "zip": "95834-2903", 
            "country": "United States", 
            "longitude": -121.50206, 
            "state": "CA", 
            "street": "3521 N Freeway Blvd", 
            "latitude": 38.641494999999999
          }
        }, 
        {
          "category": "Local business", 
          "name": "Pei Wei Asian Diner", 
          "id": "116010781761317", 
          "category_list": [
            {
              "id": "174483852595760", 
              "name": "Chinese Restaurant"
            }
          ], 
          "location": {
            "city": "Rancho Cucamonga", 
            "zip": "91730-6954", 
            "country": "United States", 
            "longitude": -117.576263, 
            "state": "CA", 
            "street": "8220 Haven Ave", 
            "latitude": 34.104945999999998
          }
        }, 
        {
          "category": "Local business", 
          "name": "Pei Wei Asian Diner", 
          "id": "116563751701139", 
          "category_list": [
            {
              "id": "174483852595760", 
              "name": "Chinese Restaurant"
            }
          ], 
          "location": {
            "city": "Tampa", 
            "zip": "33603-1728", 
            "country": "United States", 
            "longitude": -82.473618000000002, 
            "state": "FL", 
            "street": "930 W Cimmeron Dr", 
            "latitude": 27.988968
          }
        }, 
        {
          "category": "Local business", 
          "name": "Pei Wei Asian Diner", 
          "id": "121021691241324", 
          "category_list": [
            {
              "id": "174483852595760", 
              "name": "Chinese Restaurant"
            }
          ], 
          "location": {
            "city": "Tulsa", 
            "zip": "74106-1314", 
            "country": "United States", 
            "longitude": -95.981209000000007, 
            "state": "OK", 
            "street": "4512 N Kenosha Ave", 
            "latitude": 36.218966999999999
          }
        }, 
        {
          "category": "Local business", 
          "name": "Pei Wei Asian Diner", 
          "id": "150609051649515", 
          "category_list": [
            {
              "id": "174483852595760", 
              "name": "Chinese Restaurant"
            }
          ], 
          "location": {
            "city": "Cranston", 
            "zip": "02920-3062", 
            "country": "United States", 
            "longitude": -71.461426000000003, 
            "state": "RI", 
            "street": "4 Chapel View Blvd", 
            "latitude": 41.75638
          }
        }, 
        {
          "category": "Local business", 
          "name": "Pei Wei Asian Diner", 
          "id": "152726558099734", 
          "category_list": [
            {
              "id": "174483852595760", 
              "name": "Chinese Restaurant"
            }
          ], 
          "location": {
            "city": "Broomfield", 
            "zip": "80020-3708", 
            "country": "United States", 
            "longitude": -105.056966, 
            "state": "CO", 
            "street": "1255 E 1st Ave", 
            "latitude": 39.915427000000001
          }
        }, 
        {
          "category": "Local business", 
          "name": "Pei Wei Asian Diner", 
          "id": "156325601073510", 
          "category_list": [
            {
              "id": "174483852595760", 
              "name": "Chinese Restaurant"
            }
          ], 
          "location": {
            "city": "Folsom", 
            "zip": "95630-8747", 
            "country": "United States", 
            "longitude": -121.124962, 
            "state": "CA", 
            "street": "2371 Iron Point Rd", 
            "latitude": 38.645187
          }
        }, 
        {
          "category": "Local business", 
          "name": "Pei Wei Asian Diner", 
          "id": "241248782560536", 
          "category_list": [
            {
              "id": "2500", 
              "name": "Local Business"
            }
          ], 
          "location": {
            "city": "Scottsdale", 
            "zip": "", 
            "country": "United States", 
            "longitude": -111.91867391, 
            "state": "AZ", 
            "street": "", 
            "latitude": 33.70505283
          }
        }, 
        {
          "category": "Local business", 
          "name": "Pei Wei Asian Diner - The Avenues Mall", 
          "id": "175164042622053", 
          "category_list": [
            {
              "id": "2500", 
              "name": "Local Business"
            }
          ], 
          "location": {
            "city": "Kuwait", 
            "zip": "", 
            "country": "Kuwait", 
            "longitude": 47.936211722499998, 
            "state": "", 
            "street": "", 
            "latitude": 29.3026077556
          }
        }, 
        {
          "category": "Local business", 
          "name": "Pei Wei Asian Diner Culver City", 
          "id": "168398616651422", 
          "category_list": [
            {
              "id": "174201535963762", 
              "name": "Asian Fusion Restaurant"
            }, 
            {
              "id": "185855984789970", 
              "name": "Asian Restaurant"
            }
          ], 
          "location": {
            "city": "Culver City", 
            "zip": "90230", 
            "country": "United States", 
            "longitude": -118.412498, 
            "state": "CA", 
            "street": "4114 Sepulveda Blvd", 
            "latitude": 34.006889000000001
          }
        }, 
        {
          "category": "Local business", 
          "name": "Pei Wei Asian Diner At Mccarran International Airport T3", 
          "id": "285857628181815", 
          "category_list": [
            {
              "id": "127892053948220", 
              "name": "Cafeteria"
            }
          ], 
          "location": {
            "city": "Las Vegas", 
            "zip": "89119", 
            "country": "United States", 
            "longitude": -115.147233727, 
            "state": "NV", 
            "street": "", 
            "latitude": 36.081034031999998, 
            "located_in": 549945818388610
          }
        }
      ]
    }
  }, 
  {
    "business_name": "K & M Air Conditioning", 
    "business_id": "UxUsizrKyt1jQ5t9I01F2A", 
    "fb_pages": {
      "paging": {
        "next": "https://graph.facebook.com/search?type=place&access_token=229546593895315|yPLlHqq6YvDLIH4nL0kjJtIFSlU&limit=5000&offset=5000&__after_id=283057568464486"
      }, 
      "data": [
        {
          "category": "Retail and consumer merchandise", 
          "name": "Kohl's", 
          "id": "17648521247", 
          "category_list": [
            {
              "id": "344508555610070", 
              "name": "Department Store"
            }
          ], 
          "location": {
            "city": "Menomonee Falls", 
            "zip": "", 
            "country": "United States", 
            "longitude": -88.122841861948999, 
            "state": "WI", 
            "street": "", 
            "latitude": 43.121738455447002
          }
        }, 
        {
          "category": "Retail and consumer merchandise", 
          "name": "Keurig", 
          "id": "198333355974", 
          "category_list": [
            {
              "id": "2239", 
              "name": "Retail and Consumer Merchandise"
            }
          ], 
          "location": {
            "city": "Reading", 
            "zip": "01867", 
            "country": "United States", 
            "longitude": -71.094350689256004, 
            "state": "MA", 
            "street": "55 Walkers Brook Drive", 
            "latitude": 42.518342946429001
          }
        }, 
        {
          "category": "Local business", 
          "name": "Kota Batam", 
          "id": "223446101032508", 
          "category_list": [
            {
              "id": "272705352802676", 
              "name": "Outdoors"
            }, 
            {
              "id": "224455390913969", 
              "name": "City"
            }
          ], 
          "location": {
            "city": "Batam", 
            "zip": "29422", 
            "country": "Indonesia", 
            "longitude": 106.85242544899999, 
            "state": "", 
            "street": "Nagoya", 
            "latitude": -6.1979909959299997
          }
        }, 
        {
          "category": "Local business", 
          "name": "Kota Batam", 
          "id": "130180450441952", 
          "category_list": [
            {
              "id": "224455390913969", 
              "name": "City"
            }, 
            {
              "id": "188662441155211", 
              "name": "Community & Government"
            }
          ], 
          "location": {
            "city": "Batam", 
            "zip": "29432", 
            "country": "Indonesia", 
            "longitude": 104.05547659598, 
            "state": "", 
            "street": "", 
            "latitude": 1.0278835554829
          }
        }, 
        {
          "category": "Food/beverages", 
          "name": "KFC - Kentucky Fried Chicken", 
          "id": "7144906559", 
          "category_list": [
            {
              "id": "197767133603296", 
              "name": "Chicken Wings"
            }
          ], 
          "location": {
            "city": "Louisville", 
            "zip": "40213", 
            "country": "United States", 
            "longitude": -85.696050443531007, 
            "state": "KY", 
            "street": "1900 Colonel Sanders Lane", 
            "latitude": 38.197897412453997
          }
        }, 
        {
          "category": "Local business", 
          "name": "Kingdom Of Kidding \u317f", 
          "id": "173809422818802", 
          "category_list": [
            {
              "id": "369730359717478", 
              "name": "Other"
            }
          ], 
          "location": {
            "city": "Paris", 
            "zip": "191919", 
            "country": "France", 
            "longitude": 15.544598428500001, 
            "state": "", 
            "street": "france", 
            "latitude": 41.462313034600001
          }
        }, 
        {
          "category": "Local business", 
          "name": "Kick Ass Vines", 
          "id": "348942858582846", 
          "category_list": [
            {
              "id": "197289820310880", 
              "name": "Home"
            }
          ], 
          "location": {
            "city": "Brooklyn", 
            "zip": "35062", 
            "country": "United States", 
            "longitude": 19.7829626539, 
            "state": "NY", 
            "street": "86th street", 
            "latitude": 41.3330803514
          }
        }, 
        {
          "category": "Food/beverages", 
          "name": "KFC Arabia", 
          "id": "48754878397", 
          "category_list": [
            {
              "id": "165679780146824", 
              "name": "Food & Restaurant"
            }
          ], 
          "location": {
            "latitude": 31.706081573060999, 
            "street": "", 
            "zip": "", 
            "longitude": 35.205776175174002
          }
        }, 
        {
          "category": "Health/beauty", 
          "name": "K\u00e9rastase", 
          "id": "168688096635730", 
          "category_list": [
            {
              "id": "199236533423806", 
              "name": "Beauty Salon"
            }
          ], 
          "location": {
            "city": "Paris", 
            "zip": "75008", 
            "country": "France", 
            "longitude": 2.3236207668, 
            "state": "", 
            "street": "14 rue Royale", 
            "latitude": 48.868174589699997
          }
        }, 
        {
          "category": "Media/news/publishing", 
          "name": "\u062e\u0648\u0627\u0637\u0631 \u30c4", 
          "id": "229388373904481", 
          "category_list": [
            {
              "id": "191684877517919", 
              "name": "Publisher"
            }
          ], 
          "location": {
            "city": "Madrid", 
            "zip": "", 
            "country": "Spain", 
            "longitude": -3.6942304827200001, 
            "state": "", 
            "street": "", 
            "latitude": 40.4050084657
          }
        }, 
        {
          "category": "Arts/entertainment/nightlife", 
          "name": "The Lion King - Musical", 
          "id": "124557107669231", 
          "category_list": [
            {
              "id": "173883042668223", 
              "name": "Theatre"
            }
          ], 
          "location": {
            "city": "Sydney", 
            "zip": "NSW", 
            "country": "Australia", 
            "longitude": 151.20615283414, 
            "state": "NSW", 
            "street": "Capitol Theatre, 13 Campbell St, Haymarket NSW 2000", 
            "latitude": -33.879468934895002
          }
        }, 
        {
          "category": "Local business", 
          "name": "Hong Kong International Airport \u9999\u6e2f\u570b\u969b\u6a5f\u5834", 
          "id": "196777420339769", 
          "category_list": [
            {
              "id": "176831012360626", 
              "name": "Professional Services"
            }, 
            {
              "id": "128966563840349", 
              "name": "Airport"
            }, 
            {
              "id": "115725465228008", 
              "name": "Region"
            }
          ], 
          "location": {
            "city": "Kaohsiung", 
            "zip": "00000", 
            "country": "Taiwan", 
            "longitude": 113.93373183506, 
            "state": "", 
            "street": "\u65b0\u754c\u5927\u5dbc\u5c71\u8d64\u9c72\u89d2\u9999\u6e2f\u570b\u969b\u6a5f\u5834\u7fd4\u5929\u8def1\u865f", 
            "latitude": 22.314709991987002
          }
        }, 
        {
          "category": "Pet services", 
          "name": "\u3161 Pets La Betak \u3161", 
          "id": "625809814127462", 
          "category_list": [
            {
              "id": "163003840417682", 
              "name": "Pet Groomer"
            }
          ], 
          "location": {
            "city": "Jordan", 
            "zip": "0000", 
            "country": "Serbia", 
            "longitude": -74.029273912400001, 
            "street": "", 
            "latitude": 40.612055417199997
          }
        }, 
        {
          "category": "Local business", 
          "name": "Man Utd Fans", 
          "id": "309308512465903", 
          "category_list": [
            {
              "id": "115090141929327", 
              "name": "Park"
            }
          ], 
          "location": {
            "city": "Paris", 
            "zip": "75000", 
            "country": "France", 
            "longitude": -76.9190325, 
            "state": "", 
            "street": "paris", 
            "latitude": -12.023935099999999
          }
        }, 
        {
          "category": "Non-profit organization", 
          "name": "K\u00eanh Th\u00f4ng Tin-Gi\u1ea3i Tr\u00ed", 
          "id": "293937104052953", 
          "category_list": [
            {
              "id": "152880021441864", 
              "name": "Community Organization"
            }
          ], 
          "location": {
            "city": "Hanoi", 
            "zip": "1300", 
            "country": "Vietnam", 
            "longitude": 105.817616937, 
            "state": "", 
            "street": "Hanoi", 
            "latitude": 21.029301083
          }
        }, 
        {
          "category": "Retail and consumer merchandise", 
          "name": "Academy Sports + Outdoors", 
          "id": "368446079376", 
          "category_list": [
            {
              "id": "186982054657561", 
              "name": "Sports & Recreation"
            }, 
            {
              "id": "165823830131654", 
              "name": "Sporting Goods Store"
            }
          ], 
          "location": {
            "city": "Katy", 
            "zip": "77449", 
            "country": "United States", 
            "longitude": -95.751483772277993, 
            "state": "TX", 
            "street": "1800 N. Mason Road", 
            "latitude": 29.798550672425002
          }
        }, 
        {
          "category": "Tv network", 
          "name": "Sky Sports", 
          "id": "10911153761", 
          "category_list": [
            {
              "id": "1402", 
              "name": "TV Network"
            }
          ], 
          "location": {
            "latitude": 53.796556232713002, 
            "street": "", 
            "zip": "", 
            "longitude": -1.5542838051886001
          }
        }, 
        {
          "category": "Media/news/publishing", 
          "name": "BBC ARABIC NETWORK", 
          "id": "9432520138", 
          "category_list": [
            {
              "id": "169056916473899", 
              "name": "Broadcasting & Media Production"
            }, 
            {
              "id": "191684877517919", 
              "name": "Publisher"
            }, 
            {
              "id": "108366235907857", 
              "name": "Newspaper"
            }
          ], 
          "location": {
            "city": "London", 
            "zip": "W1A 1AA", 
            "country": "United Kingdom", 
            "longitude": -0.14317911444, 
            "state": "", 
            "street": "BBC Arabic, Peel Wing, Broadcasting House, Portland Place", 
            "latitude": 51.518586333000002
          }
        }, 
        {
          "category": "Small business", 
          "name": "HUMOR PA KUFI", 
          "id": "765941826764901", 
          "category_list": [
            {
              "id": "2237", 
              "name": "Small Business"
            }
          ], 
          "location": {
            "city": "Genova", 
            "zip": "16121", 
            "country": "Italy", 
            "longitude": 8.9277563430499995, 
            "state": "", 
            "street": "", 
            "latitude": 44.4049569592
          }
        }, 
        {
          "category": "Bar", 
          "name": "Im Just Kidding", 
          "id": "598900823501280", 
          "category_list": [
            {
              "id": "218693881483234", 
              "name": "Pub"
            }
          ], 
          "location": {
            "city": "Tangier", 
            "zip": "191919", 
            "country": "Morocco", 
            "longitude": -5.8985013438863003, 
            "state": "", 
            "street": "", 
            "latitude": 35.579888173091, 
            "located_in": 181500098571656
          }
        }, 
        {
          "category": "Public places", 
          "name": "\u0939\u094b\u090a \u0926\u0947 \u0916\u0930\u094d\u091a", 
          "id": "484091095038836", 
          "category_list": [
            {
              "id": "2522", 
              "name": "Public Places"
            }
          ], 
          "location": {
            "city": "Pune", 
            "zip": "411001", 
            "country": "India", 
            "longitude": 73.856667000000002, 
            "state": "", 
            "street": "", 
            "latitude": 18.520278000000001
          }
        }, 
        {
          "category": "Movie theater", 
          "name": "Shut Up, And Kiss Me.", 
          "id": "262451817235319", 
          "category_list": [
            {
              "id": "192511100766680", 
              "name": "Movie Theatre"
            }
          ], 
          "location": {
            "city": "Amman", 
            "zip": "00", 
            "country": "Jordan", 
            "longitude": 19.841376869868, 
            "state": "", 
            "street": "", 
            "latitude": 41.301870473690997, 
            "located_in": 111983955558733
          }
        }, 
        {
          "category": "Engineering/construction", 
          "name": "Al Karmel General Maintenance Contracting ", 
          "id": "674691095898272", 
          "category_list": [
            {
              "id": "188569091163640", 
              "name": "Construction Service & Supply"
            }
          ], 
          "location": {
            "city": "`Ajman", 
            "zip": "12864", 
            "country": "United Arab Emirates", 
            "longitude": 55.132108431600003, 
            "state": "", 
            "street": "", 
            "latitude": 25.075487045900001
          }
        }, 
        {
          "category": "Club", 
          "name": "\u06a9\u0644\u0648\u067e \u062f\u062e\u062a\u0631 \u067e\u0633\u0631\u0647\u0627\u06cc \u0634\u06cc\u06a9 \u0628\u0627\u0644\u0627\u06cc 25 \u0633\u0627\u0644", 
          "id": "281426505315968", 
          "category_list": [
            {
              "id": "129417183848258", 
              "name": "Just For Fun"
            }, 
            {
              "id": "189018581118681", 
              "name": "Sports Club"
            }, 
            {
              "id": "133436743388217", 
              "name": "Arts & Entertainment"
            }
          ], 
          "location": {
            "city": "Tehran", 
            "zip": "", 
            "country": "Iran", 
            "longitude": 51.415746143600003, 
            "state": "", 
            "street": "", 
            "latitude": 35.639015897900002, 
            "located_in": 691164490908852
          }
        }, 
        {
          "category": "Local business", 
          "name": "Iker Casillas Lovers", 
          "id": "542963282463419", 
          "category_list": [
            {
              "id": "133436743388217", 
              "name": "Arts & Entertainment"
            }
          ], 
          "location": {
            "city": "London", 
            "zip": "London", 
            "country": "United Kingdom", 
            "longitude": -0.16128834242772999, 
            "state": "", 
            "street": "0000", 
            "latitude": 51.546705888535001
          }
        }, 
        {
          "category": "Company", 
          "name": "Eu te amo & mais nada \u5408", 
          "id": "573312356051874", 
          "category_list": [
            {
              "id": "124994474239211", 
              "name": "Amusement"
            }
          ], 
          "location": {
            "city": "Hong Kong", 
            "zip": "000000", 
            "country": "Hong Kong", 
            "longitude": -74.579615939999996, 
            "street": "", 
            "latitude": -8.4082776700000004, 
            "located_in": 431571086939612
          }
        }, 
        {
          "category": "Sports venue", 
          "name": "Old Trafford - Manchester United", 
          "id": "108738212520189", 
          "category_list": [
            {
              "id": "109976259083543", 
              "name": "Sports Venue & Stadium"
            }
          ], 
          "location": {
            "city": "Manchester", 
            "zip": "M16 0RA", 
            "country": "United Kingdom", 
            "longitude": -2.2912395519862998, 
            "state": "", 
            "street": "Sir Matt Busby Way", 
            "latitude": 53.462875389791002
          }
        }, 
        {
          "category": "Bar", 
          "name": "Holakoora.kiven", 
          "id": "215097131996132", 
          "category_list": [
            {
              "id": "218693881483234", 
              "name": "Pub"
            }
          ], 
          "location": {
            "city": "Paris", 
            "zip": "191919", 
            "country": "France", 
            "longitude": 2.3508, 
            "state": "", 
            "street": "", 
            "latitude": 48.856699999999996
          }
        }, 
        {
          "category": "Company", 
          "name": "Solo s\u00e9, Que Me-Gustas \u221e", 
          "id": "360986127381417", 
          "category_list": [
            {
              "id": "124994474239211", 
              "name": "Amusement"
            }
          ], 
          "location": {
            "city": "Ansan", 
            "zip": "", 
            "country": "South Korea", 
            "longitude": 103.842216902, 
            "state": "", 
            "street": "", 
            "latitude": 22.333907581399998
          }
        }, 
        {
          "category": "Company", 
          "name": "\u697d\u5929\u5e02\u5834\uff08Rakuten, Inc.\uff09", 
          "id": "113926781984735", 
          "category_list": [
            {
              "id": "2200", 
              "name": "Company"
            }
          ], 
          "location": {
            "city": "Shinagawa-ku", 
            "zip": "142-0002", 
            "country": "Japan", 
            "longitude": 139.747715567, 
            "state": "Tokyo", 
            "street": "\u6771\u54c1\u5ddd4-12-3 \u54c1\u5ddd\u30b7\u30fc\u30b5\u30a4\u30c9\u697d\u5929\u30bf\u30ef\u30fc ", 
            "latitude": 35.609644162999999
          }
        }, 
        {
          "category": "Education", 
          "name": "\u0643\u0648\u0646\u0649 \u0644\u0647 \u0623\u0646\u062b\u0649 \u064a\u0643\u0646 \u0644\u0643 \u0631\u062c\u0644\u0627", 
          "id": "537570826328527", 
          "category_list": [
            {
              "id": "151676848220295", 
              "name": "Education"
            }
          ], 
          "location": {
            "city": "Mansourah", 
            "zip": "35511", 
            "country": "Egypt", 
            "longitude": -73.946943841899994, 
            "state": "", 
            "street": "elgalaa ", 
            "latitude": 40.695747463099998
          }
        }, 
        {
          "category": "Education", 
          "name": "\u0642\u0634\u0646\u06af\u062a\u0631\u06cc\u0646 \u062c\u0645\u0644\u0647 \u0628\u0647 \u06a9\u0633\u06cc \u06a9\u0647 \u062f\u0648\u0633\u062a\u0634 \u062f\u0627\u0631\u06cc\u0646", 
          "id": "132194913506409", 
          "category_list": [
            {
              "id": "133436743388217", 
              "name": "Arts & Entertainment"
            }
          ], 
          "location": {
            "city": "London", 
            "zip": "", 
            "country": "United Kingdom", 
            "longitude": -0.24005531183100001, 
            "state": "", 
            "street": "", 
            "latitude": 51.598743158200001
          }
        }, 
        {
          "category": "Bar", 
          "name": "Feelings of Love usually hurt", 
          "id": "283057568464486", 
          "category_list": [
            {
              "id": "152880021441864", 
              "name": "Community Organization"
            }
          ], 
          "location": {
            "city": "Karachi", 
            "zip": "", 
            "country": "Pakistan", 
            "longitude": -0.17961109211699999, 
            "state": "", 
            "street": "", 
            "latitude": 51.519882928000001
          }
        }
      ]
    }
  }, 
  {
    "business_name": "Islands Fine Burgers & Drinks", 
    "business_id": "q8P4EZkDgzHQodbQSbxSiw", 
    "fb_pages": {
      "paging": {
        "next": "https://graph.facebook.com/search?type=place&access_token=229546593895315|yPLlHqq6YvDLIH4nL0kjJtIFSlU&limit=5000&offset=5000&__after_id=254776344581246"
      }, 
      "data": [
        {
          "category": "Local business", 
          "name": "Islands Fine Burgers & Drinks", 
          "id": "180819818605741", 
          "category_list": [
            {
              "id": "192803624072087", 
              "name": "Fast Food Restaurant"
            }
          ], 
          "location": {
            "city": "Long Beach", 
            "zip": "90802", 
            "country": "United States", 
            "longitude": -118.19260352833, 
            "state": "CA", 
            "street": "", 
            "latitude": 33.765584617035003
          }
        }, 
        {
          "category": "Local business", 
          "name": "Islands - Fine Burgers and Drinks", 
          "id": "300604533290789", 
          "category_list": [
            {
              "id": "187425207958280", 
              "name": "Burger Restaurant"
            }
          ], 
          "location": {
            "city": "Las Vegas", 
            "zip": "", 
            "country": "United States", 
            "longitude": -115.3313736353, 
            "state": "NV", 
            "street": "", 
            "latitude": 36.160110001093997
          }
        }, 
        {
          "category": "Local business", 
          "name": "Islands Fine Burgers & Drinks", 
          "id": "182360575110355", 
          "category_list": [
            {
              "id": "192803624072087", 
              "name": "Fast Food Restaurant"
            }, 
            {
              "id": "187425207958280", 
              "name": "Burger Restaurant"
            }
          ], 
          "location": {
            "city": "Chula Vista", 
            "zip": "91915", 
            "country": "United States", 
            "longitude": -116.96739057564, 
            "state": "CA", 
            "street": "2255 Otay Lakes Road", 
            "latitude": 32.647931841548001
          }
        }, 
        {
          "category": "Local business", 
          "name": "Islands Fine Burgers & Drinks", 
          "id": "158661937483995", 
          "category_list": [
            {
              "id": "110290705711626", 
              "name": "Bar"
            }, 
            {
              "id": "192803624072087", 
              "name": "Fast Food Restaurant"
            }
          ], 
          "location": {
            "city": "Palm Desert", 
            "zip": "92260", 
            "country": "United States", 
            "longitude": -116.40237003622001, 
            "state": "CA", 
            "street": "", 
            "latitude": 33.727070860822998
          }
        }, 
        {
          "category": "Local business", 
          "name": "Islands Fine Burgers & Drinks", 
          "id": "417582484940101", 
          "category_list": [
            {
              "id": "192803624072087", 
              "name": "Fast Food Restaurant"
            }
          ], 
          "location": {
            "city": "Manhattan Beach", 
            "zip": "90266", 
            "country": "United States", 
            "longitude": -118.39388592351, 
            "state": "CA", 
            "street": "3200 N Sepulveda Blvd", 
            "latitude": 33.899565836718999
          }
        }, 
        {
          "category": "Local business", 
          "name": "Islands Fine Burgers & Drinks", 
          "id": "171193332922120", 
          "category_list": [
            {
              "id": "192803624072087", 
              "name": "Fast Food Restaurant"
            }, 
            {
              "id": "187425207958280", 
              "name": "Burger Restaurant"
            }
          ], 
          "location": {
            "city": "Mission Viejo", 
            "zip": "92691", 
            "country": "United States", 
            "longitude": -117.67123309086, 
            "state": "CA", 
            "street": "27741 Crown Valley Pkwy, Suite P15", 
            "latitude": 33.560666370493998
          }
        }, 
        {
          "category": "Local business", 
          "name": "Islands Fine Burgers And Drinks", 
          "id": "164577540227512", 
          "category_list": [
            {
              "id": "192803624072087", 
              "name": "Fast Food Restaurant"
            }, 
            {
              "id": "187425207958280", 
              "name": "Burger Restaurant"
            }
          ], 
          "location": {
            "city": "Irvine", 
            "zip": "92604", 
            "country": "United States", 
            "longitude": -117.80838317655, 
            "state": "CA", 
            "street": "4020 Barranca Pkwy", 
            "latitude": 33.683132892094001
          }
        }, 
        {
          "category": "Local business", 
          "name": "Islands Fine Burgers And Drinks", 
          "id": "125630437492581", 
          "category_list": [
            {
              "id": "187425207958280", 
              "name": "Burger Restaurant"
            }, 
            {
              "id": "175962259115742", 
              "name": "Food & Beverage Service & Distribution"
            }
          ], 
          "location": {
            "city": "Simi Valley", 
            "zip": "93065", 
            "country": "United States", 
            "longitude": -118.77660972017, 
            "state": "CA", 
            "street": "1213 Simi Town Center Way", 
            "latitude": 34.284230753140001
          }
        }, 
        {
          "category": "Local business", 
          "name": "Islands Fine Burgers and Drinks", 
          "id": "177350362279699", 
          "category_list": [
            {
              "id": "187425207958280", 
              "name": "Burger Restaurant"
            }, 
            {
              "id": "192803624072087", 
              "name": "Fast Food Restaurant"
            }
          ], 
          "location": {
            "city": "Glendale", 
            "zip": "91210", 
            "country": "United States", 
            "longitude": -118.256521191, 
            "state": "CA", 
            "street": "", 
            "latitude": 34.146478501300003
          }
        }, 
        {
          "category": "Local business", 
          "name": "Islands Fine Burgers & Drinks", 
          "id": "137746579610341", 
          "category_list": [
            {
              "id": "110290705711626", 
              "name": "Bar"
            }, 
            {
              "id": "187425207958280", 
              "name": "Burger Restaurant"
            }
          ], 
          "location": {
            "city": "Carlsbad", 
            "zip": "92024", 
            "country": "United States", 
            "longitude": -117.26428265037001, 
            "state": "CA", 
            "street": "1588 Leucadia Blvd ", 
            "latitude": 33.069452938582003
          }
        }, 
        {
          "category": "Local business", 
          "name": "Islands Fine Burgers & Drinks", 
          "id": "252720584740226", 
          "category_list": [
            {
              "id": "192803624072087", 
              "name": "Fast Food Restaurant"
            }, 
            {
              "id": "149803325077018", 
              "name": "American Restaurant"
            }
          ], 
          "location": {
            "city": "Agoura Hills", 
            "zip": "91301", 
            "country": "United States", 
            "longitude": -118.762163398, 
            "state": "CA", 
            "street": "29271 Agoura Road", 
            "latitude": 34.143876848799998
          }
        }, 
        {
          "category": "Local business", 
          "name": "Islands Fine Burgers & Drinks", 
          "id": "116860595065466", 
          "category_list": [
            {
              "id": "192803624072087", 
              "name": "Fast Food Restaurant"
            }
          ], 
          "location": {
            "city": "Fountain Valley", 
            "zip": "92708", 
            "country": "United States", 
            "longitude": -117.95467672604001, 
            "state": "CA", 
            "street": "", 
            "latitude": 33.692934091041998
          }
        }, 
        {
          "category": "Local business", 
          "name": "Islands Fine Burgers & Drinks", 
          "id": "158760954179143", 
          "category_list": [
            {
              "id": "192803624072087", 
              "name": "Fast Food Restaurant"
            }
          ], 
          "location": {
            "city": "Calabasas", 
            "zip": "91364", 
            "country": "United States", 
            "longitude": -118.634441951, 
            "state": "CA", 
            "street": "", 
            "latitude": 34.159839088600002
          }
        }, 
        {
          "category": "Local business", 
          "name": "islands Fine Burgers And Drinks", 
          "id": "135471699866742", 
          "category_list": [
            {
              "id": "187425207958280", 
              "name": "Burger Restaurant"
            }, 
            {
              "id": "192803624072087", 
              "name": "Fast Food Restaurant"
            }
          ], 
          "location": {
            "city": "Temecula", 
            "zip": "92591", 
            "country": "United States", 
            "longitude": -117.149519497, 
            "state": "CA", 
            "street": "", 
            "latitude": 33.527241875800001
          }
        }, 
        {
          "category": "Local business", 
          "name": "Islands Fine Burgers & Drinks", 
          "id": "173217249398504", 
          "category_list": [
            {
              "id": "192803624072087", 
              "name": "Fast Food Restaurant"
            }
          ], 
          "location": {
            "city": "San Diego", 
            "zip": "92111", 
            "country": "United States", 
            "longitude": -117.15992332, 
            "state": "CA", 
            "street": "", 
            "latitude": 32.821128307099997
          }
        }, 
        {
          "category": "Local business", 
          "name": "Islands Fine Burgers and Drinks", 
          "id": "128381577214455", 
          "category_list": [
            {
              "id": "187425207958280", 
              "name": "Burger Restaurant"
            }, 
            {
              "id": "192803624072087", 
              "name": "Fast Food Restaurant"
            }
          ], 
          "location": {
            "city": "Newbury Park", 
            "zip": "91320", 
            "country": "United States", 
            "longitude": -118.937897241, 
            "state": "CA", 
            "street": "", 
            "latitude": 34.1912989916
          }
        }, 
        {
          "category": "Local business", 
          "name": "Islands Fine Burgers & Drinks", 
          "id": "207655795917001", 
          "category_list": [
            {
              "id": "192803624072087", 
              "name": "Fast Food Restaurant"
            }
          ], 
          "location": {
            "city": "Burbank", 
            "zip": "", 
            "country": "United States", 
            "longitude": -118.31099675900001, 
            "state": "CA", 
            "street": "", 
            "latitude": 34.180766069100002
          }
        }, 
        {
          "category": "Local business", 
          "name": "Islands Fine Burgers & Drinks", 
          "id": "125357024198093", 
          "category_list": [
            {
              "id": "192803624072087", 
              "name": "Fast Food Restaurant"
            }, 
            {
              "id": "187425207958280", 
              "name": "Burger Restaurant"
            }, 
            {
              "id": "149803325077018", 
              "name": "American Restaurant"
            }
          ], 
          "location": {
            "city": "Riverside", 
            "zip": "92506", 
            "country": "United States", 
            "longitude": -117.39240623400001, 
            "state": "CA", 
            "street": "", 
            "latitude": 33.953816596099998
          }
        }, 
        {
          "category": "Local business", 
          "name": "Islands Fine Burgers & Drinks", 
          "id": "228110607242726", 
          "category_list": [
            {
              "id": "273819889375819", 
              "name": "Restaurant"
            }
          ], 
          "location": {
            "city": "Los Angeles", 
            "zip": "91326", 
            "country": "United States", 
            "longitude": -118.569872909, 
            "state": "CA", 
            "street": "", 
            "latitude": 34.276054102700002
          }
        }, 
        {
          "category": "Local business", 
          "name": "Islands Fine Burgers & Drinks", 
          "id": "321359667903179", 
          "category_list": [
            {
              "id": "192803624072087", 
              "name": "Fast Food Restaurant"
            }
          ], 
          "location": {
            "city": "San Diego", 
            "zip": "92126", 
            "country": "United States", 
            "longitude": -117.118741473, 
            "state": "CA", 
            "street": "", 
            "latitude": 32.914921051100002
          }
        }, 
        {
          "category": "Local business", 
          "name": "Islands Fine Burgers & Drinks", 
          "id": "157677757624946", 
          "category_list": [
            {
              "id": "192803624072087", 
              "name": "Fast Food Restaurant"
            }, 
            {
              "id": "187425207958280", 
              "name": "Burger Restaurant"
            }
          ], 
          "location": {
            "city": "Monterey", 
            "zip": "93940", 
            "country": "United States", 
            "longitude": -121.898496401, 
            "state": "CA", 
            "street": "", 
            "latitude": 36.583677058299997
          }
        }, 
        {
          "category": "Local business", 
          "name": "islands Fine Burgers and Drinks", 
          "id": "301155663304308", 
          "category_list": [
            {
              "id": "187425207958280", 
              "name": "Burger Restaurant"
            }
          ], 
          "location": {
            "city": "Seal Beach", 
            "zip": "", 
            "country": "United States", 
            "longitude": -118.071517572, 
            "state": "CA", 
            "street": "", 
            "latitude": 33.783124098599998
          }
        }, 
        {
          "category": "Local business", 
          "name": "Islands Fine Burgers & Drinks.", 
          "id": "170082543046914", 
          "category_list": [
            {
              "id": "192803624072087", 
              "name": "Fast Food Restaurant"
            }
          ], 
          "location": {
            "city": "Seaside", 
            "zip": "", 
            "country": "United States", 
            "longitude": -121.85987689700001, 
            "state": "CA", 
            "street": "", 
            "latitude": 36.597080902000002
          }
        }, 
        {
          "category": "Local business", 
          "name": "Islands Fine Burgers And Drinks", 
          "id": "286427894787419", 
          "category_list": [
            {
              "id": "187425207958280", 
              "name": "Burger Restaurant"
            }
          ], 
          "location": {
            "city": "Honolulu", 
            "zip": "96814", 
            "country": "United States", 
            "longitude": -157.842686047, 
            "state": "HI", 
            "street": "", 
            "latitude": 21.290624706199999, 
            "located_in": 107825069245558
          }
        }, 
        {
          "category": "Local business", 
          "name": "Islands Fine Burgers and Drinks", 
          "id": "145497522160030", 
          "category_list": [
            {
              "id": "192803624072087", 
              "name": "Fast Food Restaurant"
            }
          ], 
          "location": {
            "city": "Anaheim", 
            "zip": "", 
            "country": "United States", 
            "longitude": -117.97636779, 
            "state": "CA", 
            "street": "", 
            "latitude": 33.857955429999997
          }
        }, 
        {
          "category": "Local business", 
          "name": "Island's Fine Burgers", 
          "id": "118277311522412", 
          "category_list": [
            {
              "id": "192803624072087", 
              "name": "Fast Food Restaurant"
            }
          ], 
          "location": {
            "city": "Phoenix", 
            "zip": "85029-5202", 
            "country": "United States", 
            "longitude": -112.12054500000001, 
            "state": "AZ", 
            "street": "2770 W Peoria Ave", 
            "latitude": 33.582146999999999
          }
        }, 
        {
          "category": "Local business", 
          "name": "Island Fine Burgers And Drinks", 
          "id": "217310128328606", 
          "category_list": [
            {
              "id": "273819889375819", 
              "name": "Restaurant"
            }
          ], 
          "location": {
            "city": "Los Angeles", 
            "zip": "90292", 
            "country": "United States", 
            "longitude": -118.46311747, 
            "state": "CA", 
            "street": "", 
            "latitude": 33.981127643599997
          }
        }, 
        {
          "category": "Local business", 
          "name": "Island Fine Burgers and Drinks", 
          "id": "254776344581246", 
          "category_list": [
            {
              "id": "187425207958280", 
              "name": "Burger Restaurant"
            }
          ], 
          "location": {
            "city": "Rancho Cucamonga", 
            "zip": "91730", 
            "country": "United States", 
            "longitude": -117.55634659899999, 
            "state": "CA", 
            "street": "", 
            "latitude": 34.105972190899998
          }
        }
      ]
    }
  }, 
  {
    "business_name": "Stonecrest Animal Hospital", 
    "business_id": "sPIx5jibK1PdQHNX0yWYHg", 
    "fb_pages": {
      "paging": {
        "next": "https://graph.facebook.com/search?type=place&access_token=229546593895315|yPLlHqq6YvDLIH4nL0kjJtIFSlU&limit=5000&offset=5000&__after_id=137790192947004"
      }, 
      "data": [
        {
          "category": "Pet services", 
          "name": "Stonecrest Animal Hospital", 
          "id": "115231205202809", 
          "category_list": [
            {
              "id": "162068413843305", 
              "name": "Veterinarian"
            }
          ], 
          "location": {
            "city": "Phoenix", 
            "zip": "85032", 
            "country": "United States", 
            "longitude": -111.981117, 
            "state": "AZ", 
            "street": "4626 E Thunderbird Road", 
            "latitude": 33.612048999999999
          }
        }, 
        {
          "category": "Local business", 
          "name": "Stonecrest Animal Hospital", 
          "id": "137790192947004", 
          "category_list": [
            {
              "id": "162068413843305", 
              "name": "Veterinarian"
            }
          ], 
          "location": {
            "city": "Huntington", 
            "zip": "25701", 
            "country": "United States", 
            "longitude": -82.451385000000002, 
            "state": "WV", 
            "street": "1 Stonecrest Drive", 
            "latitude": 38.396065
          }
        }
      ]
    }
  }, 
  {
    "business_name": "Paisley Violin", 
    "business_id": "IceZ4BtTz76eppjNWm-c6A", 
    "fb_pages": {
      "data": []
    }
  }, 
  {
    "business_name": "Grotown Horticulture Supply", 
    "business_id": "D5xdl1REXFeix3y1u-nXLw", 
    "fb_pages": {
      "data": []
    }
  }
]