[
  {
    "business_name": "Devils Den Sports Grill", 
    "business_id": "5Isf5xz3rNZk0y79UE6uIw", 
    "fb_pages": {
      "data": []
    }
  }, 
  {
    "business_name": "Advanced Auto Service & Tire Centers", 
    "business_id": "95eyb4Sk3OxB1SNZRstycQ", 
    "fb_pages": {
      "paging": {
        "next": "https://graph.facebook.com/search?type=place&access_token=229546593895315|yPLlHqq6YvDLIH4nL0kjJtIFSlU&limit=5000&offset=5000&__after_id=189567484586792"
      }, 
      "data": [
        {
          "category": "Automotive", 
          "name": "Advanced Auto Service", 
          "id": "342749192512227", 
          "category_list": [
            {
              "id": "180410821995109", 
              "name": "Automotive"
            }
          ], 
          "location": {
            "city": "Weston-super-Mare", 
            "zip": "BS22 7AE", 
            "country": "United Kingdom", 
            "longitude": -2.8954570593383, 
            "state": "", 
            "street": "Unit 6, Noels Sidings, Station Road, St Georges,", 
            "latitude": 51.363348238413003
          }
        }, 
        {
          "category": "Automotive", 
          "name": "Advanced Auto Service", 
          "id": "185706664794605", 
          "category_list": [
            {
              "id": "2509", 
              "name": "Automotive"
            }
          ], 
          "location": {
            "city": "Grand Rapids", 
            "zip": "49504", 
            "country": "United States", 
            "longitude": -85.680840000000003, 
            "state": "MI", 
            "street": "300 Winter Ave NW", 
            "latitude": 42.968876000000002
          }
        }, 
        {
          "category": "Automotive", 
          "name": "Advanced Auto Service", 
          "id": "204324752929070", 
          "category_list": [
            {
              "id": "180410821995109", 
              "name": "Automotive"
            }
          ], 
          "location": {
            "city": "New Brighton", 
            "zip": "55112", 
            "country": "United States", 
            "longitude": -93.197006000000002, 
            "state": "MN", 
            "street": "383 Old Hwy 8 NW", 
            "latitude": 45.055183
          }
        }, 
        {
          "category": "Automotive", 
          "name": "Advanced Auto Service & Tire Centers", 
          "id": "154783824558642", 
          "category_list": [
            {
              "id": "124581960948637", 
              "name": "Tire Dealer"
            }, 
            {
              "id": "149998721725634", 
              "name": "Automotive Repair"
            }
          ], 
          "location": {
            "city": "Phoenix", 
            "zip": "85022-6652", 
            "country": "United States", 
            "longitude": -112.063416, 
            "state": "AZ", 
            "street": "810 E Greenway Pkwy", 
            "latitude": 33.638137999999998
          }
        }, 
        {
          "category": "Local business", 
          "name": "Advanced Auto Service", 
          "id": "121667051223561", 
          "category_list": [
            {
              "id": "149998721725634", 
              "name": "Automotive Repair"
            }
          ], 
          "location": {
            "city": "Stafford", 
            "zip": "22554-1541", 
            "country": "United States", 
            "longitude": -77.433220000000006, 
            "state": "VA", 
            "street": "26 Dorothy Ln", 
            "latitude": 38.472740000000002
          }
        }, 
        {
          "category": "Automotive", 
          "name": "advanced auto service", 
          "id": "200137813363005", 
          "category_list": [
            {
              "id": "2509", 
              "name": "Automotive"
            }
          ], 
          "location": {
            "city": "Burlington", 
            "zip": "L7N3m8", 
            "country": "Canada", 
            "longitude": -79.789199999999994, 
            "state": "ON", 
            "street": "3366 harvester  road", 
            "latitude": 43.359059999999999
          }
        }, 
        {
          "category": "Local business", 
          "name": "Advanced Auto Service", 
          "id": "142340822478184", 
          "category_list": [
            {
              "id": "149998721725634", 
              "name": "Automotive Repair"
            }
          ], 
          "location": {
            "city": "Shrub Oak", 
            "zip": "10588-1529", 
            "country": "United States", 
            "longitude": -73.820625000000007, 
            "state": "NY", 
            "street": "3668 Barger St", 
            "latitude": 41.330463000000002
          }
        }, 
        {
          "category": "Local business", 
          "name": "Advanced Auto Service", 
          "id": "148231755221134", 
          "category_list": [
            {
              "id": "188462984509706", 
              "name": "Auto Body Shop"
            }, 
            {
              "id": "149998721725634", 
              "name": "Automotive Repair"
            }
          ], 
          "location": {
            "city": "Chicago", 
            "zip": "60625-3921", 
            "country": "United States", 
            "longitude": -87.708599000000007, 
            "state": "IL", 
            "street": "5401 N Kedzie Ave", 
            "latitude": 41.979556000000002
          }
        }, 
        {
          "category": "Local business", 
          "name": "Advanced Auto Service", 
          "id": "154752887893169", 
          "category_list": [
            {
              "id": "149998721725634", 
              "name": "Automotive Repair"
            }
          ], 
          "location": {
            "city": "Tulare", 
            "zip": "93274-3562", 
            "country": "United States", 
            "longitude": -119.362976, 
            "state": "CA", 
            "street": "1105 W Inyo Ave", 
            "latitude": 36.203442000000003
          }
        }, 
        {
          "category": "Local business", 
          "name": "Advanced Auto Service", 
          "id": "157222824318193", 
          "category_list": [
            {
              "id": "149998721725634", 
              "name": "Automotive Repair"
            }, 
            {
              "id": "182575511780536", 
              "name": "Car Parts & Accessories"
            }
          ], 
          "location": {
            "city": "Conroe", 
            "zip": "77304-7419", 
            "country": "United States", 
            "longitude": -95.568771999999996, 
            "state": "TX", 
            "street": "13784 Highway 105 W", 
            "latitude": 30.348962
          }
        }, 
        {
          "category": "Local business", 
          "name": "Advanced Auto Service", 
          "id": "159228394110742", 
          "category_list": [
            {
              "id": "149998721725634", 
              "name": "Automotive Repair"
            }
          ], 
          "location": {
            "city": "Sellersburg", 
            "zip": "47172-1531", 
            "country": "United States", 
            "longitude": -85.75591, 
            "state": "IN", 
            "street": "105 S Indiana Ave", 
            "latitude": 38.398445000000002
          }
        }, 
        {
          "category": "Local business", 
          "name": "Advanced Auto Service", 
          "id": "159657507388601", 
          "category_list": [
            {
              "id": "196357563722974", 
              "name": "Oil Lube & Filter Service"
            }, 
            {
              "id": "182575511780536", 
              "name": "Car Parts & Accessories"
            }, 
            {
              "id": "149998721725634", 
              "name": "Automotive Repair"
            }
          ], 
          "location": {
            "city": "Montgomery", 
            "zip": "77356-5655", 
            "country": "United States", 
            "longitude": -95.655264000000003, 
            "state": "TX", 
            "street": "19201 Highway 105 W", 
            "latitude": 30.382446999999999
          }
        }, 
        {
          "category": "Local business", 
          "name": "Advanced Auto Service", 
          "id": "159709377384738", 
          "category_list": [
            {
              "id": "149998721725634", 
              "name": "Automotive Repair"
            }, 
            {
              "id": "196357563722974", 
              "name": "Oil Lube & Filter Service"
            }, 
            {
              "id": "182575511780536", 
              "name": "Car Parts & Accessories"
            }
          ], 
          "location": {
            "city": "Hankinson", 
            "zip": "58041-4114", 
            "country": "United States", 
            "longitude": -96.901443, 
            "state": "ND", 
            "street": "107 1st St SE", 
            "latitude": 46.072364999999998
          }
        }, 
        {
          "category": "Local business", 
          "name": "Advanced Auto Service", 
          "id": "159795757377041", 
          "category_list": [
            {
              "id": "149998721725634", 
              "name": "Automotive Repair"
            }
          ], 
          "location": {
            "city": "Iowa City", 
            "zip": "52240-4520", 
            "country": "United States", 
            "longitude": -91.528149999999997, 
            "state": "IA", 
            "street": "1216 Highland Ct", 
            "latitude": 41.647111000000002
          }
        }, 
        {
          "category": "Local business", 
          "name": "Advanced Auto Service", 
          "id": "162112317141003", 
          "category_list": [
            {
              "id": "149998721725634", 
              "name": "Automotive Repair"
            }
          ], 
          "location": {
            "city": "Denver", 
            "zip": "80205-3847", 
            "country": "United States", 
            "longitude": -104.94326, 
            "state": "CO", 
            "street": "3755 E 40th Ave", 
            "latitude": 39.773167000000001
          }
        }, 
        {
          "category": "Local business", 
          "name": "Advanced Auto Service", 
          "id": "163384353679730", 
          "category_list": [
            {
              "id": "149998721725634", 
              "name": "Automotive Repair"
            }
          ], 
          "location": {
            "city": "East Longmeadow", 
            "zip": "01028-2733", 
            "country": "United States", 
            "longitude": -72.516846000000001, 
            "state": "MA", 
            "street": "174 Shaker Rd", 
            "latitude": 42.056286
          }
        }, 
        {
          "category": "Local business", 
          "name": "Advanced Auto Service", 
          "id": "168399763176862", 
          "category_list": [
            {
              "id": "145685118824723", 
              "name": "Emissions Inspection"
            }, 
            {
              "id": "149998721725634", 
              "name": "Automotive Repair"
            }
          ], 
          "location": {
            "city": "St. Louis", 
            "zip": "63116-2208", 
            "country": "United States", 
            "longitude": -90.277968999999999, 
            "state": "MO", 
            "street": "6123 Gravois Ave", 
            "latitude": 38.575710000000001
          }
        }, 
        {
          "category": "Local business", 
          "name": "Advanced Auto Service", 
          "id": "169438919738663", 
          "category_list": [
            {
              "id": "149998721725634", 
              "name": "Automotive Repair"
            }
          ], 
          "location": {
            "city": "Concord", 
            "zip": "94520-3703", 
            "country": "United States", 
            "longitude": -122.03907, 
            "state": "CA", 
            "street": "1115 Landini Ln", 
            "latitude": 37.957805999999998
          }
        }, 
        {
          "category": "Local business", 
          "name": "Advanced Auto Service", 
          "id": "169879549693435", 
          "category_list": [
            {
              "id": "196357563722974", 
              "name": "Oil Lube & Filter Service"
            }, 
            {
              "id": "182575511780536", 
              "name": "Car Parts & Accessories"
            }, 
            {
              "id": "149998721725634", 
              "name": "Automotive Repair"
            }
          ], 
          "location": {
            "city": "Evansdale", 
            "zip": "50707-1973", 
            "country": "United States", 
            "longitude": -92.296260000000004, 
            "state": "IA", 
            "street": "113 W Gilbert Dr", 
            "latitude": 42.463147999999997
          }
        }, 
        {
          "category": "Local business", 
          "name": "Advanced Auto Service & Tire Centers", 
          "id": "135435319839179", 
          "category_list": [
            {
              "id": "149998721725634", 
              "name": "Automotive Repair"
            }, 
            {
              "id": "182575511780536", 
              "name": "Car Parts & Accessories"
            }
          ], 
          "location": {
            "city": "Mesa", 
            "zip": "85205-3306", 
            "country": "United States", 
            "longitude": -111.720482, 
            "state": "AZ", 
            "street": "1946 N Higley Rd", 
            "latitude": 33.450713999999998
          }
        }, 
        {
          "category": "Local business", 
          "name": "Advanced Auto Service & Tire Centers", 
          "id": "105310292869355", 
          "category_list": [
            {
              "id": "149998721725634", 
              "name": "Automotive Repair"
            }, 
            {
              "id": "124581960948637", 
              "name": "Tire Dealer"
            }
          ], 
          "location": {
            "city": "Glendale", 
            "zip": "85304-3604", 
            "country": "United States", 
            "longitude": -112.202975, 
            "state": "AZ", 
            "street": "10894 N 67th Ave", 
            "latitude": 33.584384999999997
          }
        }, 
        {
          "category": "Local business", 
          "name": "Advanced Auto Service & Tire Center", 
          "id": "168113049865784", 
          "category_list": [
            {
              "id": "124581960948637", 
              "name": "Tire Dealer"
            }, 
            {
              "id": "149998721725634", 
              "name": "Automotive Repair"
            }
          ], 
          "location": {
            "city": "Surprise", 
            "zip": "85374-2441", 
            "country": "United States", 
            "longitude": -112.367486, 
            "state": "AZ", 
            "street": "14087 W Grand Ave", 
            "latitude": 33.651744999999998
          }
        }, 
        {
          "category": "Local business", 
          "name": "Advanced Auto Service & Tire Center", 
          "id": "134240753293219", 
          "category_list": [
            {
              "id": "149998721725634", 
              "name": "Automotive Repair"
            }, 
            {
              "id": "124581960948637", 
              "name": "Tire Dealer"
            }
          ], 
          "location": {
            "city": "Scottsdale", 
            "zip": "85259-4070", 
            "country": "United States", 
            "longitude": -111.833298, 
            "state": "AZ", 
            "street": "11478 E Sahuaro Dr", 
            "latitude": 33.584564
          }
        }, 
        {
          "category": "Automotive", 
          "name": "Advanced Auto Services", 
          "id": "216350920396", 
          "category_list": [
            {
              "id": "2509", 
              "name": "Automotive"
            }
          ], 
          "location": {
            "city": "Norwich", 
            "zip": "NR2 4LL", 
            "country": "United Kingdom", 
            "longitude": 1.2797700518599999, 
            "state": "", 
            "street": "Unit 2, Raynham Street", 
            "latitude": 52.639496413300002
          }
        }, 
        {
          "category": "Local business", 
          "name": "Advanced Auto Services & Tire Serviceu", 
          "id": "133149113424397", 
          "category_list": [
            {
              "id": "149998721725634", 
              "name": "Automotive Repair"
            }, 
            {
              "id": "124581960948637", 
              "name": "Tire Dealer"
            }
          ], 
          "location": {
            "city": "Mesa", 
            "zip": "", 
            "country": "United States", 
            "longitude": -111.805748561, 
            "state": "AZ", 
            "street": "", 
            "latitude": 33.378674470100002
          }
        }, 
        {
          "category": "Automotive", 
          "name": "Advanced Auto  Service of Germantown", 
          "id": "578824098853975", 
          "category_list": [
            {
              "id": "149998721725634", 
              "name": "Automotive Repair"
            }
          ], 
          "location": {
            "city": "Germantown", 
            "zip": "20874", 
            "country": "United States", 
            "longitude": -77.277585999999999, 
            "state": "MD", 
            "street": "13210 Wisteria Drive", 
            "latitude": 39.182008000000003
          }
        }, 
        {
          "category": "Local business", 
          "name": "Advanced Auto Service and Tire Centers", 
          "id": "103299359736991", 
          "category_list": [
            {
              "id": "124581960948637", 
              "name": "Tire Dealer"
            }, 
            {
              "id": "149998721725634", 
              "name": "Automotive Repair"
            }
          ], 
          "location": {
            "city": "Flagstaff", 
            "zip": "86004-2310", 
            "country": "United States", 
            "longitude": -111.59348300000001, 
            "state": "AZ", 
            "street": "3735 N Kasper Ave", 
            "latitude": 35.218207999999997
          }
        }, 
        {
          "category": "Local business", 
          "name": "Advanced Auto Service & Tire Center", 
          "id": "117093558350528", 
          "category_list": [
            {
              "id": "124581960948637", 
              "name": "Tire Dealer"
            }, 
            {
              "id": "149998721725634", 
              "name": "Automotive Repair"
            }
          ], 
          "location": {
            "city": "Scottsdale", 
            "zip": "85257-3508", 
            "country": "United States", 
            "longitude": -111.919464, 
            "state": "AZ", 
            "street": "7505 E Mcdowell Rd", 
            "latitude": 33.465404999999997
          }
        }, 
        {
          "category": "Local business", 
          "name": "Advanced Auto Service Center", 
          "id": "162075520521257", 
          "category_list": [
            {
              "id": "149998721725634", 
              "name": "Automotive Repair"
            }, 
            {
              "id": "124581960948637", 
              "name": "Tire Dealer"
            }
          ], 
          "location": {
            "city": "Scottsdale", 
            "zip": "85251", 
            "country": "United States", 
            "longitude": -111.933523904, 
            "state": "AZ", 
            "street": "", 
            "latitude": 33.480594472900002
          }
        }, 
        {
          "category": "Local business", 
          "name": "Advanced Auto Service & Tire Center", 
          "id": "105162649551580", 
          "category_list": [
            {
              "id": "124581960948637", 
              "name": "Tire Dealer"
            }, 
            {
              "id": "149998721725634", 
              "name": "Automotive Repair"
            }
          ], 
          "location": {
            "city": "Mesa", 
            "zip": "85213-9458", 
            "country": "United States", 
            "longitude": -111.766548, 
            "state": "AZ", 
            "street": "3007 E Main St", 
            "latitude": 33.415053999999998
          }
        }, 
        {
          "category": "Local business", 
          "name": "Advanced Auto Service & Sales LLC", 
          "id": "120806297978325", 
          "category_list": [
            {
              "id": "131962450204676", 
              "name": "Car Dealership"
            }, 
            {
              "id": "149998721725634", 
              "name": "Automotive Repair"
            }
          ], 
          "location": {
            "city": "Grand Prairie", 
            "zip": "75050-5919", 
            "country": "United States", 
            "longitude": -96.991981999999993, 
            "state": "TX", 
            "street": "1005 E Main St", 
            "latitude": 32.746127999999999
          }
        }, 
        {
          "category": "Local business", 
          "name": "Advanced Auto Service Center", 
          "id": "126483357407354", 
          "category_list": [
            {
              "id": "139492049448901", 
              "name": "Automotive Parts & Accessories"
            }, 
            {
              "id": "149998721725634", 
              "name": "Automotive Repair"
            }
          ], 
          "location": {
            "city": "El Paso", 
            "zip": "79936-5908", 
            "country": "United States", 
            "longitude": -106.316025, 
            "state": "TX", 
            "street": "11329 Pellicano Dr", 
            "latitude": 31.747617999999999
          }
        }, 
        {
          "category": "Local business", 
          "name": "Advanced Auto Service Center", 
          "id": "133405786712187", 
          "category_list": [
            {
              "id": "149998721725634", 
              "name": "Automotive Repair"
            }
          ], 
          "location": {
            "city": "Waltham", 
            "zip": "02453-4364", 
            "country": "United States", 
            "longitude": -71.242523000000006, 
            "state": "MA", 
            "street": "157 Crescent St", 
            "latitude": 42.368693999999998
          }
        }, 
        {
          "category": "Local business", 
          "name": "Advanced Auto Service by Walko Automotive", 
          "id": "147094595335419", 
          "category_list": [
            {
              "id": "149998721725634", 
              "name": "Automotive Repair"
            }
          ], 
          "location": {
            "city": "Hillsborough", 
            "zip": "08844-8000", 
            "country": "United States", 
            "longitude": -74.604356999999993, 
            "state": "NJ", 
            "street": "2122 W Camplain Rd", 
            "latitude": 40.536898999999998
          }
        }, 
        {
          "category": "Local business", 
          "name": "Advanced Auto Service Center", 
          "id": "158504974184501", 
          "category_list": [
            {
              "id": "149998721725634", 
              "name": "Automotive Repair"
            }
          ], 
          "location": {
            "city": "Ramona", 
            "zip": "92065-2163", 
            "country": "United States", 
            "longitude": -116.869535, 
            "state": "CA", 
            "street": "136 10th St Ste J", 
            "latitude": 33.043506000000001
          }
        }, 
        {
          "category": "Local business", 
          "name": "Advanced Auto Service & Repair", 
          "id": "158649060824854", 
          "category_list": [
            {
              "id": "149998721725634", 
              "name": "Automotive Repair"
            }, 
            {
              "id": "182575511780536", 
              "name": "Car Parts & Accessories"
            }
          ], 
          "location": {
            "city": "Livermore", 
            "zip": "94550-3244", 
            "country": "United States", 
            "longitude": -121.760811, 
            "state": "CA", 
            "street": "3252 4th St", 
            "latitude": 37.685214999999999
          }
        }, 
        {
          "category": "Local business", 
          "name": "Advanced Auto Service & Tire Center", 
          "id": "159959724027364", 
          "category_list": [
            {
              "id": "196357563722974", 
              "name": "Oil Lube & Filter Service"
            }, 
            {
              "id": "182575511780536", 
              "name": "Car Parts & Accessories"
            }, 
            {
              "id": "149998721725634", 
              "name": "Automotive Repair"
            }
          ], 
          "location": {
            "city": "Prescott Valley", 
            "zip": "86314-3507", 
            "country": "United States", 
            "longitude": -112.346176, 
            "state": "AZ", 
            "street": "6801 E 1st St", 
            "latitude": 34.581454999999998
          }
        }, 
        {
          "category": "Local business", 
          "name": "Advanced Auto Service and Tire Centers", 
          "id": "162885757072346", 
          "category_list": [
            {
              "id": "124581960948637", 
              "name": "Tire Dealer"
            }, 
            {
              "id": "149998721725634", 
              "name": "Automotive Repair"
            }
          ], 
          "location": {
            "city": "Phoenix", 
            "zip": "85018-7605", 
            "country": "United States", 
            "longitude": -111.988609, 
            "state": "AZ", 
            "street": "4301 E Thomas Rd", 
            "latitude": 33.479838999999998
          }
        }, 
        {
          "category": "Local business", 
          "name": "Advanced Auto Service & Tire Center", 
          "id": "162978120387631", 
          "category_list": [
            {
              "id": "182575511780536", 
              "name": "Car Parts & Accessories"
            }, 
            {
              "id": "196357563722974", 
              "name": "Oil Lube & Filter Service"
            }, 
            {
              "id": "149998721725634", 
              "name": "Automotive Repair"
            }
          ], 
          "location": {
            "city": "Prescott", 
            "zip": "86301-1603", 
            "country": "United States", 
            "longitude": -112.483429, 
            "state": "AZ", 
            "street": "1052 Willow Creek Rd", 
            "latitude": 34.563862
          }
        }, 
        {
          "category": "Local business", 
          "name": "Advanced Auto Service & Towing", 
          "id": "170326386311040", 
          "category_list": [
            {
              "id": "174972792548177", 
              "name": "Towing Service"
            }, 
            {
              "id": "149998721725634", 
              "name": "Automotive Repair"
            }
          ], 
          "location": {
            "city": "Cleveland", 
            "zip": "44103", 
            "country": "United States", 
            "longitude": -81.664950000000005, 
            "state": "OH", 
            "street": "", 
            "latitude": 41.447150000000001
          }
        }, 
        {
          "category": "Local business", 
          "name": "Advanced auto services", 
          "id": "205392549589715", 
          "category_list": [
            {
              "id": "2500", 
              "name": "Local Business"
            }
          ], 
          "location": {
            "city": "Indianapolis", 
            "zip": "46221", 
            "country": "United States", 
            "longitude": -86.198744000000005, 
            "state": "IN", 
            "street": "2315 kentucky avenue indianapolis indiana", 
            "latitude": 39.734966
          }
        }, 
        {
          "category": "Local business", 
          "name": "Advanced Auto Repair", 
          "id": "267926153519", 
          "category_list": [
            {
              "id": "196357563722974", 
              "name": "Oil Lube & Filter Service"
            }, 
            {
              "id": "149998721725634", 
              "name": "Automotive Repair"
            }
          ], 
          "location": {
            "city": "Denton", 
            "zip": "76201", 
            "country": "United States", 
            "longitude": -97.138321000000005, 
            "state": "TX", 
            "street": "612 Fort Worth Dr", 
            "latitude": 33.199581000000002
          }
        }, 
        {
          "category": "Local business", 
          "name": "New Advanced Auto Service", 
          "id": "111597088904717", 
          "category_list": [
            {
              "id": "149998721725634", 
              "name": "Automotive Repair"
            }, 
            {
              "id": "131962450204676", 
              "name": "Car Dealership"
            }
          ], 
          "location": {
            "city": "Sacramento", 
            "zip": "95824-1576", 
            "country": "United States", 
            "longitude": -121.43971999999999, 
            "state": "CA", 
            "street": "6060 Stockton Blvd", 
            "latitude": 38.516177999999996
          }
        }, 
        {
          "category": "Automotive", 
          "name": "Advanced Auto", 
          "id": "108354092586198", 
          "category_list": [
            {
              "id": "196357563722974", 
              "name": "Oil Lube & Filter Service"
            }, 
            {
              "id": "149998721725634", 
              "name": "Automotive Repair"
            }
          ], 
          "location": {
            "city": "Santa Cruz", 
            "zip": "95062", 
            "country": "United States", 
            "longitude": -122.01167100000001, 
            "state": "CA", 
            "street": "1025 Water Street", 
            "latitude": 36.981554000000003
          }
        }, 
        {
          "category": "Automotive", 
          "name": "Advanced Auto Repair Service", 
          "id": "310586182306162", 
          "category_list": [
            {
              "id": "2509", 
              "name": "Automotive"
            }
          ], 
          "location": {
            "city": "Voorheesville", 
            "zip": "12186", 
            "country": "United States", 
            "longitude": -73.925819000000004, 
            "state": "NY", 
            "street": "14 Drywall Ln", 
            "latitude": 42.655239000000002
          }
        }, 
        {
          "category": "Professional services", 
          "name": "Advanced Window Tinting and Auto Detail", 
          "id": "120698331297313", 
          "category_list": [
            {
              "id": "192041444166324", 
              "name": "Window Service & Repair"
            }, 
            {
              "id": "188953757794108", 
              "name": "Signs & Banner Service"
            }, 
            {
              "id": "127781400626024", 
              "name": "Glass Products"
            }
          ], 
          "location": {
            "city": "Grants Pass", 
            "zip": "97527", 
            "country": "United States", 
            "longitude": -123.328659, 
            "state": "OR", 
            "street": "526 Rogue River Hwy (next to shoes right here and across from burger King)", 
            "latitude": 42.425049000000001
          }
        }, 
        {
          "category": "Automotive", 
          "name": "A Advanced Auto Glass", 
          "id": "254280441391084", 
          "category_list": [
            {
              "id": "192041444166324", 
              "name": "Window Service & Repair"
            }, 
            {
              "id": "153084451411848", 
              "name": "Auto Glass"
            }, 
            {
              "id": "199562100074695", 
              "name": "Glass Service"
            }
          ], 
          "location": {
            "city": "Houston", 
            "zip": "77092", 
            "country": "United States", 
            "longitude": -95.465073000000004, 
            "state": "TX", 
            "street": "5014 De Milo Dr", 
            "latitude": 29.834409999999998
          }
        }, 
        {
          "category": "Local business", 
          "name": "Advanced Tire & Auto Service", 
          "id": "168386093177117", 
          "category_list": [
            {
              "id": "149998721725634", 
              "name": "Automotive Repair"
            }, 
            {
              "id": "124581960948637", 
              "name": "Tire Dealer"
            }
          ], 
          "location": {
            "city": "Arlington", 
            "zip": "76011-5783", 
            "country": "United States", 
            "longitude": -97.113433000000001, 
            "state": "TX", 
            "street": "985 N Cooper St", 
            "latitude": 32.750729999999997
          }
        }, 
        {
          "category": "Professional services", 
          "name": "Advanced Auto Sound", 
          "id": "189259687798476", 
          "category_list": [
            {
              "id": "176831012360626", 
              "name": "Professional Services"
            }
          ], 
          "location": {
            "city": "Yakima", 
            "zip": "98901", 
            "country": "United States", 
            "longitude": -120.497499569, 
            "state": "WA", 
            "street": "4 Ranchrite Rd", 
            "latitude": 46.585000967900001
          }
        }, 
        {
          "category": "Local business", 
          "name": "Advanced Tire & Auto Service", 
          "id": "158835617484117", 
          "category_list": [
            {
              "id": "124581960948637", 
              "name": "Tire Dealer"
            }, 
            {
              "id": "149998721725634", 
              "name": "Automotive Repair"
            }
          ], 
          "location": {
            "city": "Mauldin", 
            "zip": "29662-2307", 
            "country": "United States", 
            "longitude": -82.314590999999993, 
            "state": "SC", 
            "street": "501 N Main St", 
            "latitude": 34.785252999999997
          }
        }, 
        {
          "category": "Local business", 
          "name": "Advanced Auto Tech Service", 
          "id": "167816243235287", 
          "category_list": [
            {
              "id": "149998721725634", 
              "name": "Automotive Repair"
            }, 
            {
              "id": "182575511780536", 
              "name": "Car Parts & Accessories"
            }
          ], 
          "location": {
            "city": "Belle Fourche", 
            "zip": "57717-1617", 
            "country": "United States", 
            "longitude": -103.855103, 
            "state": "SD", 
            "street": "301 Roundup St", 
            "latitude": 44.670760999999999
          }
        }, 
        {
          "category": "Local business", 
          "name": "Advanced Collision Service", 
          "id": "169052153107177", 
          "category_list": [
            {
              "id": "188462984509706", 
              "name": "Auto Body Shop"
            }
          ], 
          "location": {
            "city": "Ocean Springs", 
            "zip": "39564-5907", 
            "country": "United States", 
            "longitude": -88.752975000000006, 
            "state": "MS", 
            "street": "4127 Bienville Blvd", 
            "latitude": 30.408396
          }
        }, 
        {
          "category": "Local business", 
          "name": "Advanced Auto Sales & Service", 
          "id": "235798043129049", 
          "category_list": [
            {
              "id": "2500", 
              "name": "Local Business"
            }
          ], 
          "location": {
            "city": "Indianapolis", 
            "zip": "46221", 
            "country": "United States", 
            "longitude": -86.179373790699998, 
            "state": "IN", 
            "street": "", 
            "latitude": 39.758332236199998
          }
        }, 
        {
          "category": "Local business", 
          "name": "Advanced Collision Service", 
          "id": "156535441052055", 
          "category_list": [
            {
              "id": "188462984509706", 
              "name": "Auto Body Shop"
            }
          ], 
          "location": {
            "city": "Bay Saint Louis", 
            "zip": "39520", 
            "country": "United States", 
            "longitude": -89.363720000000001, 
            "state": "MS", 
            "street": "", 
            "latitude": 30.311170000000001
          }
        }, 
        {
          "category": "Local business", 
          "name": "Advanced Collision Service", 
          "id": "159972794023080", 
          "category_list": [
            {
              "id": "188462984509706", 
              "name": "Auto Body Shop"
            }
          ], 
          "location": {
            "city": "Gulfport", 
            "zip": "39501-6523", 
            "country": "United States", 
            "longitude": -89.092224000000002, 
            "state": "MS", 
            "street": "2408 31st St", 
            "latitude": 30.388245000000001
          }
        }, 
        {
          "category": "Automotive", 
          "name": "Advanced Auto and Truck Repair", 
          "id": "263951890338095", 
          "category_list": [
            {
              "id": "193198380699462", 
              "name": "Repair Service"
            }, 
            {
              "id": "149998721725634", 
              "name": "Automotive Repair"
            }
          ], 
          "location": {
            "city": "West Chester", 
            "zip": "19382", 
            "country": "United States", 
            "longitude": -75.590286000000006, 
            "state": "PA", 
            "street": "729 East Union St", 
            "latitude": 39.962696000000001
          }
        }, 
        {
          "category": "Automotive", 
          "name": "Advanced Auto Body Inc.", 
          "id": "195196320520076", 
          "category_list": [
            {
              "id": "193198380699462", 
              "name": "Repair Service"
            }, 
            {
              "id": "180410821995109", 
              "name": "Automotive"
            }
          ], 
          "location": {
            "city": "Tempe", 
            "zip": "85283", 
            "country": "United States", 
            "longitude": -111.966179, 
            "state": "AZ", 
            "street": "7015 S harl Ave", 
            "latitude": 33.356017999999999
          }
        }, 
        {
          "category": "Transportation", 
          "name": "Advanced Auto Electrical", 
          "id": "273466002665314", 
          "category_list": [
            {
              "id": "152367304818850", 
              "name": "Transportation Service"
            }
          ], 
          "location": {
            "city": "Kempton Park", 
            "zip": "1625", 
            "country": "South Africa", 
            "longitude": 28.2126479179, 
            "state": "", 
            "street": "No 1 Lorraine street, Van Riebeeck Park,", 
            "latitude": -26.0703625688
          }
        }, 
        {
          "category": "Local business", 
          "name": "Advanced Tire and Auto Service", 
          "id": "117693341623287", 
          "category_list": [
            {
              "id": "149998721725634", 
              "name": "Automotive Repair"
            }, 
            {
              "id": "174972792548177", 
              "name": "Towing Service"
            }, 
            {
              "id": "124581960948637", 
              "name": "Tire Dealer"
            }
          ], 
          "location": {
            "city": "Greenville", 
            "zip": "29605", 
            "country": "United States", 
            "longitude": -121.64911721999999, 
            "state": "SC", 
            "street": "", 
            "latitude": 37.123320839999998
          }
        }, 
        {
          "category": "Local business", 
          "name": "Advanced Auto Tech", 
          "id": "156943337679017", 
          "category_list": [
            {
              "id": "196357563722974", 
              "name": "Oil Lube & Filter Service"
            }, 
            {
              "id": "182575511780536", 
              "name": "Car Parts & Accessories"
            }
          ], 
          "location": {
            "city": "Houston", 
            "zip": "77045-2006", 
            "country": "United States", 
            "longitude": -95.461860999999999, 
            "state": "TX", 
            "street": "5304 Allum Rd", 
            "latitude": 29.641373000000002
          }
        }, 
        {
          "category": "Local business", 
          "name": "Advanced Auto Care", 
          "id": "157639007609083", 
          "category_list": [
            {
              "id": "174972792548177", 
              "name": "Towing Service"
            }, 
            {
              "id": "149998721725634", 
              "name": "Automotive Repair"
            }
          ], 
          "location": {
            "city": "Nashua", 
            "zip": "03063", 
            "country": "United States", 
            "longitude": -71.5263283253, 
            "state": "NH", 
            "street": "", 
            "latitude": 42.791023850400002
          }
        }, 
        {
          "category": "Local business", 
          "name": "Advanced Tech Auto", 
          "id": "161388080551695", 
          "category_list": [
            {
              "id": "196357563722974", 
              "name": "Oil Lube & Filter Service"
            }, 
            {
              "id": "149998721725634", 
              "name": "Automotive Repair"
            }, 
            {
              "id": "124581960948637", 
              "name": "Tire Dealer"
            }
          ], 
          "location": {
            "city": "Roscoe", 
            "zip": "61073-9585", 
            "country": "United States", 
            "longitude": -89.011992000000006, 
            "state": "IL", 
            "street": "5397 Edith Ln Ste 3", 
            "latitude": 42.432715000000002
          }
        }, 
        {
          "category": "Local business", 
          "name": "Advanced Auto Body", 
          "id": "162548650435993", 
          "category_list": [
            {
              "id": "193198380699462", 
              "name": "Repair Service"
            }, 
            {
              "id": "188462984509706", 
              "name": "Auto Body Shop"
            }
          ], 
          "location": {
            "city": "Tempe", 
            "zip": "85283-4325", 
            "country": "United States", 
            "longitude": -111.966179, 
            "state": "AZ", 
            "street": "7015 S Harl Ave", 
            "latitude": 33.356017999999999
          }
        }, 
        {
          "category": "Local business", 
          "name": "Advanced Auto Detail", 
          "id": "102665849799680", 
          "category_list": [
            {
              "id": "174972792548177", 
              "name": "Towing Service"
            }, 
            {
              "id": "162295707155272", 
              "name": "Car Wash & Detailing"
            }
          ], 
          "location": {
            "city": "Arlington", 
            "zip": "76011-7215", 
            "country": "United States", 
            "longitude": -97.100127999999998, 
            "state": "TX", 
            "street": "711 E Division St", 
            "latitude": 32.739471000000002
          }
        }, 
        {
          "category": "Local business", 
          "name": "Advanced Auto/Marine", 
          "id": "167278556618204", 
          "category_list": [
            {
              "id": "163431627040738", 
              "name": "Boat Service"
            }, 
            {
              "id": "187133811318958", 
              "name": "Business Services"
            }, 
            {
              "id": "149998721725634", 
              "name": "Automotive Repair"
            }
          ], 
          "location": {
            "city": "Coeur d'Alene", 
            "zip": "83814-4350", 
            "country": "United States", 
            "longitude": -116.77298, 
            "state": "ID", 
            "street": "911 E Saint Maries Ave", 
            "latitude": 47.680419999999998
          }
        }, 
        {
          "category": "Automotive", 
          "name": "Advanced Foreign Auto VW Parts & Service", 
          "id": "680556648622522", 
          "category_list": [
            {
              "id": "2509", 
              "name": "Automotive"
            }
          ], 
          "location": {
            "city": "Norwalk", 
            "zip": "90650", 
            "country": "United States", 
            "longitude": -118.05497699999999, 
            "state": "CA", 
            "street": "13820 Shoemaker Ave.", 
            "latitude": 33.905380000000001
          }
        }, 
        {
          "category": "Business services", 
          "name": "Advanced Auto Glass And More", 
          "id": "518510231543806", 
          "category_list": [
            {
              "id": "153084451411848", 
              "name": "Auto Glass"
            }, 
            {
              "id": "199850580046875", 
              "name": "Garage Door Services"
            }, 
            {
              "id": "192041444166324", 
              "name": "Window Service & Repair"
            }
          ], 
          "location": {
            "city": "Bad Axe", 
            "zip": "48413", 
            "country": "United States", 
            "longitude": -83.000422, 
            "state": "MI", 
            "street": "1616 Bad Axe Rd.", 
            "latitude": 43.791547999999999
          }
        }, 
        {
          "category": "Local business", 
          "name": "Advanced Auto Repair Inc.", 
          "id": "111770532221283", 
          "category_list": [
            {
              "id": "196357563722974", 
              "name": "Oil Lube & Filter Service"
            }, 
            {
              "id": "149998721725634", 
              "name": "Automotive Repair"
            }, 
            {
              "id": "182575511780536", 
              "name": "Car Parts & Accessories"
            }
          ], 
          "location": {
            "city": "Tampa", 
            "zip": "33614-6545", 
            "country": "United States", 
            "longitude": -82.509795999999994, 
            "state": "FL", 
            "street": "5020 N Grady Ave", 
            "latitude": 27.993288
          }
        }, 
        {
          "category": "Local business", 
          "name": "Advanced Auto Detail LLC", 
          "id": "133964809986421", 
          "category_list": [
            {
              "id": "174972792548177", 
              "name": "Towing Service"
            }, 
            {
              "id": "162295707155272", 
              "name": "Car Wash & Detailing"
            }
          ], 
          "location": {
            "city": "Meridian", 
            "zip": "83642-2705", 
            "country": "United States", 
            "longitude": -116.391884, 
            "state": "ID", 
            "street": "331 N Main St", 
            "latitude": 43.606769999999997
          }
        }, 
        {
          "category": "Automotive", 
          "name": "Marquez Advanced Auto Detailing Services", 
          "id": "222530011234568", 
          "category_list": [
            {
              "id": "162295707155272", 
              "name": "Car Wash & Detailing"
            }
          ], 
          "location": {
            "city": "Ashland", 
            "zip": "23005", 
            "country": "United States", 
            "longitude": -77.437056999999996, 
            "state": "VA", 
            "street": "11126 Air Park Rd STE I", 
            "latitude": 37.706062000000003
          }
        }, 
        {
          "category": "Local business", 
          "name": "Advanced Auto Body Center", 
          "id": "163160210368582", 
          "category_list": [
            {
              "id": "193198380699462", 
              "name": "Repair Service"
            }, 
            {
              "id": "180410821995109", 
              "name": "Automotive"
            }
          ], 
          "location": {
            "city": "Napa", 
            "zip": "94559-2216", 
            "country": "United States", 
            "longitude": -122.301233, 
            "state": "CA", 
            "street": "2497 2nd St", 
            "latitude": 38.298228000000002
          }
        }, 
        {
          "category": "Automotive", 
          "name": "Advanced Auto Authority Services", 
          "id": "298342976903738", 
          "category_list": [
            {
              "id": "2509", 
              "name": "Automotive"
            }
          ], 
          "location": {
            "city": "Ranson", 
            "zip": "25438", 
            "country": "United States", 
            "longitude": -77.863533000000004, 
            "state": "WV", 
            "street": "315 North Mildred Street", 
            "latitude": 39.300010999999998
          }
        }, 
        {
          "category": "Automotive", 
          "name": "Steve Killian's Advanced Tire and Auto Service", 
          "id": "143717212479193", 
          "category_list": [
            {
              "id": "2509", 
              "name": "Automotive"
            }
          ], 
          "location": {
            "city": "Mauldin", 
            "zip": "29662", 
            "country": "United States", 
            "longitude": -82.314590999999993, 
            "state": "SC", 
            "street": "501 N. Main St.", 
            "latitude": 34.785252999999997
          }
        }, 
        {
          "category": "Local business", 
          "name": "Advanced Auto Body & Motor Wor", 
          "id": "154288977943871", 
          "category_list": [
            {
              "id": "193198380699462", 
              "name": "Repair Service"
            }, 
            {
              "id": "188462984509706", 
              "name": "Auto Body Shop"
            }
          ], 
          "location": {
            "city": "Methuen", 
            "zip": "01844-5804", 
            "country": "United States", 
            "longitude": -71.128410000000002, 
            "state": "MA", 
            "street": "468 Merrimack St", 
            "latitude": 42.751282000000003
          }
        }, 
        {
          "category": "Local business", 
          "name": "Advanced Auto and Body Repair", 
          "id": "159801810709408", 
          "category_list": [
            {
              "id": "196941987012177", 
              "name": "Limo Service"
            }, 
            {
              "id": "188462984509706", 
              "name": "Auto Body Shop"
            }
          ], 
          "location": {
            "city": "Arlington Heights", 
            "zip": "60005-4811", 
            "country": "United States", 
            "longitude": -87.948222999999999, 
            "state": "IL", 
            "street": "2300 Hamilton Rd", 
            "latitude": 42.020474999999998
          }
        }, 
        {
          "category": "Professional services", 
          "name": "Advanced Auto Center", 
          "id": "204845383545", 
          "category_list": [
            {
              "id": "180410821995109", 
              "name": "Automotive"
            }
          ], 
          "location": {
            "city": "Oakhurst", 
            "zip": "93644", 
            "country": "United States", 
            "longitude": -119.66295599999999, 
            "state": "CA", 
            "street": "40142 Highway 49", 
            "latitude": 37.335071999999997
          }
        }, 
        {
          "category": "Local business", 
          "name": "Advanced Collision Services", 
          "id": "135603589822848", 
          "category_list": [
            {
              "id": "188462984509706", 
              "name": "Auto Body Shop"
            }
          ], 
          "location": {
            "city": "Reserve", 
            "zip": "70068-6438", 
            "country": "United States", 
            "longitude": -90.465896000000001, 
            "state": "LA", 
            "street": "3321 New Highway 51", 
            "latitude": 30.080337
          }
        }, 
        {
          "category": "Local business", 
          "name": "Advanced Equipment Services", 
          "id": "159236537440510", 
          "category_list": [
            {
              "id": "188462984509706", 
              "name": "Auto Body Shop"
            }
          ], 
          "location": {
            "city": "Lafayette", 
            "zip": "70506-7701", 
            "country": "United States", 
            "longitude": -92.104789999999994, 
            "state": "LA", 
            "street": "163 Pellerin Rd", 
            "latitude": 30.15814
          }
        }, 
        {
          "category": "Business services", 
          "name": "Advanced Borneo Auto Paint", 
          "id": "480033235429395", 
          "category_list": [
            {
              "id": "187133811318958", 
              "name": "Business Services"
            }
          ], 
          "location": {
            "city": "Beaufort", 
            "zip": "89808", 
            "country": "Malaysia", 
            "longitude": 115.65886215, 
            "state": "", 
            "street": "Jalan Beaufort-KK Highway Taman Foo", 
            "latitude": 5.2729988800000003
          }
        }, 
        {
          "category": "Local business", 
          "name": "Advanced Auto Technology-Express Lube", 
          "id": "111545615575413", 
          "category_list": [
            {
              "id": "196357563722974", 
              "name": "Oil Lube & Filter Service"
            }
          ], 
          "location": {
            "city": "North Richland Hills", 
            "zip": "76180-6007", 
            "country": "United States", 
            "longitude": -97.239044000000007, 
            "state": "TX", 
            "street": "5749 Rufe Snow Dr", 
            "latitude": 32.851737999999997
          }
        }, 
        {
          "category": "Professional services", 
          "name": "Advanced Auto Parts", 
          "id": "1432988020254910", 
          "category_list": [
            {
              "id": "176831012360626", 
              "name": "Professional Services"
            }
          ], 
          "location": {
            "city": "Allentown", 
            "zip": "18103", 
            "country": "United States", 
            "longitude": -75.455658, 
            "state": "PA", 
            "street": "1841 S 4th Street", 
            "latitude": 40.581145999999997
          }
        }, 
        {
          "category": "Local business", 
          "name": "Advanced Auto Trends", 
          "id": "162993330385567", 
          "category_list": [
            {
              "id": "187133811318958", 
              "name": "Business Services"
            }, 
            {
              "id": "145002912227813", 
              "name": "Plastics"
            }, 
            {
              "id": "180410821995109", 
              "name": "Automotive"
            }
          ], 
          "location": {
            "city": "Oxford", 
            "zip": "48371-1619", 
            "country": "United States", 
            "longitude": -83.290794000000005, 
            "state": "MI", 
            "street": "3485 Metamora Rd", 
            "latitude": 42.875968999999998
          }
        }, 
        {
          "category": "Local business", 
          "name": "Advanced Auto Trends", 
          "id": "162726740412775", 
          "category_list": [
            {
              "id": "187133811318958", 
              "name": "Business Services"
            }, 
            {
              "id": "145002912227813", 
              "name": "Plastics"
            }, 
            {
              "id": "180410821995109", 
              "name": "Automotive"
            }
          ], 
          "location": {
            "city": "Oxford", 
            "zip": "48371-2347", 
            "country": "United States", 
            "longitude": -83.288116000000002, 
            "state": "MI", 
            "street": "2230 Metamora Rd", 
            "latitude": 42.857509999999998
          }
        }, 
        {
          "category": "Professional services", 
          "name": "Advanced Collision Reconstruction", 
          "id": "537479536264841", 
          "category_list": [
            {
              "id": "176831012360626", 
              "name": "Professional Services"
            }
          ], 
          "location": {
            "city": "Universal City", 
            "zip": "78148-3400", 
            "country": "United States", 
            "longitude": -98.313640000000007, 
            "state": "TX", 
            "street": "902 Kitty Hawk Rd., Suite 170, #446", 
            "latitude": 29.547308999999998
          }
        }, 
        {
          "category": "Local business", 
          "name": "Advanced Auto Lift Equipment Services", 
          "id": "166303050047403", 
          "category_list": [
            {
              "id": "196966680314716", 
              "name": "Commercial Automotive"
            }
          ], 
          "location": {
            "city": "Denver", 
            "zip": "80229-6713", 
            "country": "United States", 
            "longitude": -104.97924500000001, 
            "state": "CO", 
            "street": "565 E 70th Ave", 
            "latitude": 39.823903999999999
          }
        }, 
        {
          "category": "Local business", 
          "name": "Advanced Auto Sound & Security", 
          "id": "232932210065387", 
          "category_list": [
            {
              "id": "2500", 
              "name": "Local Business"
            }
          ], 
          "location": {
            "city": "Anchorage", 
            "zip": "99518", 
            "country": "United States", 
            "longitude": -149.86889600000001, 
            "state": "AK", 
            "street": "5610 Old Seward Hwy", 
            "latitude": 61.169800000000002
          }
        }, 
        {
          "category": "Local business", 
          "name": "Advanced Auto Sound in Flint MI", 
          "id": "120466374633379", 
          "category_list": [
            {
              "id": "187133811318958", 
              "name": "Business Services"
            }, 
            {
              "id": "198632653485894", 
              "name": "Audiovisual Equipment"
            }, 
            {
              "id": "133354270064406", 
              "name": "Security"
            }
          ], 
          "location": {
            "city": "Flint", 
            "zip": "48532", 
            "country": "United States", 
            "longitude": -83.741095999999999, 
            "state": "MI", 
            "street": "4108 Corunna Rd", 
            "latitude": 43.002693000000001
          }
        }, 
        {
          "category": "Professional services", 
          "name": "Advanced Auto Dealers Inc", 
          "id": "244427448923908", 
          "category_list": [
            {
              "id": "176831012360626", 
              "name": "Professional Services"
            }
          ], 
          "location": {
            "city": "Omaha", 
            "zip": "68116", 
            "country": "United States", 
            "longitude": -96.162400000000005, 
            "state": "NE", 
            "street": "5116 N. 158th Ave Villa #132", 
            "latitude": 41.30565
          }
        }, 
        {
          "category": "Business services", 
          "name": "Advanced Auto Glass & Window Tinting", 
          "id": "350416604983368", 
          "category_list": [
            {
              "id": "187133811318958", 
              "name": "Business Services"
            }
          ], 
          "location": {
            "city": "Lewiston", 
            "zip": "83501", 
            "country": "United States", 
            "longitude": -116.98738299999999, 
            "state": "ID", 
            "street": "149 1/2 Thain Road", 
            "latitude": 46.388764000000002
          }
        }, 
        {
          "category": "Local business", 
          "name": "Advanced Auto Refinishing", 
          "id": "166759873350658", 
          "category_list": [
            {
              "id": "187133811318958", 
              "name": "Business Services"
            }, 
            {
              "id": "182387268467261", 
              "name": "Metals"
            }, 
            {
              "id": "188462984509706", 
              "name": "Auto Body Shop"
            }
          ], 
          "location": {
            "city": "San Juan Capistrano", 
            "zip": "92675-4700", 
            "country": "United States", 
            "longitude": -117.67537, 
            "state": "CA", 
            "street": "33011 Calle Aviador Ste C", 
            "latitude": 33.482559000000002
          }
        }, 
        {
          "category": "Local business", 
          "name": "Advanced Window Tint and Auto Alarm", 
          "id": "118852553083", 
          "category_list": [
            {
              "id": "187133811318958", 
              "name": "Business Services"
            }, 
            {
              "id": "180410821995109", 
              "name": "Automotive"
            }
          ], 
          "location": {
            "city": "Little Rock", 
            "zip": "72204", 
            "country": "United States", 
            "longitude": -92.333884999999995, 
            "state": "AR", 
            "street": "3224 Mabelvale Pike", 
            "latitude": 34.718711999999996
          }
        }, 
        {
          "category": "Automotive", 
          "name": "JP NZ AUTO PARTS Ltd", 
          "id": "532690900114442", 
          "category_list": [
            {
              "id": "128197080583700", 
              "name": "Cash Advance Service"
            }, 
            {
              "id": "196639807029364", 
              "name": "Excavation & Wrecking"
            }, 
            {
              "id": "188462984509706", 
              "name": "Auto Body Shop"
            }
          ], 
          "location": {
            "city": "Christchurch", 
            "zip": "8443", 
            "country": "New Zealand", 
            "longitude": 172.62, 
            "state": "", 
            "street": "115a Main South Road, Sockburn", 
            "latitude": -43.530000000000001
          }
        }, 
        {
          "category": "Local business", 
          "name": "The President", 
          "id": "525784170839183", 
          "category_list": [
            {
              "id": "176831012360626", 
              "name": "Professional Services"
            }
          ], 
          "location": {
            "city": "Para\u00f1aque", 
            "zip": "", 
            "country": "Philippines", 
            "longitude": 121.031082748, 
            "state": "", 
            "street": "(24) President's Avenue, BF Homes, Para\u00f1aque City, Metro Manila, Philippines", 
            "latitude": 14.456779947299999
          }
        }, 
        {
          "category": "Local business", 
          "name": "Advance Auto Service", 
          "id": "105677692833089", 
          "category_list": [
            {
              "id": "180913165284066", 
              "name": "Automotive Trailer Services"
            }, 
            {
              "id": "149998721725634", 
              "name": "Automotive Repair"
            }, 
            {
              "id": "182575511780536", 
              "name": "Car Parts & Accessories"
            }
          ], 
          "location": {
            "city": "Orange", 
            "zip": "06477-3609", 
            "country": "United States", 
            "longitude": -72.996787999999995, 
            "state": "CT", 
            "street": "321 Indian River Rd", 
            "latitude": 41.269371
          }
        }, 
        {
          "category": "Local business", 
          "name": "Advance Auto Service", 
          "id": "159358504087542", 
          "category_list": [
            {
              "id": "149998721725634", 
              "name": "Automotive Repair"
            }, 
            {
              "id": "128184253916402", 
              "name": "Loans"
            }, 
            {
              "id": "182575511780536", 
              "name": "Car Parts & Accessories"
            }
          ], 
          "location": {
            "city": "Houston", 
            "zip": "77091-2616", 
            "country": "United States", 
            "longitude": -95.473693999999995, 
            "state": "TX", 
            "street": "6307 Antoine Dr", 
            "latitude": 29.857728999999999
          }
        }, 
        {
          "category": "Professional services", 
          "name": "Auto Pawn M\u00e9xico", 
          "id": "610870132258625", 
          "category_list": [
            {
              "id": "128197080583700", 
              "name": "Cash Advance Service"
            }
          ], 
          "location": {
            "city": "Estado de M\u00e9xico", 
            "zip": "53950", 
            "country": "Mexico", 
            "longitude": -90.890299999999996, 
            "state": "", 
            "street": "Av. de las Fuentes #35 Interior 1A, Col. Tecamachalco", 
            "latitude": 17.999972789845
          }
        }, 
        {
          "category": "Local business", 
          "name": "Advance Auto Service Inc", 
          "id": "170562566287557", 
          "category_list": [
            {
              "id": "145008048892483", 
              "name": "Collection Agency"
            }, 
            {
              "id": "149998721725634", 
              "name": "Automotive Repair"
            }, 
            {
              "id": "182575511780536", 
              "name": "Car Parts & Accessories"
            }
          ], 
          "location": {
            "city": "Baldwin Park", 
            "zip": "91706", 
            "country": "United States", 
            "longitude": -117.9753, 
            "state": "CA", 
            "street": "", 
            "latitude": 34.069479999999999
          }
        }, 
        {
          "category": "Local business", 
          "name": "Advance Muffler & Auto Service", 
          "id": "116046275123868", 
          "category_list": [
            {
              "id": "149998721725634", 
              "name": "Automotive Repair"
            }, 
            {
              "id": "182575511780536", 
              "name": "Car Parts & Accessories"
            }
          ], 
          "location": {
            "city": "Pasadena", 
            "zip": "91106-1564", 
            "country": "United States", 
            "longitude": -118.123344, 
            "state": "CA", 
            "street": "1320 E Walnut St", 
            "latitude": 34.149287999999999
          }
        }, 
        {
          "category": "Automotive", 
          "name": "Servicentro Advance", 
          "id": "276836572446940", 
          "category_list": [
            {
              "id": "188462984509706", 
              "name": "Auto Body Shop"
            }, 
            {
              "id": "149998721725634", 
              "name": "Automotive Repair"
            }, 
            {
              "id": "182575511780536", 
              "name": "Car Parts & Accessories"
            }
          ], 
          "location": {
            "city": "Ciudad de Col\u00f3n", 
            "zip": "507", 
            "country": "Panama", 
            "longitude": -79.804153829955993, 
            "state": "", 
            "street": "Colon Sabanitas", 
            "latitude": 9.3422319603942992
          }
        }, 
        {
          "category": "Local business", 
          "name": "Advance Auto Service and Repair", 
          "id": "162231810467835", 
          "category_list": [
            {
              "id": "149998721725634", 
              "name": "Automotive Repair"
            }, 
            {
              "id": "139272729470823", 
              "name": "Gas Station"
            }, 
            {
              "id": "182575511780536", 
              "name": "Car Parts & Accessories"
            }
          ], 
          "location": {
            "city": "Brooklyn", 
            "zip": "11208-1411", 
            "country": "United States", 
            "longitude": -73.875259, 
            "state": "NY", 
            "street": "1 Euclid Ave", 
            "latitude": 40.688595999999997
          }
        }, 
        {
          "category": "Local business", 
          "name": "Advance Muffler And Auto Service", 
          "id": "318750234879298", 
          "category_list": [
            {
              "id": "2500", 
              "name": "Local Business"
            }
          ], 
          "location": {
            "city": "Memphis", 
            "zip": "38122", 
            "country": "United States", 
            "longitude": -89.940274341199995, 
            "state": "TN", 
            "street": "", 
            "latitude": 35.149080945500003
          }
        }, 
        {
          "category": "Automotive", 
          "name": "Advance service and Auto repair", 
          "id": "394035574030378", 
          "category_list": [
            {
              "id": "2509", 
              "name": "Automotive"
            }
          ], 
          "location": {
            "city": "Los Banos", 
            "zip": "93635", 
            "country": "United States", 
            "longitude": -120.85283200000001, 
            "state": "CA", 
            "street": "150W G st ", 
            "latitude": 37.065980000000003
          }
        }, 
        {
          "category": "Local business", 
          "name": "Auto Cash of Cartersville", 
          "id": "381738228574684", 
          "category_list": [
            {
              "id": "128197080583700", 
              "name": "Cash Advance Service"
            }, 
            {
              "id": "128184253916402", 
              "name": "Loans"
            }
          ], 
          "location": {
            "city": "Cartersville", 
            "zip": "30120", 
            "country": "United States", 
            "longitude": -84.788979999999995, 
            "state": "GA", 
            "street": "2 N Dixie Ave", 
            "latitude": 34.168101
          }
        }, 
        {
          "category": "Local business", 
          "name": "Advance Auto Collision & Service Cnt", 
          "id": "166748823338187", 
          "category_list": [
            {
              "id": "149998721725634", 
              "name": "Automotive Repair"
            }, 
            {
              "id": "188462984509706", 
              "name": "Auto Body Shop"
            }, 
            {
              "id": "182575511780536", 
              "name": "Car Parts & Accessories"
            }
          ], 
          "location": {
            "city": "Columbia", 
            "zip": "21046-2997", 
            "country": "United States", 
            "longitude": -76.829965999999999, 
            "state": "MD", 
            "street": "9245 Berger Rd", 
            "latitude": 39.176602000000003
          }
        }, 
        {
          "category": "Local business", 
          "name": "Portal Auto Cred", 
          "id": "219180501468504", 
          "category_list": [
            {
              "id": "128197080583700", 
              "name": "Cash Advance Service"
            }
          ], 
          "location": {
            "city": "Formiga", 
            "zip": "35570-000", 
            "country": "Brazil", 
            "longitude": -45.425492489941, 
            "state": "", 
            "street": "Av. Paulo Lins, 32, Centro", 
            "latitude": -20.459686376762001
          }
        }, 
        {
          "category": "Bank/financial services", 
          "name": "Auto Cash Money Center", 
          "id": "111923858872551", 
          "category_list": [
            {
              "id": "128197080583700", 
              "name": "Cash Advance Service"
            }, 
            {
              "id": "108459679231422", 
              "name": "Notary Public"
            }, 
            {
              "id": "133381803394214", 
              "name": "Tax Preparation"
            }
          ], 
          "location": {
            "city": "Wichita Falls", 
            "zip": "76306-6119", 
            "country": "United States", 
            "longitude": -98.523927999999998, 
            "state": "TX", 
            "street": "2720 OLD IOWA PARK ROAD", 
            "latitude": 33.928829999999998
          }
        }, 
        {
          "category": "Automotive", 
          "name": "Auto Pro Tech/ Advance Auto Body", 
          "id": "177430552410374", 
          "category_list": [
            {
              "id": "193198380699462", 
              "name": "Repair Service"
            }
          ], 
          "location": {
            "city": "Santa Fe Springs", 
            "zip": "90670", 
            "country": "United States", 
            "longitude": -118.03344, 
            "state": "CA", 
            "street": "14000 E. Rosecrans Ave", 
            "latitude": 33.902180000000001
          }
        }, 
        {
          "category": "Local business", 
          "name": "Santiago Foot Mart & Auto Wash", 
          "id": "133769436674262", 
          "category_list": [
            {
              "id": "128197080583700", 
              "name": "Cash Advance Service"
            }, 
            {
              "id": "139272729470823", 
              "name": "Gas Station"
            }, 
            {
              "id": "162295707155272", 
              "name": "Car Wash & Detailing"
            }
          ], 
          "location": {
            "city": "Santa Ana", 
            "zip": "92701-2538", 
            "country": "United States", 
            "longitude": -117.86058, 
            "state": "CA", 
            "street": "617 E 17th St", 
            "latitude": 33.760319000000003
          }
        }, 
        {
          "category": "Local business", 
          "name": "183rd Street Auto Tag Agency", 
          "id": "134282693291159", 
          "category_list": [
            {
              "id": "128197080583700", 
              "name": "Cash Advance Service"
            }, 
            {
              "id": "180410821995109", 
              "name": "Automotive"
            }
          ], 
          "location": {
            "city": "Miami", 
            "zip": "33169-4252", 
            "country": "United States", 
            "longitude": -80.214708000000002, 
            "state": "FL", 
            "street": "804 NW 183rd St", 
            "latitude": 25.941931
          }
        }, 
        {
          "category": "Local business", 
          "name": "Advance Auto Parts", 
          "id": "138961059484642", 
          "category_list": [
            {
              "id": "183430408363083", 
              "name": "Electronic Equipment Service"
            }, 
            {
              "id": "182575511780536", 
              "name": "Car Parts & Accessories"
            }, 
            {
              "id": "187133811318958", 
              "name": "Business Services"
            }
          ], 
          "location": {
            "city": "Chattanooga", 
            "zip": "37412-2713", 
            "country": "United States", 
            "longitude": -85.235434999999995, 
            "state": "TN", 
            "street": "4405 Ringgold Rd", 
            "latitude": 34.995911
          }
        }, 
        {
          "category": "Bank/financial institution", 
          "name": "Riverside Auto Title Loans", 
          "id": "186819641445962", 
          "category_list": [
            {
              "id": "128197080583700", 
              "name": "Cash Advance Service"
            }, 
            {
              "id": "128184253916402", 
              "name": "Loans"
            }
          ], 
          "location": {
            "city": "Riverside", 
            "zip": "92505", 
            "country": "United States", 
            "longitude": -117.46659099999999, 
            "state": "CA", 
            "street": "10555 Magnolia Avenue", 
            "latitude": 33.909686999999998
          }
        }, 
        {
          "category": "Bank/financial services", 
          "name": "Mobilny Lombard / Skup / Serwis GSM - Toru\u0144", 
          "id": "380028658786542", 
          "category_list": [
            {
              "id": "128197080583700", 
              "name": "Cash Advance Service"
            }, 
            {
              "id": "128184253916402", 
              "name": "Loans"
            }
          ], 
          "location": {
            "city": "Thorn", 
            "zip": "87-100", 
            "country": "Poland", 
            "longitude": 18.611577139537999, 
            "state": "", 
            "street": "Rynek Nowomiejski 1", 
            "latitude": 53.011612621407998
          }
        }, 
        {
          "category": "Local business", 
          "name": "Premier Auto Pawn INC", 
          "id": "712494898775592", 
          "category_list": [
            {
              "id": "128197080583700", 
              "name": "Cash Advance Service"
            }
          ], 
          "location": {
            "city": "Fort Wayne", 
            "zip": "46803", 
            "country": "United States", 
            "longitude": -85.114880999999997, 
            "state": "IN", 
            "street": "916 S. Anthony Blvd.", 
            "latitude": 41.079962999999999
          }
        }, 
        {
          "category": "Local business", 
          "name": "Advance Auto", 
          "id": "105271026205138", 
          "category_list": [
            {
              "id": "174972792548177", 
              "name": "Towing Service"
            }, 
            {
              "id": "131962450204676", 
              "name": "Car Dealership"
            }, 
            {
              "id": "182575511780536", 
              "name": "Car Parts & Accessories"
            }
          ], 
          "location": {
            "city": "Rochester", 
            "zip": "14608", 
            "country": "United States", 
            "longitude": -77.645874934800005, 
            "state": "NY", 
            "street": "", 
            "latitude": 43.164202012899999
          }
        }, 
        {
          "category": "Local business", 
          "name": "Cash's Baker Pre-Owned Auto Outlet", 
          "id": "121347284590546", 
          "category_list": [
            {
              "id": "128197080583700", 
              "name": "Cash Advance Service"
            }, 
            {
              "id": "131962450204676", 
              "name": "Car Dealership"
            }
          ], 
          "location": {
            "city": "Murphysboro", 
            "zip": "62966-6197", 
            "country": "United States", 
            "longitude": -89.275459999999995, 
            "state": "IL", 
            "street": "348 Health Department Rd", 
            "latitude": 37.760753000000001
          }
        }, 
        {
          "category": "Local business", 
          "name": "Auto Cash Express of New England", 
          "id": "125484037505713", 
          "category_list": [
            {
              "id": "128197080583700", 
              "name": "Cash Advance Service"
            }, 
            {
              "id": "128184253916402", 
              "name": "Loans"
            }
          ], 
          "location": {
            "city": "Tucson", 
            "zip": "85705-5293", 
            "country": "United States", 
            "longitude": -111.00417299999999, 
            "state": "AZ", 
            "street": "1791 W Dairy Pl", 
            "latitude": 32.295368000000003
          }
        }, 
        {
          "category": "Local business", 
          "name": "Patriot Auto Sales of Tupelo", 
          "id": "148327411878735", 
          "category_list": [
            {
              "id": "128197080583700", 
              "name": "Cash Advance Service"
            }, 
            {
              "id": "131962450204676", 
              "name": "Car Dealership"
            }
          ], 
          "location": {
            "city": "Tupelo", 
            "zip": "38801-3319", 
            "country": "United States", 
            "longitude": -88.731057000000007, 
            "state": "MS", 
            "street": "1506 W Main St", 
            "latitude": 34.256473
          }
        }, 
        {
          "category": "Local business", 
          "name": "Advance Auto Parts", 
          "id": "149924565050335", 
          "category_list": [
            {
              "id": "188569091163640", 
              "name": "Construction Service & Supply"
            }, 
            {
              "id": "182575511780536", 
              "name": "Car Parts & Accessories"
            }
          ], 
          "location": {
            "city": "Lynchburg", 
            "zip": "24502-5318", 
            "country": "United States", 
            "longitude": -79.187340000000006, 
            "state": "VA", 
            "street": "5504 Fort Ave", 
            "latitude": 37.374755999999998
          }
        }, 
        {
          "category": "Local business", 
          "name": "Advance Auto Parts", 
          "id": "152434278132072", 
          "category_list": [
            {
              "id": "183430408363083", 
              "name": "Electronic Equipment Service"
            }, 
            {
              "id": "182575511780536", 
              "name": "Car Parts & Accessories"
            }, 
            {
              "id": "187133811318958", 
              "name": "Business Services"
            }
          ], 
          "location": {
            "city": "Enfield", 
            "zip": "06082-3865", 
            "country": "United States", 
            "longitude": -72.576796999999999, 
            "state": "CT", 
            "street": "54 Hazard Ave Ste 3", 
            "latitude": 41.989462000000003
          }
        }, 
        {
          "category": "Local business", 
          "name": "Advance Auto Body & Towing", 
          "id": "155683081136650", 
          "category_list": [
            {
              "id": "193198380699462", 
              "name": "Repair Service"
            }, 
            {
              "id": "188462984509706", 
              "name": "Auto Body Shop"
            }, 
            {
              "id": "182575511780536", 
              "name": "Car Parts & Accessories"
            }
          ], 
          "location": {
            "city": "Congers", 
            "zip": "10920", 
            "country": "United States", 
            "longitude": -73.927999999999997, 
            "state": "NY", 
            "street": "", 
            "latitude": 41.157380000000003
          }
        }, 
        {
          "category": "Local business", 
          "name": "Auto Cash", 
          "id": "159125054110927", 
          "category_list": [
            {
              "id": "128197080583700", 
              "name": "Cash Advance Service"
            }
          ], 
          "location": {
            "city": "Greenwood", 
            "zip": "38930-2727", 
            "country": "United States", 
            "longitude": -90.204421999999994, 
            "state": "MS", 
            "street": "915 Highway 82 W", 
            "latitude": 33.522488000000003
          }
        }, 
        {
          "category": "Local business", 
          "name": "Todd's Auto Sales", 
          "id": "161791200512694", 
          "category_list": [
            {
              "id": "128197080583700", 
              "name": "Cash Advance Service"
            }, 
            {
              "id": "131962450204676", 
              "name": "Car Dealership"
            }
          ], 
          "location": {
            "city": "Mesquite", 
            "zip": "75181-2007", 
            "country": "United States", 
            "longitude": -96.602104999999995, 
            "state": "TX", 
            "street": "2115 S Belt Line Rd", 
            "latitude": 32.738207000000003
          }
        }, 
        {
          "category": "Local business", 
          "name": "Discount Auto Parts", 
          "id": "167505163260089", 
          "category_list": [
            {
              "id": "128197080583700", 
              "name": "Cash Advance Service"
            }, 
            {
              "id": "182575511780536", 
              "name": "Car Parts & Accessories"
            }
          ], 
          "location": {
            "city": "Savannah", 
            "zip": "31406-4516", 
            "country": "United States", 
            "longitude": -81.127234999999999, 
            "state": "GA", 
            "street": "8608 Abercorn St Ste B", 
            "latitude": 31.998754000000002
          }
        }, 
        {
          "category": "Local business", 
          "name": "Auto Tags Plus", 
          "id": "170091686337603", 
          "category_list": [
            {
              "id": "128197080583700", 
              "name": "Cash Advance Service"
            }, 
            {
              "id": "133381803394214", 
              "name": "Tax Preparation"
            }, 
            {
              "id": "108459679231422", 
              "name": "Notary Public"
            }
          ], 
          "location": {
            "city": "Oxford", 
            "zip": "19363-1659", 
            "country": "United States", 
            "longitude": -75.978638000000004, 
            "state": "PA", 
            "street": "308 Market St Ste 1", 
            "latitude": 39.784702000000003
          }
        }, 
        {
          "category": "Local business", 
          "name": "Advance Muffler & Auto Services", 
          "id": "137774879603037", 
          "category_list": [
            {
              "id": "149998721725634", 
              "name": "Automotive Repair"
            }, 
            {
              "id": "182575511780536", 
              "name": "Car Parts & Accessories"
            }
          ], 
          "location": {
            "city": "Bakersfield", 
            "zip": "93301-2422", 
            "country": "United States", 
            "longitude": -119.014915, 
            "state": "CA", 
            "street": "1120 22nd St", 
            "latitude": 35.379303
          }
        }, 
        {
          "category": "Professional services", 
          "name": "Audio Advance", 
          "id": "239158926257924", 
          "category_list": [
            {
              "id": "188462984509706", 
              "name": "Auto Body Shop"
            }
          ], 
          "location": {
            "city": "Cali", 
            "zip": "", 
            "country": "Colombia", 
            "longitude": -76.522199999999998, 
            "state": "", 
            "street": "av 8 norte 20 10", 
            "latitude": 3.4205999999999999
          }
        }, 
        {
          "category": "Professional services", 
          "name": "Sam's Auto Clinic", 
          "id": "161525240532421", 
          "category_list": [
            {
              "id": "149998721725634", 
              "name": "Automotive Repair"
            }
          ], 
          "location": {
            "city": "Los Angeles", 
            "zip": "90028-7503", 
            "country": "United States", 
            "longitude": -118.344452, 
            "state": "CA", 
            "street": "1309 N La Brea Ave", 
            "latitude": 34.094634999999997
          }
        }, 
        {
          "category": "Local business", 
          "name": "Auto Escola Despachante Advance", 
          "id": "149323908470904", 
          "category_list": [
            {
              "id": "161516070564222", 
              "name": "Financial Services"
            }
          ], 
          "location": {
            "city": "Campinas", 
            "zip": "", 
            "country": "Brazil", 
            "longitude": -47.064247930500002, 
            "state": "", 
            "street": "Rua Saldanha Marinho, 124", 
            "latitude": -22.9087125243
          }
        }, 
        {
          "category": "Local business", 
          "name": "Advance Auto Parts", 
          "id": "162949583734069", 
          "category_list": [
            {
              "id": "187133811318958", 
              "name": "Business Services"
            }, 
            {
              "id": "183430408363083", 
              "name": "Electronic Equipment Service"
            }, 
            {
              "id": "182575511780536", 
              "name": "Car Parts & Accessories"
            }
          ], 
          "location": {
            "city": "Salem", 
            "zip": "24153-6432", 
            "country": "United States", 
            "longitude": -80.037199999999999, 
            "state": "VA", 
            "street": "1405 Electric Rd", 
            "latitude": 37.275165000000001
          }
        }, 
        {
          "category": "Local business", 
          "name": "Auto Escola Despachante Advance", 
          "id": "161136717280309", 
          "category_list": [
            {
              "id": "161516070564222", 
              "name": "Financial Services"
            }
          ], 
          "location": {
            "city": "Campinas", 
            "zip": "", 
            "country": "Brazil", 
            "longitude": -47.129600135555002, 
            "state": "", 
            "street": "Rua Suacuna, 298", 
            "latitude": -22.967703386667001
          }
        }, 
        {
          "category": "Local business", 
          "name": "Auto Advance", 
          "id": "104061742986855", 
          "category_list": [
            {
              "id": "161516070564222", 
              "name": "Financial Services"
            }
          ], 
          "location": {
            "city": "Charleston", 
            "zip": "25071", 
            "country": "United States", 
            "longitude": -81.498126545900007, 
            "state": "WV", 
            "street": "", 
            "latitude": 38.458307675100002
          }
        }, 
        {
          "category": "Local business", 
          "name": "Advance Auto Trends", 
          "id": "111089328954080", 
          "category_list": [
            {
              "id": "187133811318958", 
              "name": "Business Services"
            }, 
            {
              "id": "145002912227813", 
              "name": "Plastics"
            }, 
            {
              "id": "182575511780536", 
              "name": "Car Parts & Accessories"
            }
          ], 
          "location": {
            "city": "Snover", 
            "zip": "48472-9728", 
            "country": "United States", 
            "longitude": -82.961828999999994, 
            "state": "MI", 
            "street": "3279 Washington St", 
            "latitude": 43.461261
          }
        }, 
        {
          "category": "Local business", 
          "name": "Advance Auto Parts", 
          "id": "138064862907712", 
          "category_list": [
            {
              "id": "187133811318958", 
              "name": "Business Services"
            }, 
            {
              "id": "182575511780536", 
              "name": "Car Parts & Accessories"
            }, 
            {
              "id": "183430408363083", 
              "name": "Electronic Equipment Service"
            }
          ], 
          "location": {
            "city": "Nutley", 
            "zip": "07110-3414", 
            "country": "United States", 
            "longitude": -74.146918999999997, 
            "state": "NJ", 
            "street": "25 Washington Ave", 
            "latitude": 40.807194000000003
          }
        }, 
        {
          "category": "Local business", 
          "name": "Advance Auto Wrecking", 
          "id": "148913305152426", 
          "category_list": [
            {
              "id": "187133811318958", 
              "name": "Business Services"
            }, 
            {
              "id": "182575511780536", 
              "name": "Car Parts & Accessories"
            }
          ], 
          "location": {
            "city": "Chula Vista", 
            "zip": "91911-6119", 
            "country": "United States", 
            "longitude": -117.014618, 
            "state": "CA", 
            "street": "777 Energy Way", 
            "latitude": 32.598166999999997
          }
        }, 
        {
          "category": "Local business", 
          "name": "Advance Auto Parts", 
          "id": "158139597550757", 
          "category_list": [
            {
              "id": "187133811318958", 
              "name": "Business Services"
            }, 
            {
              "id": "182575511780536", 
              "name": "Car Parts & Accessories"
            }, 
            {
              "id": "183430408363083", 
              "name": "Electronic Equipment Service"
            }
          ], 
          "location": {
            "city": "Girard", 
            "zip": "16417-1714", 
            "country": "United States", 
            "longitude": -80.308924000000005, 
            "state": "PA", 
            "street": "607 Main St E", 
            "latitude": 42.005415999999997
          }
        }, 
        {
          "category": "Local business", 
          "name": "Advance Auto Parts", 
          "id": "159447050754576", 
          "category_list": [
            {
              "id": "187133811318958", 
              "name": "Business Services"
            }, 
            {
              "id": "182575511780536", 
              "name": "Car Parts & Accessories"
            }, 
            {
              "id": "183430408363083", 
              "name": "Electronic Equipment Service"
            }
          ], 
          "location": {
            "city": "Indianapolis", 
            "zip": "46241-2207", 
            "country": "United States", 
            "longitude": -86.248169000000004, 
            "state": "IN", 
            "street": "5205 W Washington St", 
            "latitude": 39.753010000000003
          }
        }, 
        {
          "category": "Local business", 
          "name": "Advance Auto Parts", 
          "id": "161478747213859", 
          "category_list": [
            {
              "id": "161516070564222", 
              "name": "Financial Services"
            }, 
            {
              "id": "182575511780536", 
              "name": "Car Parts & Accessories"
            }
          ], 
          "location": {
            "city": "Memphis", 
            "zip": "38128-3801", 
            "country": "United States", 
            "longitude": -89.910133000000002, 
            "state": "TN", 
            "street": "3495 Austin Peay Hwy", 
            "latitude": 35.220973999999998
          }
        }, 
        {
          "category": "Local business", 
          "name": "Advance Auto Parts", 
          "id": "167543506595929", 
          "category_list": [
            {
              "id": "187133811318958", 
              "name": "Business Services"
            }, 
            {
              "id": "183430408363083", 
              "name": "Electronic Equipment Service"
            }, 
            {
              "id": "182575511780536", 
              "name": "Car Parts & Accessories"
            }
          ], 
          "location": {
            "city": "Millsboro", 
            "zip": "19966-1731", 
            "country": "United States", 
            "longitude": -75.296333000000004, 
            "state": "DE", 
            "street": "101 Laurel Rd", 
            "latitude": 38.585552
          }
        }, 
        {
          "category": "Professional services", 
          "name": "Advance Auto Upholstery", 
          "id": "189567484586792", 
          "category_list": [
            {
              "id": "176831012360626", 
              "name": "Professional Services"
            }
          ], 
          "location": {
            "city": "Van Nuys", 
            "zip": "91405", 
            "country": "United States", 
            "longitude": -118.448559, 
            "state": "CA", 
            "street": "7008 Van Nuys Blvd.", 
            "latitude": 34.197785000000003
          }
        }
      ]
    }
  }, 
  {
    "business_name": "Yelp Event at Ballet AZ's Nutcracker", 
    "business_id": "X25CYzSxzCgk2nO3DkrgdA", 
    "fb_pages": {
      "data": []
    }
  }, 
  {
    "business_name": "Impact Auto Body", 
    "business_id": "I6lkxbQq0sSskDlt0jCs9g", 
    "fb_pages": {
      "paging": {
        "next": "https://graph.facebook.com/search?type=place&access_token=229546593895315|yPLlHqq6YvDLIH4nL0kjJtIFSlU&limit=5000&offset=5000&__after_id=162030260488312"
      }, 
      "data": [
        {
          "category": "Local business", 
          "name": "Sudden Impact Auto Body", 
          "id": "164723490208418", 
          "category_list": [
            {
              "id": "188462984509706", 
              "name": "Auto Body Shop"
            }
          ], 
          "location": {
            "city": "Las Vegas", 
            "zip": "89121", 
            "country": "United States", 
            "longitude": -115.09657300000001, 
            "state": "NV", 
            "street": "3595 Boulder HWY", 
            "latitude": 36.142330000000001
          }
        }, 
        {
          "category": "Automotive", 
          "name": "Impact Auto Body", 
          "id": "764067213609947", 
          "category_list": [
            {
              "id": "188462984509706", 
              "name": "Auto Body Shop"
            }
          ], 
          "location": {
            "city": "Hailey", 
            "zip": "83333", 
            "country": "United States", 
            "longitude": -114.2741, 
            "state": "ID", 
            "street": "4111 Glenbrook", 
            "latitude": 43.485706
          }
        }, 
        {
          "category": "Automotive", 
          "name": "Impact Auto Body & Sales", 
          "id": "208963582449412", 
          "category_list": [
            {
              "id": "149998721725634", 
              "name": "Automotive Repair"
            }
          ], 
          "location": {
            "city": "Presque Isle", 
            "zip": "04769", 
            "country": "United States", 
            "longitude": -68.003253999999998, 
            "state": "ME", 
            "street": "90 Houlton Road", 
            "latitude": 46.652335999999998
          }
        }, 
        {
          "category": "Automotive", 
          "name": "Impact Auto Body", 
          "id": "148337335299912", 
          "category_list": [
            {
              "id": "2509", 
              "name": "Automotive"
            }
          ], 
          "location": {
            "city": "Coeur d'Alene", 
            "zip": "83814", 
            "country": "United States", 
            "longitude": -116.783951, 
            "state": "ID", 
            "street": "116 E. Appleway Ave.", 
            "latitude": 47.699936000000001
          }
        }, 
        {
          "category": "Local business", 
          "name": "Impact Auto Body", 
          "id": "126512147404719", 
          "category_list": [
            {
              "id": "188462984509706", 
              "name": "Auto Body Shop"
            }, 
            {
              "id": "162295707155272", 
              "name": "Car Wash & Detailing"
            }
          ], 
          "location": {
            "city": "Neptune", 
            "zip": "07753-4674", 
            "country": "United States", 
            "longitude": -74.032131000000007, 
            "state": "NJ", 
            "street": "440 State Route 35 N", 
            "latitude": 40.21913
          }
        }, 
        {
          "category": "Local business", 
          "name": "Impact Auto Body", 
          "id": "154363167933104", 
          "category_list": [
            {
              "id": "188462984509706", 
              "name": "Auto Body Shop"
            }
          ], 
          "location": {
            "city": "Cincinnati", 
            "zip": "45227-2109", 
            "country": "United States", 
            "longitude": -84.404777999999993, 
            "state": "OH", 
            "street": "4021 Erie Ct", 
            "latitude": 39.150565999999998
          }
        }, 
        {
          "category": "Automotive", 
          "name": "Impact Auto Body LLC", 
          "id": "414060945292282", 
          "category_list": [
            {
              "id": "188462984509706", 
              "name": "Auto Body Shop"
            }
          ], 
          "location": {
            "city": "Sheridan", 
            "zip": "82801", 
            "country": "United States", 
            "longitude": -106.95458600000001, 
            "state": "WY", 
            "street": "48 East 9th Street", 
            "latitude": 44.810791999999999
          }
        }, 
        {
          "category": "Automotive", 
          "name": "Impact Auto Body LLC", 
          "id": "454137421285902", 
          "category_list": [
            {
              "id": "2509", 
              "name": "Automotive"
            }
          ], 
          "location": {
            "city": "Saint Albans", 
            "zip": "25177", 
            "country": "United States", 
            "longitude": -81.857712000000006, 
            "state": "WV", 
            "street": "104 A Winfield Rd ", 
            "latitude": 38.405861000000002
          }
        }, 
        {
          "category": "Local business", 
          "name": "Impact Auto Body-Auto Sales", 
          "id": "167731369910171", 
          "category_list": [
            {
              "id": "188462984509706", 
              "name": "Auto Body Shop"
            }, 
            {
              "id": "131962450204676", 
              "name": "Car Dealership"
            }
          ], 
          "location": {
            "city": "Port Jefferson Station", 
            "zip": "11776-1224", 
            "country": "United States", 
            "longitude": -73.047413000000006, 
            "state": "NY", 
            "street": "339 Hallock Ave", 
            "latitude": 40.932308999999997
          }
        }, 
        {
          "category": "Automotive", 
          "name": "Sudden Impact Auto Body & Glass LTD", 
          "id": "85634924958", 
          "category_list": [
            {
              "id": "2509", 
              "name": "Automotive"
            }
          ], 
          "location": {
            "city": "Surrey", 
            "zip": "v3w 0l6", 
            "country": "Canada", 
            "longitude": -122.87958, 
            "state": "BC", 
            "street": "1- 12372 82 A Avenue", 
            "latitude": 49.152990000000003
          }
        }, 
        {
          "category": "Local business", 
          "name": "Impact Auto", 
          "id": "126071200780313", 
          "category_list": [
            {
              "id": "188462984509706", 
              "name": "Auto Body Shop"
            }
          ], 
          "location": {
            "city": "Hartford", 
            "zip": "57033-6306", 
            "country": "United States", 
            "longitude": -96.949556000000001, 
            "state": "SD", 
            "street": "46304 Jeffrey St", 
            "latitude": 43.606020000000001
          }
        }, 
        {
          "category": "Local business", 
          "name": "High Impact Auto Body & Collision Specialist", 
          "id": "110794995650519", 
          "category_list": [
            {
              "id": "193198380699462", 
              "name": "Repair Service"
            }, 
            {
              "id": "188462984509706", 
              "name": "Auto Body Shop"
            }
          ], 
          "location": {
            "city": "Homestead", 
            "zip": "33032-2424", 
            "country": "United States", 
            "longitude": -80.399764000000005, 
            "state": "FL", 
            "street": "23635 S Dixie Hwy", 
            "latitude": 25.547650999999998
          }
        }, 
        {
          "category": "Local business", 
          "name": "Sudden Impact Auto Body & Paint Shop", 
          "id": "133595560024978", 
          "category_list": [
            {
              "id": "186712678028215", 
              "name": "Automotive Customizing"
            }, 
            {
              "id": "188462984509706", 
              "name": "Auto Body Shop"
            }, 
            {
              "id": "108287585916424", 
              "name": "Motorcycle Repair"
            }
          ], 
          "location": {
            "city": "Salisbury", 
            "zip": "28147-7669", 
            "country": "United States", 
            "longitude": -80.590103999999997, 
            "state": "NC", 
            "street": "6330 Mooresville Rd", 
            "latitude": 35.653922000000001
          }
        }, 
        {
          "category": "Local business", 
          "name": "Hard Impact Auto Body", 
          "id": "162405650445599", 
          "category_list": [
            {
              "id": "188462984509706", 
              "name": "Auto Body Shop"
            }
          ], 
          "location": {
            "city": "Saint Johnsbury", 
            "zip": "05819-2056", 
            "country": "United States", 
            "longitude": -72.007171999999997, 
            "state": "VT", 
            "street": "425 Portland St", 
            "latitude": 44.421066000000003
          }
        }, 
        {
          "category": "Automotive", 
          "name": "Auto Impact Solutions", 
          "id": "248946588585257", 
          "category_list": [
            {
              "id": "188462984509706", 
              "name": "Auto Body Shop"
            }
          ], 
          "location": {
            "city": "Didcot", 
            "zip": "", 
            "country": "United Kingdom", 
            "longitude": -1.25, 
            "state": "", 
            "street": "", 
            "latitude": 51.600000000000001
          }
        }, 
        {
          "category": "Automotive", 
          "name": "Initial Impact", 
          "id": "131448733725189", 
          "category_list": [
            {
              "id": "188462984509706", 
              "name": "Auto Body Shop"
            }
          ], 
          "location": {
            "city": "Salisbury", 
            "zip": "Sp20ld", 
            "country": "United Kingdom", 
            "longitude": -1.7833300000000001, 
            "state": "", 
            "street": "South Newton Ind Est", 
            "latitude": 51.066699999999997
          }
        }, 
        {
          "category": "Automotive", 
          "name": "Impact Collision Autobody Repair: 20+ yrs experience", 
          "id": "689469217737828", 
          "category_list": [
            {
              "id": "188462984509706", 
              "name": "Auto Body Shop"
            }
          ], 
          "location": {
            "city": "Oklahoma City", 
            "zip": "73129", 
            "country": "United States", 
            "longitude": -97.494263000000004, 
            "state": "OK", 
            "street": "1025 S.E 44th St", 
            "latitude": 35.421004000000003
          }
        }, 
        {
          "category": "Local business", 
          "name": "Impact Paint & Body", 
          "id": "105290636203205", 
          "category_list": [
            {
              "id": "188462984509706", 
              "name": "Auto Body Shop"
            }
          ], 
          "location": {
            "city": "Fort Lauderdale", 
            "zip": "33309-2002", 
            "country": "United States", 
            "longitude": -80.155181999999996, 
            "state": "FL", 
            "street": "5700 Powerline Rd", 
            "latitude": 26.197579999999999
          }
        }, 
        {
          "category": "Local business", 
          "name": "Impact Body Reprs", 
          "id": "133816443337799", 
          "category_list": [
            {
              "id": "188462984509706", 
              "name": "Auto Body Shop"
            }
          ], 
          "location": {
            "city": "Bronx", 
            "zip": "10470-1408", 
            "country": "United States", 
            "longitude": -73.856468000000007, 
            "state": "NY", 
            "street": "4454 Bronx Blvd", 
            "latitude": 40.901096000000003
          }
        }, 
        {
          "category": "Local business", 
          "name": "Impact Auto Sales & Service", 
          "id": "104946829560774", 
          "category_list": [
            {
              "id": "188462984509706", 
              "name": "Auto Body Shop"
            }
          ], 
          "location": {
            "city": "Acme", 
            "zip": "15610", 
            "country": "United States", 
            "longitude": -79.413468875099994, 
            "state": "PA", 
            "street": "152 Austin Blvd", 
            "latitude": 40.1548860921
          }
        }, 
        {
          "category": "Automotive", 
          "name": "Impact Autodent", 
          "id": "678162218863597", 
          "category_list": [
            {
              "id": "188462984509706", 
              "name": "Auto Body Shop"
            }, 
            {
              "id": "124718197599943", 
              "name": "Automotive Restoration"
            }
          ], 
          "location": {
            "city": "Castle Hill", 
            "zip": "2154", 
            "country": "Australia", 
            "longitude": 150.97788499999999, 
            "state": "NSW", 
            "street": "Anella Ave", 
            "latitude": -33.726640000000003
          }
        }, 
        {
          "category": "Local business", 
          "name": "Impact Collision Auto Body", 
          "id": "120936704631786", 
          "category_list": [
            {
              "id": "188462984509706", 
              "name": "Auto Body Shop"
            }
          ], 
          "location": {
            "city": "Philadelphia", 
            "zip": "19153-3400", 
            "country": "United States", 
            "longitude": -75.226082000000005, 
            "state": "PA", 
            "street": "6940 Norwitch Dr", 
            "latitude": 39.908366999999998
          }
        }, 
        {
          "category": "Local business", 
          "name": "Auto Impact Service", 
          "id": "162754807076313", 
          "category_list": [
            {
              "id": "188462984509706", 
              "name": "Auto Body Shop"
            }, 
            {
              "id": "182575511780536", 
              "name": "Car Parts & Accessories"
            }
          ], 
          "location": {
            "city": "Montpelier", 
            "zip": "43543-9631", 
            "country": "United States", 
            "longitude": -84.536196000000004, 
            "state": "OH", 
            "street": "10222 County Road 15", 
            "latitude": 41.560792999999997
          }
        }, 
        {
          "category": "Automotive", 
          "name": "Impact Collision", 
          "id": "468454493218768", 
          "category_list": [
            {
              "id": "2509", 
              "name": "Automotive"
            }
          ], 
          "location": {
            "city": "Amityville", 
            "zip": "11701", 
            "country": "United States", 
            "longitude": -73.415893999999994, 
            "state": "NY", 
            "street": "195 Sunrise Highway", 
            "latitude": 40.687987999999997
          }
        }, 
        {
          "category": "Local business", 
          "name": "Final Impact", 
          "id": "125290630859759", 
          "category_list": [
            {
              "id": "188462984509706", 
              "name": "Auto Body Shop"
            }
          ], 
          "location": {
            "city": "Clifton Heights", 
            "zip": "19018-2622", 
            "country": "United States", 
            "longitude": -75.288365999999996, 
            "state": "PA", 
            "street": "300 E Madison Ave Ste 1", 
            "latitude": 39.929017999999999
          }
        }, 
        {
          "category": "Automotive", 
          "name": "Impact Reconstrucciones Automotrices S.A De C.V", 
          "id": "332544173550720", 
          "category_list": [
            {
              "id": "188462984509706", 
              "name": "Auto Body Shop"
            }, 
            {
              "id": "139492049448901", 
              "name": "Automotive Parts & Accessories"
            }
          ], 
          "location": {
            "city": "Saltillo", 
            "zip": "25115", 
            "country": "Mexico", 
            "longitude": -101.01939, 
            "state": "", 
            "street": "Vialidad futura", 
            "latitude": 25.394600000000001
          }
        }, 
        {
          "category": "Automotive", 
          "name": "Major Impact Inc.", 
          "id": "164017920283616", 
          "category_list": [
            {
              "id": "188462984509706", 
              "name": "Auto Body Shop"
            }, 
            {
              "id": "174972792548177", 
              "name": "Towing Service"
            }, 
            {
              "id": "149998721725634", 
              "name": "Automotive Repair"
            }
          ], 
          "location": {
            "city": "Carver", 
            "zip": "02330-1347", 
            "country": "United States", 
            "longitude": -70.778923000000006, 
            "state": "MA", 
            "street": "60 Main St", 
            "latitude": 41.895499999999998
          }
        }, 
        {
          "category": "Local business", 
          "name": "Sudden Impact", 
          "id": "116027445123400", 
          "category_list": [
            {
              "id": "188462984509706", 
              "name": "Auto Body Shop"
            }
          ], 
          "location": {
            "city": "Wiggins", 
            "zip": "39577-8131", 
            "country": "United States", 
            "longitude": -89.157933, 
            "state": "MS", 
            "street": "664 Frontage Dr W", 
            "latitude": 30.853249999999999
          }
        }, 
        {
          "category": "Local business", 
          "name": "Sudden Impact", 
          "id": "213650211994836", 
          "category_list": [
            {
              "id": "188462984509706", 
              "name": "Auto Body Shop"
            }
          ], 
          "location": {
            "city": "Houston", 
            "zip": "77019", 
            "country": "United States", 
            "longitude": -95.378803801000004, 
            "state": "TX", 
            "street": "", 
            "latitude": 29.7533964237
          }
        }, 
        {
          "category": "Local business", 
          "name": "New Impact Auto Collision", 
          "id": "134281353289740", 
          "category_list": [
            {
              "id": "188462984509706", 
              "name": "Auto Body Shop"
            }
          ], 
          "location": {
            "city": "Columbia", 
            "zip": "65203-3922", 
            "country": "United States", 
            "longitude": -92.336922000000001, 
            "state": "MO", 
            "street": "1406 Indiana Ave", 
            "latitude": 38.966763
          }
        }, 
        {
          "category": "Local business", 
          "name": "Impact Auto Collision Center", 
          "id": "158770197488599", 
          "category_list": [
            {
              "id": "188462984509706", 
              "name": "Auto Body Shop"
            }
          ], 
          "location": {
            "city": "Escondido", 
            "zip": "92029-1013", 
            "country": "United States", 
            "longitude": -117.12326400000001, 
            "state": "CA", 
            "street": "2128 Mission Rd", 
            "latitude": 33.131084000000001
          }
        }, 
        {
          "category": "Local business", 
          "name": "Impact Collision", 
          "id": "167312583284790", 
          "category_list": [
            {
              "id": "188462984509706", 
              "name": "Auto Body Shop"
            }
          ], 
          "location": {
            "city": "Oklahoma City", 
            "zip": "73129-6809", 
            "country": "United States", 
            "longitude": -97.494263000000004, 
            "state": "OK", 
            "street": "1025 SE 44th St", 
            "latitude": 35.421004000000003
          }
        }, 
        {
          "category": "Automotive", 
          "name": "Impact Collision Center Inc.", 
          "id": "185193564852186", 
          "category_list": [
            {
              "id": "188462984509706", 
              "name": "Auto Body Shop"
            }
          ], 
          "location": {
            "city": "Woodbury", 
            "zip": "08096", 
            "country": "United States", 
            "longitude": -75.141563000000005, 
            "state": "NJ", 
            "street": "1022 N. Evergreen Ave. ", 
            "latitude": 39.849594000000003
          }
        }, 
        {
          "category": "Local business", 
          "name": "Sudden Impact Collision", 
          "id": "115902128470890", 
          "category_list": [
            {
              "id": "188462984509706", 
              "name": "Auto Body Shop"
            }
          ], 
          "location": {
            "city": "Abilene", 
            "zip": "79605-5138", 
            "country": "United States", 
            "longitude": -99.755240999999998, 
            "state": "TX", 
            "street": "2701 S 14th St", 
            "latitude": 32.431972999999999
          }
        }, 
        {
          "category": "Local business", 
          "name": "Impact Collision Repair", 
          "id": "161284407226958", 
          "category_list": [
            {
              "id": "188462984509706", 
              "name": "Auto Body Shop"
            }
          ], 
          "location": {
            "city": "Birmingham", 
            "zip": "35211-2604", 
            "country": "United States", 
            "longitude": -86.855216999999996, 
            "state": "AL", 
            "street": "704 14th St SW", 
            "latitude": 33.491745000000002
          }
        }, 
        {
          "category": "Local business", 
          "name": "Impact Collision Center", 
          "id": "167240803286578", 
          "category_list": [
            {
              "id": "188462984509706", 
              "name": "Auto Body Shop"
            }
          ], 
          "location": {
            "city": "Madison", 
            "zip": "37115-2138", 
            "country": "United States", 
            "longitude": -86.707374000000002, 
            "state": "TN", 
            "street": "916 Old Dry Creek Rd", 
            "latitude": 36.283642999999998
          }
        }, 
        {
          "category": "Local business", 
          "name": "Visual Impact Automotive", 
          "id": "117494794977037", 
          "category_list": [
            {
              "id": "188462984509706", 
              "name": "Auto Body Shop"
            }
          ], 
          "location": {
            "city": "Langhorne", 
            "zip": "19047-5139", 
            "country": "United States", 
            "longitude": -74.919032999999999, 
            "state": "PA", 
            "street": "376 W Lincoln Hwy", 
            "latitude": 40.157120999999997
          }
        }, 
        {
          "category": "Local business", 
          "name": "Pendley's Al Impact Center", 
          "id": "146370205408464", 
          "category_list": [
            {
              "id": "188462984509706", 
              "name": "Auto Body Shop"
            }
          ], 
          "location": {
            "city": "Prattville", 
            "zip": "36067-6203", 
            "country": "United States", 
            "longitude": -86.441040000000001, 
            "state": "AL", 
            "street": "1260 S Memorial Dr", 
            "latitude": 32.448684999999998
          }
        }, 
        {
          "category": "Local business", 
          "name": "Impact Paintless Dent Repair", 
          "id": "138526936194696", 
          "category_list": [
            {
              "id": "188462984509706", 
              "name": "Auto Body Shop"
            }
          ], 
          "location": {
            "city": "Spearfish", 
            "zip": "57783", 
            "country": "United States", 
            "longitude": -103.80838, 
            "state": "SD", 
            "street": "", 
            "latitude": 44.470790000000001
          }
        }, 
        {
          "category": "Local business", 
          "name": "Sudden Impact Collision Center", 
          "id": "204177429605526", 
          "category_list": [
            {
              "id": "188462984509706", 
              "name": "Auto Body Shop"
            }
          ], 
          "location": {
            "city": "Glen Burnie", 
            "zip": "", 
            "country": "United States", 
            "longitude": -76.615095395899999, 
            "state": "MD", 
            "street": "", 
            "latitude": 39.182109443800002
          }
        }, 
        {
          "category": "Local business", 
          "name": "Impact Collision & Restoration", 
          "id": "141818325864391", 
          "category_list": [
            {
              "id": "188462984509706", 
              "name": "Auto Body Shop"
            }, 
            {
              "id": "149998721725634", 
              "name": "Automotive Repair"
            }
          ], 
          "location": {
            "city": "Cowpens", 
            "zip": "29330", 
            "country": "United States", 
            "longitude": -81.857991999999996, 
            "state": "SC", 
            "street": "435 Mayo Rd", 
            "latitude": 35.078142999999997
          }
        }, 
        {
          "category": "Local business", 
          "name": "Impact Vehicle Damage Erasure", 
          "id": "155032654531947", 
          "category_list": [
            {
              "id": "188462984509706", 
              "name": "Auto Body Shop"
            }
          ], 
          "location": {
            "city": "Grand Rapids", 
            "zip": "49512-2018", 
            "country": "United States", 
            "longitude": -85.529728000000006, 
            "state": "MI", 
            "street": "5566 36th St SE", 
            "latitude": 42.897885000000002
          }
        }, 
        {
          "category": "Local business", 
          "name": "Sudden Impact Collision Center", 
          "id": "104636579604317", 
          "category_list": [
            {
              "id": "188462984509706", 
              "name": "Auto Body Shop"
            }
          ], 
          "location": {
            "city": "Mundelein", 
            "zip": "60060-4613", 
            "country": "United States", 
            "longitude": -87.991652999999999, 
            "state": "IL", 
            "street": "849 E Us Highway 45", 
            "latitude": 42.234596000000003
          }
        }, 
        {
          "category": "Local business", 
          "name": "Impact Collison & Custom Service", 
          "id": "142003032512940", 
          "category_list": [
            {
              "id": "188462984509706", 
              "name": "Auto Body Shop"
            }
          ], 
          "location": {
            "city": "Marietta", 
            "zip": "30060-9281", 
            "country": "United States", 
            "longitude": -84.494698, 
            "state": "GA", 
            "street": "1875 Airport Ind Park Dr SE", 
            "latitude": 33.906322000000003
          }
        }, 
        {
          "category": "Local business", 
          "name": "Sudden Impact Collision Center", 
          "id": "170683016279837", 
          "category_list": [
            {
              "id": "188462984509706", 
              "name": "Auto Body Shop"
            }
          ], 
          "location": {
            "city": "Harpersville", 
            "zip": "35078-6620", 
            "country": "United States", 
            "longitude": -86.405272999999994, 
            "state": "AL", 
            "street": "4397 Highway 280", 
            "latitude": 33.323582000000002
          }
        }, 
        {
          "category": "Local business", 
          "name": "C-M Motors Impact Collision Center", 
          "id": "126695850718067", 
          "category_list": [
            {
              "id": "188462984509706", 
              "name": "Auto Body Shop"
            }, 
            {
              "id": "131962450204676", 
              "name": "Car Dealership"
            }
          ], 
          "location": {
            "city": "Chicago", 
            "zip": "60625-1602", 
            "country": "United States", 
            "longitude": -87.679567000000006, 
            "state": "IL", 
            "street": "4534 N Damen Ave", 
            "latitude": 41.964443000000003
          }
        }, 
        {
          "category": "Local business", 
          "name": "Impact City Car & Truck Collision Repair", 
          "id": "162030260488312", 
          "category_list": [
            {
              "id": "188462984509706", 
              "name": "Auto Body Shop"
            }, 
            {
              "id": "149998721725634", 
              "name": "Automotive Repair"
            }
          ], 
          "location": {
            "city": "Columbus", 
            "zip": "43227-2257", 
            "country": "United States", 
            "longitude": -82.904471999999998, 
            "state": "OH", 
            "street": "3480 E Fulton St", 
            "latitude": 39.952606000000003
          }
        }
      ]
    }
  }, 
  {
    "business_name": "F\u00e0n Boy at ASU", 
    "business_id": "E5CDCVDHpNzTPh5F3Pbppg", 
    "fb_pages": {
      "data": []
    }
  }, 
  {
    "business_name": "Lee's Sandwiches", 
    "business_id": "e9nN4XxjdHj4qtKCOPq_vg", 
    "fb_pages": {
      "paging": {
        "next": "https://graph.facebook.com/search?type=place&access_token=229546593895315|yPLlHqq6YvDLIH4nL0kjJtIFSlU&limit=5000&offset=5000&__after_id=113667888666483"
      }, 
      "data": [
        {
          "category": "Local business", 
          "name": "Lee's Sandwiches", 
          "id": "204872909524180", 
          "category_list": [
            {
              "id": "188296324525457", 
              "name": "Sandwich Shop"
            }, 
            {
              "id": "155136917876965", 
              "name": "Vietnamese Restaurant"
            }
          ], 
          "location": {
            "city": "Las Vegas", 
            "zip": "89102", 
            "country": "United States", 
            "longitude": -115.1929513292, 
            "state": "NV", 
            "street": "3989 Spring Mountain Rd.", 
            "latitude": 36.126185299414999
          }
        }, 
        {
          "category": "Local business", 
          "name": "Lee*s Sandwiches", 
          "id": "300245486714791", 
          "category_list": [
            {
              "id": "273819889375819", 
              "name": "Restaurant"
            }, 
            {
              "id": "128673187201735", 
              "name": "Coffee Shop"
            }
          ], 
          "location": {
            "city": "Long Beach", 
            "zip": "90805", 
            "country": "United States", 
            "longitude": -118.1683968788, 
            "state": "CA", 
            "street": "6598 Cherry Ave, #B", 
            "latitude": 33.874318308066002
          }
        }, 
        {
          "category": "Restaurant/cafe", 
          "name": "Lee's Sandwiches", 
          "id": "120723014607609", 
          "category_list": [
            {
              "id": "273819889375819", 
              "name": "Restaurant"
            }
          ], 
          "location": {
            "city": "Oklahoma City", 
            "zip": "73118-3428", 
            "country": "United States", 
            "longitude": -97.533988585605996, 
            "state": "OK", 
            "street": "3300 N Classen Blvd", 
            "latitude": 35.503223737206
          }
        }, 
        {
          "category": "Local business", 
          "name": "Lee's Sandwiches", 
          "id": "286055294873613", 
          "category_list": [
            {
              "id": "165679780146824", 
              "name": "Food & Restaurant"
            }
          ], 
          "location": {
            "city": "Torrance", 
            "zip": "90501", 
            "country": "United States", 
            "longitude": -118.32809079188, 
            "state": "CA", 
            "street": "2730 Crenshaw Blvd Suite D", 
            "latitude": 33.823625891261003
          }
        }, 
        {
          "category": "Local business", 
          "name": "Lee's Sandwiches", 
          "id": "205954342776004", 
          "category_list": [
            {
              "id": "188296324525457", 
              "name": "Sandwich Shop"
            }, 
            {
              "id": "155136917876965", 
              "name": "Vietnamese Restaurant"
            }, 
            {
              "id": "188334264523313", 
              "name": "Deli"
            }
          ], 
          "location": {
            "city": "Garden Grove", 
            "zip": "92840", 
            "country": "United States", 
            "longitude": -117.91764846258, 
            "state": "CA", 
            "street": "12905 Harbor Boulevard", 
            "latitude": 33.776080353745002
          }
        }, 
        {
          "category": "Local business", 
          "name": "Lee's Sandwiches", 
          "id": "117726614920399", 
          "category_list": [
            {
              "id": "197871390225897", 
              "name": "Cafe"
            }, 
            {
              "id": "188296324525457", 
              "name": "Sandwich Shop"
            }, 
            {
              "id": "188334264523313", 
              "name": "Deli"
            }
          ], 
          "location": {
            "city": "Rosemead", 
            "zip": "91770-1743", 
            "country": "United States", 
            "longitude": -118.07788706940001, 
            "state": "CA", 
            "street": "8779 Valley Blvd", 
            "latitude": 34.080884605687999
          }
        }, 
        {
          "category": "Local business", 
          "name": "Lee's Sandwiches", 
          "id": "120989061248457", 
          "category_list": [
            {
              "id": "128673187201735", 
              "name": "Coffee Shop"
            }, 
            {
              "id": "188296324525457", 
              "name": "Sandwich Shop"
            }
          ], 
          "location": {
            "city": "Fullerton", 
            "zip": "92832-3009", 
            "country": "United States", 
            "longitude": -117.92383385415999, 
            "state": "CA", 
            "street": "1028 S Harbor Blvd", 
            "latitude": 33.861254476991
          }
        }, 
        {
          "category": "Local business", 
          "name": "Lee's Sandwiches", 
          "id": "154008311276457", 
          "category_list": [
            {
              "id": "188334264523313", 
              "name": "Deli"
            }, 
            {
              "id": "188296324525457", 
              "name": "Sandwich Shop"
            }, 
            {
              "id": "128673187201735", 
              "name": "Coffee Shop"
            }
          ], 
          "location": {
            "city": "Artesia", 
            "zip": "90701-3951", 
            "country": "United States", 
            "longitude": -118.08269254552, 
            "state": "CA", 
            "street": "18001 Pioneer Blvd", 
            "latitude": 33.867568063232
          }
        }, 
        {
          "category": "Local business", 
          "name": "Lee's Sandwiches", 
          "id": "160118284006138", 
          "category_list": [
            {
              "id": "188334264523313", 
              "name": "Deli"
            }, 
            {
              "id": "155136917876965", 
              "name": "Vietnamese Restaurant"
            }, 
            {
              "id": "197871390225897", 
              "name": "Cafe"
            }
          ], 
          "location": {
            "city": "Irvine", 
            "zip": "92612-2645", 
            "country": "United States", 
            "longitude": -117.83963586372001, 
            "state": "CA", 
            "street": "4127 Campus Dr", 
            "latitude": 33.649588567575996
          }
        }, 
        {
          "category": "Local business", 
          "name": "Lee's Sandwiches", 
          "id": "156174467789944", 
          "category_list": [
            {
              "id": "192803624072087", 
              "name": "Fast Food Restaurant"
            }
          ], 
          "location": {
            "city": "West Covina", 
            "zip": "91790 ", 
            "country": "United States", 
            "longitude": -117.93170152989001, 
            "state": "CA", 
            "street": "", 
            "latitude": 34.071365772054001
          }
        }, 
        {
          "category": "Local business", 
          "name": "Lee's Sandwiches", 
          "id": "193501757355183", 
          "category_list": [
            {
              "id": "273819889375819", 
              "name": "Restaurant"
            }
          ], 
          "location": {
            "city": "Chandler", 
            "zip": "85224", 
            "country": "United States", 
            "longitude": -111.87492244772, 
            "state": "AZ", 
            "street": "", 
            "latitude": 33.334649561143003
          }
        }, 
        {
          "category": "Local business", 
          "name": "Lee's Sandwiches", 
          "id": "111452405561841", 
          "category_list": [
            {
              "id": "188296324525457", 
              "name": "Sandwich Shop"
            }, 
            {
              "id": "155136917876965", 
              "name": "Vietnamese Restaurant"
            }, 
            {
              "id": "188334264523313", 
              "name": "Deli"
            }
          ], 
          "location": {
            "city": "San Jose", 
            "zip": "95113-1908", 
            "country": "United States", 
            "longitude": -121.88485296938001, 
            "state": "CA", 
            "street": "260 E Santa Clara St", 
            "latitude": 37.338528033800998
          }
        }, 
        {
          "category": "Local business", 
          "name": "Lee's Sandwiches", 
          "id": "207737416010755", 
          "category_list": [
            {
              "id": "273819889375819", 
              "name": "Restaurant"
            }
          ], 
          "location": {
            "city": "Henderson", 
            "zip": "89123", 
            "country": "United States", 
            "longitude": -115.11726282449, 
            "state": "NV", 
            "street": "", 
            "latitude": 36.015656874712001
          }
        }, 
        {
          "category": "Local business", 
          "name": "Lee's Sandwiches", 
          "id": "107101589347800", 
          "category_list": [
            {
              "id": "188334264523313", 
              "name": "Deli"
            }, 
            {
              "id": "185855984789970", 
              "name": "Asian Restaurant"
            }, 
            {
              "id": "188296324525457", 
              "name": "Sandwich Shop"
            }
          ], 
          "location": {
            "city": "San Jose", 
            "zip": "95133-1300", 
            "country": "United States", 
            "longitude": -121.86192616194, 
            "state": "CA", 
            "street": "2471 Berryessa Rd", 
            "latitude": 37.386207153877002
          }
        }, 
        {
          "category": "Local business", 
          "name": "Lee's Sandwiches", 
          "id": "115629858466259", 
          "category_list": [
            {
              "id": "188334264523313", 
              "name": "Deli"
            }
          ], 
          "location": {
            "city": "Fountain Valley", 
            "zip": "92708-1373", 
            "country": "United States", 
            "longitude": -117.92030983822001, 
            "state": "CA", 
            "street": "16155 Harbor Blvd", 
            "latitude": 33.728844021664003
          }
        }, 
        {
          "category": "Local business", 
          "name": "Lee's Sandwiches", 
          "id": "151130258233154", 
          "category_list": [
            {
              "id": "188334264523313", 
              "name": "Deli"
            }, 
            {
              "id": "155136917876965", 
              "name": "Vietnamese Restaurant"
            }
          ], 
          "location": {
            "city": "Milpitas", 
            "zip": "95035-5203", 
            "country": "United States", 
            "longitude": -121.91134516099, 
            "state": "CA", 
            "street": "279 W Calaveras Blvd", 
            "latitude": 37.427395174905001
          }
        }, 
        {
          "category": "Restaurant/cafe", 
          "name": "Lee's Sandwiches Houston", 
          "id": "127937080639958", 
          "category_list": [
            {
              "id": "188296324525457", 
              "name": "Sandwich Shop"
            }, 
            {
              "id": "155136917876965", 
              "name": "Vietnamese Restaurant"
            }, 
            {
              "id": "200742186618963", 
              "name": "Vegetarian & Vegan Restaurant"
            }
          ], 
          "location": {
            "city": "Houston", 
            "zip": "77072-2516", 
            "country": "United States", 
            "longitude": -95.576249399096, 
            "state": "TX", 
            "street": "11210 Bellaire Blvd # 113", 
            "latitude": 29.704280268237
          }
        }, 
        {
          "category": "Local business", 
          "name": "Lee's Sandwiches", 
          "id": "159881474051219", 
          "category_list": [
            {
              "id": "128673187201735", 
              "name": "Coffee Shop"
            }, 
            {
              "id": "155136917876965", 
              "name": "Vietnamese Restaurant"
            }
          ], 
          "location": {
            "city": "Monterey Park", 
            "zip": "91754", 
            "country": "United States", 
            "longitude": -118.13398294472, 
            "state": "CA", 
            "street": "500 N Atlantic Blvd", 
            "latitude": 34.068020387708003
          }
        }, 
        {
          "category": "Local business", 
          "name": "Lee's Sandwiches", 
          "id": "178929668860941", 
          "category_list": [
            {
              "id": "155136917876965", 
              "name": "Vietnamese Restaurant"
            }
          ], 
          "location": {
            "city": "Westminster", 
            "zip": "92683", 
            "country": "United States", 
            "longitude": -117.96759513783, 
            "state": "CA", 
            "street": "", 
            "latitude": 33.745272590029003
          }
        }, 
        {
          "category": "Local business", 
          "name": "Lee's Sandwiches", 
          "id": "109388615768160", 
          "category_list": [
            {
              "id": "188296324525457", 
              "name": "Sandwich Shop"
            }
          ], 
          "location": {
            "city": "Alhambra", 
            "zip": "91801-5235", 
            "country": "United States", 
            "longitude": -118.11052366473, 
            "state": "CA", 
            "street": "1289 E Valley Blvd", 
            "latitude": 34.079579178761001
          }
        }, 
        {
          "category": "Local business", 
          "name": "Lee's Sandwiches", 
          "id": "155251207835459", 
          "category_list": [
            {
              "id": "185855984789970", 
              "name": "Asian Restaurant"
            }
          ], 
          "location": {
            "city": "Garland", 
            "zip": "75044", 
            "country": "United States", 
            "longitude": -96.681135713591004, 
            "state": "TX", 
            "street": "3212 N Jupiter Rd", 
            "latitude": 32.947385645750998
          }
        }, 
        {
          "category": "Local business", 
          "name": "Lee's Sandwiches", 
          "id": "320056918083796", 
          "category_list": [
            {
              "id": "273819889375819", 
              "name": "Restaurant"
            }
          ], 
          "location": {
            "city": "Long Beach", 
            "zip": "90804", 
            "country": "United States", 
            "longitude": -118.15702448573001, 
            "state": "CA", 
            "street": "", 
            "latitude": 33.782332861798999
          }
        }, 
        {
          "category": "Local business", 
          "name": "Lee's Sandwiches", 
          "id": "135344043325367", 
          "category_list": [
            {
              "id": "273819889375819", 
              "name": "Restaurant"
            }, 
            {
              "id": "128673187201735", 
              "name": "Coffee Shop"
            }
          ], 
          "location": {
            "city": "Bellflower", 
            "zip": "90706", 
            "country": "United States", 
            "longitude": -118.142489938, 
            "state": "CA", 
            "street": "Rosecrans Ave", 
            "latitude": 33.903959248
          }
        }, 
        {
          "category": "Local business", 
          "name": "Lee's Sandwiches", 
          "id": "128244230555152", 
          "category_list": [
            {
              "id": "192803624072087", 
              "name": "Fast Food Restaurant"
            }, 
            {
              "id": "188296324525457", 
              "name": "Sandwich Shop"
            }, 
            {
              "id": "155136917876965", 
              "name": "Vietnamese Restaurant"
            }
          ], 
          "location": {
            "city": "Cupertino", 
            "zip": "95014-2225", 
            "country": "United States", 
            "longitude": -122.02983029994, 
            "state": "CA", 
            "street": "20363 Stevens Creek Blvd", 
            "latitude": 37.323520669787001
          }
        }, 
        {
          "category": "Local business", 
          "name": "Lee's Sandwiches", 
          "id": "404251379617592", 
          "category_list": [
            {
              "id": "188296324525457", 
              "name": "Sandwich Shop"
            }
          ], 
          "location": {
            "city": "Pasadena", 
            "zip": "91101", 
            "country": "United States", 
            "longitude": -118.13461548127, 
            "state": "CA", 
            "street": "766 E Colorado Blvd Ste 100", 
            "latitude": 34.145898496671997
          }
        }, 
        {
          "category": "Local business", 
          "name": "Lee's Sandwiches", 
          "id": "116248681732815", 
          "category_list": [
            {
              "id": "155136917876965", 
              "name": "Vietnamese Restaurant"
            }, 
            {
              "id": "150108431712141", 
              "name": "Food & Grocery"
            }, 
            {
              "id": "188296324525457", 
              "name": "Sandwich Shop"
            }
          ], 
          "location": {
            "city": "San Jose", 
            "zip": "95111-3633", 
            "country": "United States", 
            "longitude": -121.83457889125999, 
            "state": "CA", 
            "street": "4060 Monterey Hwy", 
            "latitude": 37.278615686191998
          }
        }, 
        {
          "category": "Local business", 
          "name": "Lee's Sandwiches", 
          "id": "115977585097029", 
          "category_list": [
            {
              "id": "174483852595760", 
              "name": "Chinese Restaurant"
            }, 
            {
              "id": "128673187201735", 
              "name": "Coffee Shop"
            }
          ], 
          "location": {
            "city": "Westminster", 
            "zip": "92683-4943", 
            "country": "United States", 
            "longitude": -118.01118485819001, 
            "state": "CA", 
            "street": "1025 Westminster Mall", 
            "latitude": 33.746980444438996
          }
        }, 
        {
          "category": "Local business", 
          "name": "Lee's Sandwiches", 
          "id": "569635986396675", 
          "category_list": [
            {
              "id": "273819889375819", 
              "name": "Restaurant"
            }
          ], 
          "location": {
            "city": "Commerce", 
            "zip": "90040", 
            "country": "United States", 
            "longitude": -118.16704755072, 
            "state": "CA", 
            "street": "", 
            "latitude": 34.002976995108
          }
        }, 
        {
          "category": "Local business", 
          "name": "Lee's Sandwiches", 
          "id": "444066035637061", 
          "category_list": [
            {
              "id": "197871390225897", 
              "name": "Cafe"
            }
          ], 
          "location": {
            "city": "Huntington Beach", 
            "zip": "92647", 
            "country": "United States", 
            "longitude": -118.006515175, 
            "state": "CA", 
            "street": "", 
            "latitude": 33.729423898199997
          }
        }, 
        {
          "category": "Local business", 
          "name": "Lee's Sandwiches", 
          "id": "159599204062309", 
          "category_list": [
            {
              "id": "196739023685716", 
              "name": "Real Estate Agent"
            }, 
            {
              "id": "273819889375819", 
              "name": "Restaurant"
            }
          ], 
          "location": {
            "city": "Lake Forest", 
            "zip": "92630-8900", 
            "country": "United States", 
            "longitude": -117.70142316348, 
            "state": "CA", 
            "street": "23624 El Toro Rd Ste C", 
            "latitude": 33.617857980417
          }
        }, 
        {
          "category": "Local business", 
          "name": "Lee's Sandwiches", 
          "id": "146495178708417", 
          "category_list": [
            {
              "id": "188334264523313", 
              "name": "Deli"
            }
          ], 
          "location": {
            "city": "San Jose", 
            "zip": "95116-1609", 
            "country": "United States", 
            "longitude": -121.84999846045, 
            "state": "CA", 
            "street": "2307 Mckee Rd", 
            "latitude": 37.365852540298
          }
        }, 
        {
          "category": "Food/grocery", 
          "name": "Lee's Sandwiches Chino", 
          "id": "151660684893672", 
          "category_list": [
            {
              "id": "150108431712141", 
              "name": "Food & Grocery"
            }
          ], 
          "location": {
            "city": "Chino", 
            "zip": "91710", 
            "country": "United States", 
            "longitude": -117.71887698859, 
            "state": "CA", 
            "street": "3938 Grand Ave", 
            "latitude": 33.999093606266001
          }
        }, 
        {
          "category": "Local business", 
          "name": "Lee's Sandwiches Larkin", 
          "id": "149591765068960", 
          "category_list": [
            {
              "id": "188334264523313", 
              "name": "Deli"
            }, 
            {
              "id": "188296324525457", 
              "name": "Sandwich Shop"
            }, 
            {
              "id": "155136917876965", 
              "name": "Vietnamese Restaurant"
            }
          ], 
          "location": {
            "city": "San Francisco", 
            "zip": "94109-7956", 
            "country": "United States", 
            "longitude": -122.41764243215999, 
            "state": "CA", 
            "street": "625 Larkin St", 
            "latitude": 37.783657873989
          }
        }, 
        {
          "category": "Restaurant/cafe", 
          "name": "Lee's Sandwiches", 
          "id": "333057548126", 
          "category_list": [
            {
              "id": "188334264523313", 
              "name": "Deli"
            }
          ], 
          "location": {
            "city": "San Jose", 
            "zip": "95112", 
            "country": "United States", 
            "longitude": -121.896721, 
            "state": "CA", 
            "street": "660 East Gish Road", 
            "latitude": 37.368515000000002
          }
        }, 
        {
          "category": "Restaurant/cafe", 
          "name": "Lee's Sandwiches - North Hills", 
          "id": "247255182081266", 
          "category_list": [
            {
              "id": "187827497907070", 
              "name": "Bakery"
            }, 
            {
              "id": "188296324525457", 
              "name": "Sandwich Shop"
            }, 
            {
              "id": "128673187201735", 
              "name": "Coffee Shop"
            }
          ], 
          "location": {
            "city": "North Hills", 
            "zip": "91343", 
            "country": "United States", 
            "longitude": -118.46657145, 
            "state": "CA", 
            "street": "9102 Sepulveda Blvd.", 
            "latitude": 34.235805526489997
          }
        }, 
        {
          "category": "Local business", 
          "name": "Lee's Sandwiches Hayward", 
          "id": "111419178898541", 
          "category_list": [
            {
              "id": "155136917876965", 
              "name": "Vietnamese Restaurant"
            }
          ], 
          "location": {
            "city": "Hayward", 
            "zip": "94544", 
            "country": "United States", 
            "longitude": -122.09009759748, 
            "state": "CA", 
            "street": "24790 Amador St", 
            "latitude": 37.653717919468001
          }
        }, 
        {
          "category": "Local business", 
          "name": "Lee's Sandwiches On Beach", 
          "id": "159299684103359", 
          "category_list": [
            {
              "id": "188296324525457", 
              "name": "Sandwich Shop"
            }, 
            {
              "id": "155136917876965", 
              "name": "Vietnamese Restaurant"
            }
          ], 
          "location": {
            "city": "Westminster", 
            "zip": "92683-6240", 
            "country": "United States", 
            "longitude": -117.98827981997, 
            "state": "CA", 
            "street": "15440 Beach Blvd Ste 124", 
            "latitude": 33.738321541255999
          }
        }, 
        {
          "category": "Local business", 
          "name": "Lee's Sandwiches", 
          "id": "293277920795463", 
          "category_list": [
            {
              "id": "2500", 
              "name": "Local Business"
            }
          ], 
          "location": {
            "city": "Garden Grove", 
            "zip": "", 
            "country": "United States", 
            "longitude": -118.02148, 
            "state": "CA", 
            "street": "", 
            "latitude": 33.783369999999998
          }
        }, 
        {
          "category": "Local business", 
          "name": "Lees Sandwiches", 
          "id": "169463056401214", 
          "category_list": [
            {
              "id": "155136917876965", 
              "name": "Vietnamese Restaurant"
            }
          ], 
          "location": {
            "city": "Houston", 
            "zip": "77072-5088", 
            "country": "United States", 
            "longitude": -95.558394500475003, 
            "state": "TX", 
            "street": "8338 W Sam Houston Pkwy S", 
            "latitude": 29.687873908892001
          }
        }, 
        {
          "category": "Local business", 
          "name": "Lee's Donut's and Sandwiches", 
          "id": "138670116298032", 
          "category_list": [
            {
              "id": "124818864257882", 
              "name": "Donuts & Bagels"
            }
          ], 
          "location": {
            "city": "Hattiesburg", 
            "zip": "39401", 
            "country": "United States", 
            "longitude": -89.335587899999993, 
            "state": "MS", 
            "street": "Hardy St", 
            "latitude": 31.325194450000001
          }
        }, 
        {
          "category": "Local business", 
          "name": "Lee Sandwiches", 
          "id": "113456105355004", 
          "category_list": [
            {
              "id": "273819889375819", 
              "name": "Restaurant"
            }
          ], 
          "location": {
            "city": "Sacramento", 
            "zip": "95826-3836", 
            "country": "United States", 
            "longitude": -121.408249, 
            "state": "CA", 
            "street": "3311 Power Inn Rd", 
            "latitude": 38.544463999999998
          }
        }, 
        {
          "category": "Local business", 
          "name": "Lee's Vietnamese sandwiches", 
          "id": "261755290516194", 
          "category_list": [
            {
              "id": "273819889375819", 
              "name": "Restaurant"
            }
          ], 
          "location": {
            "city": "Rochester", 
            "zip": "14620", 
            "country": "United States", 
            "longitude": -77.582779000000002, 
            "state": "NY", 
            "street": "982 Monroe Ave", 
            "latitude": 43.140667000000001
          }
        }, 
        {
          "category": "Local business", 
          "name": "Moe's Italian Sandwiches", 
          "id": "427300857323541", 
          "category_list": [
            {
              "id": "165679780146824", 
              "name": "Food & Restaurant"
            }
          ], 
          "location": {
            "city": "Lee", 
            "zip": "03861", 
            "country": "United States", 
            "longitude": -71.007545140000005, 
            "state": "NH", 
            "street": "", 
            "latitude": 43.148215860000001
          }
        }, 
        {
          "category": "Local business", 
          "name": "Lee's Burgers & Sandwiches", 
          "id": "115422908480208", 
          "category_list": [
            {
              "id": "174483852595760", 
              "name": "Chinese Restaurant"
            }
          ], 
          "location": {
            "city": "Buena Park", 
            "zip": "90621-2259", 
            "country": "United States", 
            "longitude": -118.002150812, 
            "state": "CA", 
            "street": "6247 Auto Center Dr", 
            "latitude": 33.869498352900003
          }
        }, 
        {
          "category": "Restaurant/cafe", 
          "name": "Lee's Grilled Cheese", 
          "id": "176410569053701", 
          "category_list": [
            {
              "id": "188296324525457", 
              "name": "Sandwich Shop"
            }, 
            {
              "id": "110107385737667", 
              "name": "New American Restaurant"
            }
          ], 
          "location": {
            "city": "Fort Worth", 
            "zip": "76244", 
            "country": "United States", 
            "longitude": -97.273640580844997, 
            "state": "TX", 
            "street": "5040 N. Tarrant Pkwy ", 
            "latitude": 32.893839587311
          }
        }, 
        {
          "category": "Restaurant/cafe", 
          "name": "Lee's Hoagies", 
          "id": "311826078869295", 
          "category_list": [
            {
              "id": "188296324525457", 
              "name": "Sandwich Shop"
            }
          ], 
          "location": {
            "city": "Abington", 
            "zip": "19001", 
            "country": "United States", 
            "longitude": -75.116048321199997, 
            "state": "PA", 
            "street": "1656 Old York Rd", 
            "latitude": 40.131296722199998
          }
        }, 
        {
          "category": "Local business", 
          "name": "Lee's Sandwich", 
          "id": "165897630091107", 
          "category_list": [
            {
              "id": "188334264523313", 
              "name": "Deli"
            }, 
            {
              "id": "128673187201735", 
              "name": "Coffee Shop"
            }, 
            {
              "id": "188296324525457", 
              "name": "Sandwich Shop"
            }
          ], 
          "location": {
            "city": "Santa Ana", 
            "zip": "92704-8202", 
            "country": "United States", 
            "longitude": -117.88597322177, 
            "state": "CA", 
            "street": "3350 S Bristol St", 
            "latitude": 33.70274016506
          }
        }, 
        {
          "category": "Local business", 
          "name": "Lee's Hoagie House", 
          "id": "114057115292286", 
          "category_list": [
            {
              "id": "188296324525457", 
              "name": "Sandwich Shop"
            }, 
            {
              "id": "188334264523313", 
              "name": "Deli"
            }, 
            {
              "id": "139433292785470", 
              "name": "Caterer"
            }
          ], 
          "location": {
            "city": "Pasadena", 
            "zip": "91107-6814", 
            "country": "United States", 
            "longitude": -118.10357315569, 
            "state": "CA", 
            "street": "2269 E Colorado Blvd", 
            "latitude": 34.146252730332002
          }
        }, 
        {
          "category": "Restaurant/cafe", 
          "name": "Lee's Hoagie House of East Norriton", 
          "id": "198929930136154", 
          "category_list": [
            {
              "id": "188296324525457", 
              "name": "Sandwich Shop"
            }, 
            {
              "id": "149803325077018", 
              "name": "American Restaurant"
            }
          ], 
          "location": {
            "city": "East Norriton", 
            "zip": "19401", 
            "country": "United States", 
            "longitude": -75.310205817400004, 
            "state": "PA", 
            "street": "2896 Dekalb Pike", 
            "latitude": 40.139665795299997
          }
        }, 
        {
          "category": "Local business", 
          "name": "Lee's Sandwich", 
          "id": "100861766624774", 
          "category_list": [
            {
              "id": "188296324525457", 
              "name": "Sandwich Shop"
            }, 
            {
              "id": "155136917876965", 
              "name": "Vietnamese Restaurant"
            }
          ], 
          "location": {
            "city": "Fremont", 
            "zip": "94538-1064", 
            "country": "United States", 
            "longitude": -121.99949335458, 
            "state": "CA", 
            "street": "5200 Mowry Ave", 
            "latitude": 37.533404431232
          }
        }, 
        {
          "category": "Restaurant/cafe", 
          "name": "EP Schlotzsky's", 
          "id": "148239201864171", 
          "category_list": [
            {
              "id": "188296324525457", 
              "name": "Sandwich Shop"
            }, 
            {
              "id": "180256082015845", 
              "name": "Pizza Place"
            }, 
            {
              "id": "188334264523313", 
              "name": "Deli"
            }
          ], 
          "location": {
            "city": "El Paso", 
            "zip": "79925", 
            "country": "United States", 
            "longitude": -106.31826508637, 
            "state": "TX", 
            "street": "1840 Lee Trevino #705", 
            "latitude": 31.767167904682001
          }
        }, 
        {
          "category": "Restaurant/cafe", 
          "name": "Lee's Hoagie House Castor Ave.", 
          "id": "121355131233785", 
          "category_list": [
            {
              "id": "188296324525457", 
              "name": "Sandwich Shop"
            }, 
            {
              "id": "212285478786733", 
              "name": "Hot Dog Joint"
            }, 
            {
              "id": "187425207958280", 
              "name": "Burger Restaurant"
            }
          ], 
          "location": {
            "city": "Philadelphia", 
            "zip": "19152", 
            "country": "United States", 
            "longitude": -75.0646296245, 
            "state": "PA", 
            "street": "7328 Castor Avenue", 
            "latitude": 40.052979655100003
          }
        }, 
        {
          "category": "Restaurant/cafe", 
          "name": "Timmy Lee's Pub", 
          "id": "206451249386432", 
          "category_list": [
            {
              "id": "188296324525457", 
              "name": "Sandwich Shop"
            }, 
            {
              "id": "187425207958280", 
              "name": "Burger Restaurant"
            }, 
            {
              "id": "180256082015845", 
              "name": "Pizza Place"
            }
          ], 
          "location": {
            "city": "Saint Ignace", 
            "zip": "49781", 
            "country": "United States", 
            "longitude": -84.722430000000003, 
            "state": "MI", 
            "street": "W 748 us 2", 
            "latitude": 45.858325000000001
          }
        }, 
        {
          "category": "Restaurant/cafe", 
          "name": "Smoke'n B's BBQ", 
          "id": "190774870952431", 
          "category_list": [
            {
              "id": "188296324525457", 
              "name": "Sandwich Shop"
            }, 
            {
              "id": "187425207958280", 
              "name": "Burger Restaurant"
            }, 
            {
              "id": "150534008338515", 
              "name": "Barbecue Restaurant"
            }
          ], 
          "location": {
            "city": "Monteagle", 
            "zip": "37356", 
            "country": "United States", 
            "longitude": -85.825728337011, 
            "state": "TN", 
            "street": "412 Dixie Lee Avenue", 
            "latitude": 35.233950938775997
          }
        }, 
        {
          "category": "Local business", 
          "name": "Hungry Sub Sandwiches and Crepe", 
          "id": "293520417412909", 
          "category_list": [
            {
              "id": "192803624072087", 
              "name": "Fast Food Restaurant"
            }
          ], 
          "location": {
            "city": "Lees Summit", 
            "zip": "", 
            "country": "United States", 
            "longitude": -94.379400360000005, 
            "state": "MO", 
            "street": "", 
            "latitude": 38.9342234
          }
        }, 
        {
          "category": "Restaurant/cafe", 
          "name": "Lee's Sandwich Shop", 
          "id": "295360800529683", 
          "category_list": [
            {
              "id": "273819889375819", 
              "name": "Restaurant"
            }
          ], 
          "location": {
            "city": "Kannapolis", 
            "zip": "28083", 
            "country": "United States", 
            "longitude": -80.607851912046002, 
            "state": "NC", 
            "street": "902 Central Drive", 
            "latitude": 35.502737791408997
          }
        }, 
        {
          "category": "Restaurant/cafe", 
          "name": "Lee's Coffee & Tea", 
          "id": "315992953224", 
          "category_list": [
            {
              "id": "188296324525457", 
              "name": "Sandwich Shop"
            }
          ], 
          "location": {
            "city": "Laurel", 
            "zip": "39440", 
            "country": "United States", 
            "longitude": -89.130110940912004, 
            "state": "MS", 
            "street": "409 West Oak Street", 
            "latitude": 31.693108932025002
          }
        }, 
        {
          "category": "Local business", 
          "name": "Subway", 
          "id": "190220074338613", 
          "category_list": [
            {
              "id": "188296324525457", 
              "name": "Sandwich Shop"
            }
          ], 
          "location": {
            "city": "Lees Summit", 
            "zip": "64081", 
            "country": "United States", 
            "longitude": -94.410595828599995, 
            "state": "MO", 
            "street": "1808 A NW Chipman Rd", 
            "latitude": 38.9267469981
          }
        }, 
        {
          "category": "Local business", 
          "name": "Jerry's Subs & Pizza", 
          "id": "113923971972880", 
          "category_list": [
            {
              "id": "188296324525457", 
              "name": "Sandwich Shop"
            }, 
            {
              "id": "180256082015845", 
              "name": "Pizza Place"
            }
          ], 
          "location": {
            "city": "Warrenton", 
            "zip": "20186-2107", 
            "country": "United States", 
            "longitude": -77.796626330699993, 
            "state": "VA", 
            "street": "177 W Lee Hwy", 
            "latitude": 38.728718932200003
          }
        }, 
        {
          "category": "Local business", 
          "name": "Lees Hoagie House", 
          "id": "110393212384261", 
          "category_list": [
            {
              "id": "188296324525457", 
              "name": "Sandwich Shop"
            }
          ], 
          "location": {
            "city": "Fairless Hills", 
            "zip": "19030", 
            "country": "United States", 
            "longitude": -74.851674116425002, 
            "state": "PA", 
            "street": "506 S Oxford Valley Rd", 
            "latitude": 40.169479350240003
          }
        }, 
        {
          "category": "Restaurant/cafe", 
          "name": "Fort Lee Pizzeria", 
          "id": "222707834421793", 
          "category_list": [
            {
              "id": "188296324525457", 
              "name": "Sandwich Shop"
            }, 
            {
              "id": "180256082015845", 
              "name": "Pizza Place"
            }, 
            {
              "id": "193831710644458", 
              "name": "Italian Restaurant"
            }
          ], 
          "location": {
            "city": "Fort Lee", 
            "zip": "07024", 
            "country": "United States", 
            "longitude": -73.961454920999998, 
            "state": "NJ", 
            "street": "2469 Lemoine Ave", 
            "latitude": 40.864863072799999
          }
        }, 
        {
          "category": "Restaurant/cafe", 
          "name": "Goodcents Subs - Lee's Summit", 
          "id": "203853932971408", 
          "category_list": [
            {
              "id": "188296324525457", 
              "name": "Sandwich Shop"
            }
          ], 
          "location": {
            "city": "Lees Summit", 
            "zip": "64063", 
            "country": "United States", 
            "longitude": -94.362241999999995, 
            "state": "MO", 
            "street": "705 Southeast Melody Lane", 
            "latitude": 38.908127999999998
          }
        }, 
        {
          "category": "Food/grocery", 
          "name": "LeeSH Sandwich Bar", 
          "id": "123855691061850", 
          "category_list": [
            {
              "id": "188296324525457", 
              "name": "Sandwich Shop"
            }, 
            {
              "id": "150108431712141", 
              "name": "Food & Grocery"
            }
          ], 
          "location": {
            "city": "Nugegoda", 
            "zip": "10250", 
            "country": "Sri Lanka", 
            "longitude": 79.893070290400004, 
            "street": "No: 245, High Level Raod, ", 
            "latitude": 6.86728597852
          }
        }, 
        {
          "category": "Local business", 
          "name": "Subway", 
          "id": "185957348092691", 
          "category_list": [
            {
              "id": "188296324525457", 
              "name": "Sandwich Shop"
            }
          ], 
          "location": {
            "city": "Lees Summit", 
            "zip": "64086", 
            "country": "United States", 
            "longitude": -94.379134618699993, 
            "state": "MO", 
            "street": "1134 Nebraska Douglas Street", 
            "latitude": 38.933107314899999
          }
        }, 
        {
          "category": "Local business", 
          "name": "Mr. Goodcents", 
          "id": "168830596502472", 
          "category_list": [
            {
              "id": "188296324525457", 
              "name": "Sandwich Shop"
            }, 
            {
              "id": "192831537402299", 
              "name": "Family Style Restaurant"
            }
          ], 
          "location": {
            "city": "Lees Summit", 
            "zip": "64063", 
            "country": "United States", 
            "longitude": -94.362251331300001, 
            "state": "MO", 
            "street": "", 
            "latitude": 38.906037381499999
          }
        }, 
        {
          "category": "Local business", 
          "name": "Lee's Sandwich Shop", 
          "id": "116316611725675", 
          "category_list": [
            {
              "id": "174483852595760", 
              "name": "Chinese Restaurant"
            }
          ], 
          "location": {
            "city": "Cambridge", 
            "zip": "02138-3715", 
            "country": "United States", 
            "longitude": -71.121245999999999, 
            "state": "MA", 
            "street": "61 Church St", 
            "latitude": 42.374282999999998
          }
        }, 
        {
          "category": "Local business", 
          "name": "Subway", 
          "id": "197496456931288", 
          "category_list": [
            {
              "id": "188296324525457", 
              "name": "Sandwich Shop"
            }
          ], 
          "location": {
            "city": "Lees Summit", 
            "zip": "64081", 
            "country": "United States", 
            "longitude": -94.450567000000007, 
            "state": "MO", 
            "street": "3380 SW Fascination Drive", 
            "latitude": 38.911332000000002
          }
        }, 
        {
          "category": "Restaurant/cafe", 
          "name": "Cheesy Lee's Amazing Pizza", 
          "id": "178691915504651", 
          "category_list": [
            {
              "id": "188296324525457", 
              "name": "Sandwich Shop"
            }, 
            {
              "id": "180256082015845", 
              "name": "Pizza Place"
            }
          ], 
          "location": {
            "city": "Estes Park", 
            "zip": "80510", 
            "country": "United States", 
            "longitude": -105.541313, 
            "state": "CO", 
            "street": "861 Moraine Ave.", 
            "latitude": 40.365107999999999
          }
        }, 
        {
          "category": "Local business", 
          "name": "Lee's Sandwich and Burrito boards", 
          "id": "166519963503142", 
          "category_list": [
            {
              "id": "165679780146824", 
              "name": "Food & Restaurant"
            }
          ], 
          "location": {
            "city": "Riverside", 
            "zip": "92503", 
            "country": "United States", 
            "longitude": -117.49474600000001, 
            "state": "CA", 
            "street": "12155 Magnolia Ave Suite 10-E", 
            "latitude": 33.894517
          }
        }, 
        {
          "category": "Restaurant/cafe", 
          "name": "Lee's Hoagie House - University City", 
          "id": "210974875600421", 
          "category_list": [
            {
              "id": "188296324525457", 
              "name": "Sandwich Shop"
            }, 
            {
              "id": "174483852595760", 
              "name": "Chinese Restaurant"
            }, 
            {
              "id": "150108431712141", 
              "name": "Food & Grocery"
            }
          ], 
          "location": {
            "city": "Philadelphia", 
            "zip": "19104", 
            "country": "United States", 
            "longitude": -75.204323000000002, 
            "state": "PA", 
            "street": "4034 Walnut Street", 
            "latitude": 39.953918000000002
          }
        }, 
        {
          "category": "Local business", 
          "name": "Subway", 
          "id": "173053612738740", 
          "category_list": [
            {
              "id": "188296324525457", 
              "name": "Sandwich Shop"
            }
          ], 
          "location": {
            "city": "Lees Summit", 
            "zip": "64082", 
            "country": "United States", 
            "longitude": -94.376363999999995, 
            "state": "MO", 
            "street": "3532 SW Market", 
            "latitude": 38.855421999999997
          }
        }, 
        {
          "category": "Restaurant/cafe", 
          "name": "Lee University Subway", 
          "id": "169319076465199", 
          "category_list": [
            {
              "id": "273819889375819", 
              "name": "Restaurant"
            }
          ], 
          "location": {
            "city": "Cleveland", 
            "zip": "37311", 
            "country": "United States", 
            "longitude": -84.871274, 
            "state": "TN", 
            "street": "998 Church St. NE", 
            "latitude": 35.164144
          }
        }, 
        {
          "category": "Local business", 
          "name": "Jimmy John's", 
          "id": "142177589212997", 
          "category_list": [
            {
              "id": "188296324525457", 
              "name": "Sandwich Shop"
            }
          ], 
          "location": {
            "city": "Lees Summit", 
            "zip": "64063", 
            "country": "United States", 
            "longitude": -94.361534000000006, 
            "state": "MO", 
            "street": "426 SE SR-291", 
            "latitude": 38.920245999999999
          }
        }, 
        {
          "category": "Local business", 
          "name": "Subway", 
          "id": "195999003749193", 
          "category_list": [
            {
              "id": "188296324525457", 
              "name": "Sandwich Shop"
            }
          ], 
          "location": {
            "city": "Lees Summit", 
            "zip": "64063", 
            "country": "United States", 
            "longitude": -94.361176, 
            "state": "MO", 
            "street": "1000 Sam Walton Lane", 
            "latitude": 38.929713999999997
          }
        }, 
        {
          "category": "Restaurant/cafe", 
          "name": "Lees Hoagie House: Quakertown", 
          "id": "253280463574", 
          "category_list": [
            {
              "id": "188296324525457", 
              "name": "Sandwich Shop"
            }
          ], 
          "location": {
            "city": "Quakertown", 
            "zip": "18951", 
            "country": "United States", 
            "longitude": -75.354775253499994, 
            "state": "PA", 
            "street": "228 South Westend Blvd.", 
            "latitude": 40.437307431000001
          }
        }, 
        {
          "category": "Restaurant/cafe", 
          "name": "Bibby's Mediterranean Cafe", 
          "id": "269134106447195", 
          "category_list": [
            {
              "id": "188296324525457", 
              "name": "Sandwich Shop"
            }, 
            {
              "id": "167885889930008", 
              "name": "Middle Eastern Restaurant"
            }, 
            {
              "id": "200742186618963", 
              "name": "Vegetarian & Vegan Restaurant"
            }
          ], 
          "location": {
            "city": "Fort Lee", 
            "zip": "07024", 
            "country": "United States", 
            "longitude": -73.978561080099993, 
            "state": "NJ", 
            "street": "515 MAIN STREET", 
            "latitude": 40.856188289199999
          }
        }, 
        {
          "category": "Local business", 
          "name": "Firehouse Subs Lee Hwy", 
          "id": "573040759382728", 
          "category_list": [
            {
              "id": "188296324525457", 
              "name": "Sandwich Shop"
            }
          ], 
          "location": {
            "city": "Chattanooga", 
            "zip": "37421", 
            "country": "United States", 
            "longitude": -85.204257999999996, 
            "state": "TN", 
            "street": "6025 E. Brainerd Rd. Ste #110", 
            "latitude": 35.018270999999999
          }
        }, 
        {
          "category": "Restaurant/cafe", 
          "name": "Lees' Courthouse Deli", 
          "id": "214572341899710", 
          "category_list": [
            {
              "id": "188296324525457", 
              "name": "Sandwich Shop"
            }, 
            {
              "id": "188334264523313", 
              "name": "Deli"
            }, 
            {
              "id": "203693296307954", 
              "name": "Southern Restaurant"
            }
          ], 
          "location": {
            "city": "Amherst", 
            "zip": "24521", 
            "country": "United States", 
            "longitude": -79.052072999999993, 
            "state": "VA", 
            "street": "188 South Main Street", 
            "latitude": 37.585706999999999
          }
        }, 
        {
          "category": "Local business", 
          "name": "Subway", 
          "id": "193264520699239", 
          "category_list": [
            {
              "id": "188296324525457", 
              "name": "Sandwich Shop"
            }
          ], 
          "location": {
            "city": "Lees Summit", 
            "zip": "64070", 
            "country": "United States", 
            "longitude": -94.172044999999997, 
            "state": "MO", 
            "street": "105 E Battlefield Rd", 
            "latitude": 38.866987999999999
          }
        }, 
        {
          "category": "Local business", 
          "name": "Charley's Grilled Subs", 
          "id": "111630688875196", 
          "category_list": [
            {
              "id": "188296324525457", 
              "name": "Sandwich Shop"
            }, 
            {
              "id": "188334264523313", 
              "name": "Deli"
            }
          ], 
          "location": {
            "city": "Bristol", 
            "zip": "24202-5962", 
            "country": "United States", 
            "longitude": -82.126425999999995, 
            "state": "TN", 
            "street": "3101 Lee Hwy Ste 12", 
            "latitude": 36.631954
          }
        }, 
        {
          "category": "Local business", 
          "name": "Sara Lee Sandwich Shope", 
          "id": "183791801642911", 
          "category_list": [
            {
              "id": "273819889375819", 
              "name": "Restaurant"
            }
          ], 
          "location": {
            "city": "Denver", 
            "zip": "80249", 
            "country": "United States", 
            "longitude": -104.66972506800001, 
            "state": "CO", 
            "street": "", 
            "latitude": 39.858651564100001, 
            "located_in": 1412557042293187
          }
        }, 
        {
          "category": "Local business", 
          "name": "Subway", 
          "id": "387344004689756", 
          "category_list": [
            {
              "id": "188296324525457", 
              "name": "Sandwich Shop"
            }
          ], 
          "location": {
            "city": "Lees Summit", 
            "zip": "64063", 
            "country": "United States", 
            "longitude": -94.339381274000004, 
            "state": "MO", 
            "street": "", 
            "latitude": 38.9164232093
          }
        }, 
        {
          "category": "Local business", 
          "name": "Quizno's Classic Subs", 
          "id": "105022992873908", 
          "category_list": [
            {
              "id": "188296324525457", 
              "name": "Sandwich Shop"
            }
          ], 
          "location": {
            "city": "Warrenton", 
            "zip": "20187-7903", 
            "country": "United States", 
            "longitude": -77.771365000000003, 
            "state": "VA", 
            "street": "6437 Lee Hwy", 
            "latitude": 38.733823999999998
          }
        }, 
        {
          "category": "Local business", 
          "name": "Quizno's Classic Subs", 
          "id": "111888625515376", 
          "category_list": [
            {
              "id": "188296324525457", 
              "name": "Sandwich Shop"
            }
          ], 
          "location": {
            "city": "Orlando", 
            "zip": "32810-5821", 
            "country": "United States", 
            "longitude": -81.398218999999997, 
            "state": "FL", 
            "street": "1084 Lee Rd Ste 1", 
            "latitude": 28.605340999999999
          }
        }, 
        {
          "category": "Local business", 
          "name": "Quizno's Classic Subs", 
          "id": "113891948641272", 
          "category_list": [
            {
              "id": "188296324525457", 
              "name": "Sandwich Shop"
            }
          ], 
          "location": {
            "city": "Chantilly", 
            "zip": "20151-3502", 
            "country": "United States", 
            "longitude": -77.420867999999999, 
            "state": "VA", 
            "street": "13661 Lee Jackson Memorial Hwy", 
            "latitude": 38.889567999999997
          }
        }, 
        {
          "category": "Local business", 
          "name": "Quizno's Classic Subs", 
          "id": "120527871292966", 
          "category_list": [
            {
              "id": "188296324525457", 
              "name": "Sandwich Shop"
            }
          ], 
          "location": {
            "city": "Fairfax", 
            "zip": "22031-1312", 
            "country": "United States", 
            "longitude": -77.261604000000005, 
            "state": "VA", 
            "street": "9123 Lee Hwy", 
            "latitude": 38.870213
          }
        }, 
        {
          "category": "Local business", 
          "name": "Tee's Mile Long Sandwich Shop", 
          "id": "120237267993031", 
          "category_list": [
            {
              "id": "188334264523313", 
              "name": "Deli"
            }, 
            {
              "id": "188296324525457", 
              "name": "Sandwich Shop"
            }
          ], 
          "location": {
            "city": "Leesville", 
            "zip": "29070", 
            "country": "United States", 
            "longitude": -81.513215000000002, 
            "state": "SC", 
            "street": "104 N Lee St", 
            "latitude": 33.916341000000003
          }
        }, 
        {
          "category": "Local business", 
          "name": "Chandler's Classic American De", 
          "id": "154934567878569", 
          "category_list": [
            {
              "id": "188296324525457", 
              "name": "Sandwich Shop"
            }
          ], 
          "location": {
            "city": "Manassas", 
            "zip": "20110-5555", 
            "country": "United States", 
            "longitude": -77.478846000000004, 
            "state": "VA", 
            "street": "9311 Lee Ave", 
            "latitude": 38.751862000000003
          }
        }, 
        {
          "category": "Local business", 
          "name": "Terry Lee's Olde World Sandwich Shoppe", 
          "id": "114173915276732", 
          "category_list": [
            {
              "id": "176831012360626", 
              "name": "Professional Services"
            }, 
            {
              "id": "200600219953504", 
              "name": "Shopping & Retail"
            }, 
            {
              "id": "188296324525457", 
              "name": "Sandwich Shop"
            }
          ], 
          "location": {
            "city": "Albany", 
            "zip": "31707-4388", 
            "country": "United States", 
            "longitude": -84.176821000000004, 
            "state": "GA", 
            "street": "1116 W Broad Ave Ste A", 
            "latitude": 31.576685999999999
          }
        }, 
        {
          "category": "Local business", 
          "name": "Subway", 
          "id": "184508358236510", 
          "category_list": [
            {
              "id": "188296324525457", 
              "name": "Sandwich Shop"
            }
          ], 
          "location": {
            "city": "Lees Summit", 
            "zip": "64064", 
            "country": "United States", 
            "longitude": -94.3592480553, 
            "state": "MO", 
            "street": "909 Nebraska Woods Chapel Rd", 
            "latitude": 38.981363702400003
          }
        }, 
        {
          "category": "Local business", 
          "name": "Subway", 
          "id": "184430844921385", 
          "category_list": [
            {
              "id": "188296324525457", 
              "name": "Sandwich Shop"
            }
          ], 
          "location": {
            "city": "Lees Summit", 
            "zip": "64063", 
            "country": "United States", 
            "longitude": -94.363060397699996, 
            "state": "MO", 
            "street": "506 SE 291 HWyoming", 
            "latitude": 38.909291450200001
          }
        }, 
        {
          "category": "Local business", 
          "name": "Mi Julies Baps", 
          "id": "114321971962931", 
          "category_list": [
            {
              "id": "188296324525457", 
              "name": "Sandwich Shop"
            }
          ], 
          "location": {
            "city": "Oldham", 
            "zip": "OL4 1JW", 
            "country": "United Kingdom", 
            "longitude": -2.0966569813599998, 
            "state": "", 
            "street": "Lees Road", 
            "latitude": 53.5426377235
          }
        }, 
        {
          "category": "Local business", 
          "name": "Jimmy John's", 
          "id": "183691411708899", 
          "category_list": [
            {
              "id": "188296324525457", 
              "name": "Sandwich Shop"
            }
          ], 
          "location": {
            "city": "Lees Summit", 
            "zip": "64086", 
            "country": "United States", 
            "longitude": -94.400599999999997, 
            "state": "MO", 
            "street": "695 NW Blue Parkway", 
            "latitude": 38.926152000000002
          }
        }, 
        {
          "category": "Local business", 
          "name": "Jersey Mike's Subs", 
          "id": "179691902100843", 
          "category_list": [
            {
              "id": "188296324525457", 
              "name": "Sandwich Shop"
            }, 
            {
              "id": "188334264523313", 
              "name": "Deli"
            }, 
            {
              "id": "149803325077018", 
              "name": "American Restaurant"
            }
          ], 
          "location": {
            "city": "Fairfax", 
            "zip": "22030", 
            "country": "United States", 
            "longitude": -77.332812308100003, 
            "state": "VA", 
            "street": "11199 Lee Highway, Suite C", 
            "latitude": 38.851430014000002
          }
        }, 
        {
          "category": "Local business", 
          "name": "Lees Sandwich Shoppe", 
          "id": "113667888666483", 
          "category_list": [
            {
              "id": "174483852595760", 
              "name": "Chinese Restaurant"
            }, 
            {
              "id": "188296324525457", 
              "name": "Sandwich Shop"
            }
          ], 
          "location": {
            "city": "Jacksonville", 
            "zip": "32256-7514", 
            "country": "United States", 
            "longitude": -81.580145562400006, 
            "state": "FL", 
            "street": "7933 Baymeadows Way Ste 8", 
            "latitude": 30.227066409999999
          }
        }
      ]
    }
  }, 
  {
    "business_name": "Poliberto's Taco Shop", 
    "business_id": "O4GznwWobGqx01DUlijgZA", 
    "fb_pages": {
      "paging": {
        "next": "https://graph.facebook.com/search?type=place&access_token=229546593895315|yPLlHqq6YvDLIH4nL0kjJtIFSlU&limit=5000&offset=5000&__after_id=132848713494552"
      }, 
      "data": [
        {
          "category": "Local business", 
          "name": "Poliberto's Taco shop", 
          "id": "132848713494552", 
          "category_list": [
            {
              "id": "199377230079198", 
              "name": "Mexican Restaurant"
            }
          ], 
          "location": {
            "city": "Las Vegas", 
            "zip": "89123", 
            "country": "United States", 
            "longitude": -115.135188523, 
            "state": "NV", 
            "street": "", 
            "latitude": 36.014090287800002
          }
        }
      ]
    }
  }, 
  {
    "business_name": "Orangewood Animal Hospital PC", 
    "business_id": "C7YKuZIZ-h-DpaSeBK69Fg", 
    "fb_pages": {
      "data": []
    }
  }, 
  {
    "business_name": "Carden's Cafe", 
    "business_id": "iUyptDuZLnCYSlTFVMm5kA", 
    "fb_pages": {
      "paging": {
        "next": "https://graph.facebook.com/search?type=place&access_token=229546593895315|yPLlHqq6YvDLIH4nL0kjJtIFSlU&limit=5000&offset=5000&__after_id=170186563035116"
      }, 
      "data": [
        {
          "category": "Local business", 
          "name": "Carden Street Cafe", 
          "id": "156639327706089", 
          "category_list": [
            {
              "id": "2500", 
              "name": "Local Business"
            }
          ], 
          "location": {
            "city": "Guelph", 
            "zip": "N1H 3A2", 
            "country": "Canada", 
            "longitude": -80.248743235500001, 
            "state": "ON", 
            "street": "40 Carden Street", 
            "latitude": 43.543765135800001
          }
        }, 
        {
          "category": "Restaurant/cafe", 
          "name": "39 Carden Street", 
          "id": "377952145651165", 
          "category_list": [
            {
              "id": "273819889375819", 
              "name": "Restaurant"
            }
          ], 
          "location": {
            "city": "Guelph", 
            "zip": "N1G 3A2", 
            "country": "Canada", 
            "longitude": -80.248676776699995, 
            "state": "ON", 
            "street": "40 Carden Street", 
            "latitude": 43.543795345699998
          }
        }, 
        {
          "category": "Local business", 
          "name": "Carden's Cafe & Bakery", 
          "id": "157210997652366", 
          "category_list": [
            {
              "id": "186564191378474", 
              "name": "Cleaning Service"
            }, 
            {
              "id": "197871390225897", 
              "name": "Cafe"
            }
          ], 
          "location": {
            "city": "Chandler", 
            "zip": "85286-5115", 
            "country": "United States", 
            "longitude": -111.78975, 
            "state": "AZ", 
            "street": "3140 S Gilbert Rd", 
            "latitude": 33.259560999999998
          }
        }, 
        {
          "category": "Local business", 
          "name": "Carden Street Cafe West", 
          "id": "104325302952883", 
          "category_list": [
            {
              "id": "197871390225897", 
              "name": "Cafe"
            }
          ], 
          "location": {
            "city": "Brentwood Bay", 
            "zip": "V8M1H3", 
            "country": "Canada", 
            "longitude": -123.45112779999999, 
            "state": "BC", 
            "street": "1164 Stellys Cross Rd", 
            "latitude": 48.5798202
          }
        }, 
        {
          "category": "Restaurant/cafe", 
          "name": "Uncle Sams - Carden Avenue", 
          "id": "154552724572555", 
          "category_list": [
            {
              "id": "187425207958280", 
              "name": "Burger Restaurant"
            }, 
            {
              "id": "192803624072087", 
              "name": "Fast Food Restaurant"
            }
          ], 
          "location": {
            "city": "Brighton", 
            "zip": "BN1 8LE", 
            "country": "United Kingdom", 
            "longitude": -0.13507262118187999, 
            "state": "", 
            "street": "197 Carden Avenue", 
            "latitude": 50.862025754880001
          }
        }, 
        {
          "category": "Restaurant/cafe", 
          "name": "\u30ab\u30fc\u30c7\u30a3\u30ca\u30b9\u3000RESTAURANT CARDENAS GINZA\u3000", 
          "id": "120533288035118", 
          "category_list": [
            {
              "id": "273819889375819", 
              "name": "Restaurant"
            }
          ], 
          "location": {
            "city": "Chuo-ku", 
            "zip": "", 
            "country": "Japan", 
            "longitude": 139.763344942, 
            "state": "Tokyo", 
            "street": "", 
            "latitude": 35.669879051999999
          }
        }, 
        {
          "category": "Restaurant/cafe", 
          "name": "\u30ab\u30fc\u30c7\u30a3\u30ca\u30b9\u3000\u30c1\u30e3\u30b3\u30fc\u30eb\u30b0\u30ea\u30eb\uff08Cardenas Charcoalgrill)", 
          "id": "213375488703897", 
          "category_list": [
            {
              "id": "273819889375819", 
              "name": "Restaurant"
            }, 
            {
              "id": "133436743388217", 
              "name": "Arts & Entertainment"
            }, 
            {
              "id": "354275401259620", 
              "name": "Nightlife"
            }
          ], 
          "location": {
            "city": "Shibuya-ku", 
            "zip": "150-0021", 
            "country": "Japan", 
            "longitude": 139.70727888299999, 
            "state": "Tokyo", 
            "street": "\u6075\u6bd4\u5bff\u897f1-12-14", 
            "latitude": 35.647717316399998
          }
        }, 
        {
          "category": "Restaurant/cafe", 
          "name": "El Cardenal", 
          "id": "525751767503352", 
          "category_list": [
            {
              "id": "165679780146824", 
              "name": "Food & Restaurant"
            }
          ], 
          "location": {
            "city": "Huancayo", 
            "zip": "", 
            "country": "Peru", 
            "longitude": -75.216013354492006, 
            "state": "", 
            "street": "Jr. Libertad N\u00b0 335 El Tambo", 
            "latitude": -12.064968850485
          }
        }, 
        {
          "category": "Restaurant/cafe", 
          "name": "El Cardenal", 
          "id": "170186563035116", 
          "category_list": [
            {
              "id": "199377230079198", 
              "name": "Mexican Restaurant"
            }
          ], 
          "location": {
            "city": "Getafe", 
            "zip": "28901", 
            "country": "Spain", 
            "longitude": -3.7310742853200001, 
            "state": "", 
            "street": "c/ Madrid, 20", 
            "latitude": 40.306293463099998
          }
        }
      ]
    }
  }, 
  {
    "business_name": "Down Under Wines", 
    "business_id": "S9LX8EtUHooCWGIGmrHUSg", 
    "fb_pages": {
      "paging": {
        "next": "https://graph.facebook.com/search?type=place&access_token=229546593895315|yPLlHqq6YvDLIH4nL0kjJtIFSlU&limit=5000&offset=5000&__after_id=123763117677129"
      }, 
      "data": [
        {
          "category": "Local business", 
          "name": "Down Under Wine", 
          "id": "123763117677129", 
          "category_list": [
            {
              "id": "165679780146824", 
              "name": "Food & Restaurant"
            }, 
            {
              "id": "200600219953504", 
              "name": "Shopping & Retail"
            }
          ], 
          "location": {
            "city": "Gilbert", 
            "zip": "85233-7072", 
            "country": "United States", 
            "longitude": -111.82118737553, 
            "state": "AZ", 
            "street": "1422 West Warner Road, Suite A100", 
            "latitude": 33.335839194873998
          }
        }
      ]
    }
  }
]