[
  {
    "business_name": "Simonmed Imaging", 
    "business_id": "ck-LkS-GaLwI7Y8qR3VZZA", 
    "fb_pages": {
      "paging": {
        "next": "https://graph.facebook.com/search?type=place&access_token=229546593895315|yPLlHqq6YvDLIH4nL0kjJtIFSlU&limit=5000&offset=5000&__after_id=355319324514703"
      }, 
      "data": [
        {
          "category": "Health/medical/pharmaceuticals", 
          "name": "SimonMed Imaging", 
          "id": "199886136699624", 
          "category_list": [
            {
              "id": "145118935550090", 
              "name": "Medical & Health"
            }
          ], 
          "location": {
            "city": "Scottsdale", 
            "zip": "85258", 
            "country": "United States", 
            "longitude": -111.87989686696, 
            "state": "AZ", 
            "street": "9201 E Mountain View Rd, #137", 
            "latitude": 33.575218265864002
          }
        }, 
        {
          "category": "Local business", 
          "name": "SimonMed Imaging", 
          "id": "174280022584618", 
          "category_list": [
            {
              "id": "188234584533149", 
              "name": "Doctor"
            }
          ], 
          "location": {
            "city": "Peoria", 
            "zip": "85381", 
            "country": "United States", 
            "longitude": -112.26223524382, 
            "state": "AZ", 
            "street": "", 
            "latitude": 33.609199722115001
          }
        }, 
        {
          "category": "Local business", 
          "name": "Simonmed Imaging", 
          "id": "117923188267742", 
          "category_list": [
            {
              "id": "188234584533149", 
              "name": "Doctor"
            }
          ], 
          "location": {
            "city": "Gilbert", 
            "zip": "85295-2152", 
            "country": "United States", 
            "longitude": -111.75616807813, 
            "state": "AZ", 
            "street": "2680 S Val Vista Dr", 
            "latitude": 33.302799092538997
          }
        }, 
        {
          "category": "Local business", 
          "name": "Simonmed Imaging", 
          "id": "162145513812731", 
          "category_list": [
            {
              "id": "186546178044573", 
              "name": "Medical Lab"
            }, 
            {
              "id": "188234584533149", 
              "name": "Doctor"
            }
          ], 
          "location": {
            "city": "Mesa", 
            "zip": "85206-1620", 
            "country": "United States", 
            "longitude": -111.695378401, 
            "state": "AZ", 
            "street": "130 S 63rd St", 
            "latitude": 33.412558916199998
          }
        }, 
        {
          "category": "Local business", 
          "name": "Simonmed Imaging", 
          "id": "159258084097100", 
          "category_list": [
            {
              "id": "188234584533149", 
              "name": "Doctor"
            }
          ], 
          "location": {
            "city": "Scottsdale", 
            "zip": "85255-7459", 
            "country": "United States", 
            "longitude": -111.922577, 
            "state": "AZ", 
            "street": "7304 E Deer Valley Rd Ste 105", 
            "latitude": 33.684330000000003
          }
        }, 
        {
          "category": "Local business", 
          "name": "Simonmed Imaging", 
          "id": "103353989731162", 
          "category_list": [
            {
              "id": "2500", 
              "name": "Local Business"
            }
          ], 
          "location": {
            "city": "Prescott Valley", 
            "zip": "86314-2290", 
            "country": "United States", 
            "longitude": -112.326302, 
            "state": "AZ", 
            "street": "3033 N Windsong Dr", 
            "latitude": 34.587021
          }
        }, 
        {
          "category": "Local business", 
          "name": "Simonmed Imaging", 
          "id": "265005570271812", 
          "category_list": [
            {
              "id": "2500", 
              "name": "Local Business"
            }
          ], 
          "location": {
            "city": "Altamonte Springs", 
            "zip": "32714", 
            "country": "United States", 
            "longitude": -81.389492687800001, 
            "state": "FL", 
            "street": "", 
            "latitude": 28.665087139000001
          }
        }, 
        {
          "category": "Local business", 
          "name": "SimonMed Imaging", 
          "id": "319891474781689", 
          "category_list": [
            {
              "id": "2500", 
              "name": "Local Business"
            }
          ], 
          "location": {
            "city": "San Bernardino", 
            "zip": "92408", 
            "country": "United States", 
            "longitude": -117.288667937, 
            "state": "CA", 
            "street": "", 
            "latitude": 34.065200236899997
          }
        }, 
        {
          "category": "Local business", 
          "name": "SimonMed Imaging", 
          "id": "350624328324083", 
          "category_list": [
            {
              "id": "2500", 
              "name": "Local Business"
            }
          ], 
          "location": {
            "city": "Casas Adobes", 
            "zip": "85704", 
            "country": "United States", 
            "longitude": -111.004822, 
            "state": "AZ", 
            "street": "1845 W. Orange Grove Rd.", 
            "latitude": 32.322032999999998
          }
        }, 
        {
          "category": "Local business", 
          "name": "Simonmed Imaging", 
          "id": "138091379572130", 
          "category_list": [
            {
              "id": "187528154613684", 
              "name": "Health Clinic"
            }, 
            {
              "id": "137847742955715", 
              "name": "Clinic"
            }
          ], 
          "location": {
            "city": "Cottonwood", 
            "zip": "86326-6744", 
            "country": "United States", 
            "longitude": -112.029113, 
            "state": "AZ", 
            "street": "450 S Willard St Ste 115", 
            "latitude": 34.731699999999996
          }
        }, 
        {
          "category": "Local business", 
          "name": "Simonmed Imaging", 
          "id": "156168101087996", 
          "category_list": [
            {
              "id": "2500", 
              "name": "Local Business"
            }
          ], 
          "location": {
            "city": "Payson", 
            "zip": "85541-5293", 
            "country": "United States", 
            "longitude": -111.322768, 
            "state": "AZ", 
            "street": "117 E Main St", 
            "latitude": 34.22963
          }
        }, 
        {
          "category": "Local business", 
          "name": "Simonmed Imaging", 
          "id": "158837780804930", 
          "category_list": [
            {
              "id": "186546178044573", 
              "name": "Medical Lab"
            }, 
            {
              "id": "188234584533149", 
              "name": "Doctor"
            }, 
            {
              "id": "228143393877753", 
              "name": "Medical Center"
            }
          ], 
          "location": {
            "city": "Glendale", 
            "zip": "85306-4711", 
            "country": "United States", 
            "longitude": -112.175986877, 
            "state": "AZ", 
            "street": "5410 W Thunderbird Rd Ste 100", 
            "latitude": 33.611204946900003
          }
        }, 
        {
          "category": "Local business", 
          "name": "Simonmed Imaging", 
          "id": "150962281612253", 
          "category_list": [
            {
              "id": "188234584533149", 
              "name": "Doctor"
            }
          ], 
          "location": {
            "city": "Surprise", 
            "zip": "85374-7607", 
            "country": "United States", 
            "longitude": -112.379294931, 
            "state": "AZ", 
            "street": "14823 W Bell Rd", 
            "latitude": 33.637203851000002
          }
        }, 
        {
          "category": "Local business", 
          "name": "SimonMed imaging", 
          "id": "138890259499888", 
          "category_list": [
            {
              "id": "186546178044573", 
              "name": "Medical Lab"
            }, 
            {
              "id": "188234584533149", 
              "name": "Doctor"
            }, 
            {
              "id": "133152263416981", 
              "name": "Hospital"
            }
          ], 
          "location": {
            "city": "Mesa", 
            "zip": "85202", 
            "country": "United States", 
            "longitude": -111.863304922, 
            "state": "AZ", 
            "street": "", 
            "latitude": 33.391729980800001
          }
        }, 
        {
          "category": "Local business", 
          "name": "Simonmed Imaging", 
          "id": "132817040104550", 
          "category_list": [
            {
              "id": "145118935550090", 
              "name": "Medical & Health"
            }
          ], 
          "location": {
            "city": "Phoenix", 
            "zip": "85027-3148", 
            "country": "United States", 
            "longitude": -112.117760882, 
            "state": "AZ", 
            "street": "20401 N 29th Ave", 
            "latitude": 33.672008976000001
          }
        }, 
        {
          "category": "Local business", 
          "name": "Simonmed Imaging", 
          "id": "132594626791754", 
          "category_list": [
            {
              "id": "188234584533149", 
              "name": "Doctor"
            }
          ], 
          "location": {
            "city": "Phoenix", 
            "zip": "85015-1104", 
            "country": "United States", 
            "longitude": -112.098732, 
            "state": "AZ", 
            "street": "6707 N 19th Ave", 
            "latitude": 33.53566
          }
        }, 
        {
          "category": "Local business", 
          "name": "SimonMed Imaging", 
          "id": "250871098349672", 
          "category_list": [
            {
              "id": "2500", 
              "name": "Local Business"
            }
          ], 
          "location": {
            "city": "Orlando", 
            "zip": "32806", 
            "country": "United States", 
            "longitude": -81.378243794699998, 
            "state": "FL", 
            "street": "", 
            "latitude": 28.520704289299999
          }
        }, 
        {
          "category": "Local business", 
          "name": "SimonMed Imaging", 
          "id": "191958814206011", 
          "category_list": [
            {
              "id": "145118935550090", 
              "name": "Medical & Health"
            }
          ], 
          "location": {
            "city": "Scottsdale", 
            "zip": "85251", 
            "country": "United States", 
            "longitude": -111.936271445, 
            "state": "AZ", 
            "street": "", 
            "latitude": 33.502519911
          }
        }, 
        {
          "category": "Local business", 
          "name": "Simonmed Imaging", 
          "id": "167925503221618", 
          "category_list": [
            {
              "id": "186546178044573", 
              "name": "Medical Lab"
            }, 
            {
              "id": "188234584533149", 
              "name": "Doctor"
            }
          ], 
          "location": {
            "city": "Goodyear", 
            "zip": "85395-2601", 
            "country": "United States", 
            "longitude": -112.353211569, 
            "state": "AZ", 
            "street": "13657 W Mcdowell Rd", 
            "latitude": 33.463327576399998
          }
        }, 
        {
          "category": "Local business", 
          "name": "Simonmed Imaging", 
          "id": "153923594642664", 
          "category_list": [
            {
              "id": "145118935550090", 
              "name": "Medical & Health"
            }
          ], 
          "location": {
            "city": "Sun City West", 
            "zip": "85375-3403", 
            "country": "United States", 
            "longitude": -112.35633968400001, 
            "state": "AZ", 
            "street": "13624 W Camino Del Sol", 
            "latitude": 33.654864486299999
          }
        }, 
        {
          "category": "Local business", 
          "name": "Riverside Imaging Center (SimonMed)", 
          "id": "355319324514703", 
          "category_list": [
            {
              "id": "2500", 
              "name": "Local Business"
            }
          ], 
          "location": {
            "city": "Riverside", 
            "zip": "92503", 
            "country": "United States", 
            "longitude": -117.458376771, 
            "state": "CA", 
            "street": "", 
            "latitude": 33.914541323000002
          }
        }
      ]
    }
  }, 
  {
    "business_name": "Zen 32", 
    "business_id": "NDKkce5Au-o_OhIt5f2ZBg", 
    "fb_pages": {
      "paging": {
        "next": "https://graph.facebook.com/search?type=place&access_token=229546593895315|yPLlHqq6YvDLIH4nL0kjJtIFSlU&limit=5000&offset=5000&__after_id=1430400433841047"
      }, 
      "data": [
        {
          "category": "Local business", 
          "name": "Zen 320", 
          "id": "111708175534016", 
          "category_list": [
            {
              "id": "134501539950711", 
              "name": "Sushi Restaurant"
            }
          ], 
          "location": {
            "city": "Brookline", 
            "zip": "02445-6873", 
            "country": "United States", 
            "longitude": -71.120121099713003, 
            "state": "MA", 
            "street": "320 Washington St", 
            "latitude": 42.333390007490003
          }
        }, 
        {
          "category": "Local business", 
          "name": "Zen 32 Sushi & Grille", 
          "id": "119165718093820", 
          "category_list": [
            {
              "id": "199035016778342", 
              "name": "Japanese Restaurant"
            }
          ], 
          "location": {
            "city": "Phoenix", 
            "zip": "85016-4502", 
            "country": "United States", 
            "longitude": -112.014042, 
            "state": "AZ", 
            "street": "3160 E Camelback Rd", 
            "latitude": 33.510192000000004
          }
        }, 
        {
          "category": "Spas/beauty/personal care", 
          "name": "Nature Zen 32 Massage relaxant,  bien \u00eatre -  proche Auch, Gers", 
          "id": "1430400433841047", 
          "category_list": [
            {
              "id": "109578329118821", 
              "name": "Massage"
            }
          ], 
          "location": {
            "city": "Ordan-Larroque", 
            "zip": "32350", 
            "country": "France", 
            "longitude": 0.48333300000000001, 
            "state": "", 
            "street": "Merternaut Haut", 
            "latitude": 43.700000000000003
          }
        }
      ]
    }
  }, 
  {
    "business_name": "Roka Akor", 
    "business_id": "bgTB6MgdVQssXhkNJ7qIfw", 
    "fb_pages": {
      "paging": {
        "next": "https://graph.facebook.com/search?type=place&access_token=229546593895315|yPLlHqq6YvDLIH4nL0kjJtIFSlU&limit=5000&offset=5000&__after_id=136531533153732"
      }, 
      "data": [
        {
          "category": "Restaurant/cafe", 
          "name": "Roka Akor Chicago", 
          "id": "154433281277717", 
          "category_list": [
            {
              "id": "198367566846946", 
              "name": "Steakhouse"
            }, 
            {
              "id": "163300367054197", 
              "name": "Seafood Restaurant"
            }, 
            {
              "id": "134501539950711", 
              "name": "Sushi Restaurant"
            }
          ], 
          "location": {
            "city": "Chicago", 
            "zip": "60654", 
            "country": "United States", 
            "longitude": -87.631168466475003, 
            "state": "IL", 
            "street": "456 N. Clark St. Chicago, IL. 60654.", 
            "latitude": 41.890553986866998
          }
        }, 
        {
          "category": "Restaurant/cafe", 
          "name": "Roka Akor Scottsdale", 
          "id": "127817563933141", 
          "category_list": [
            {
              "id": "198367566846946", 
              "name": "Steakhouse"
            }, 
            {
              "id": "163300367054197", 
              "name": "Seafood Restaurant"
            }, 
            {
              "id": "134501539950711", 
              "name": "Sushi Restaurant"
            }
          ], 
          "location": {
            "city": "Scottsdale", 
            "zip": "85253", 
            "country": "United States", 
            "longitude": -111.92509612725, 
            "state": "AZ", 
            "street": "7299 N. Scottsdale Rd.", 
            "latitude": 33.542675515176001
          }
        }, 
        {
          "category": "Restaurant/cafe", 
          "name": "Roka Akor Old Orchard", 
          "id": "522235151167141", 
          "category_list": [
            {
              "id": "198367566846946", 
              "name": "Steakhouse"
            }, 
            {
              "id": "163300367054197", 
              "name": "Seafood Restaurant"
            }, 
            {
              "id": "134501539950711", 
              "name": "Sushi Restaurant"
            }
          ], 
          "location": {
            "city": "Skokie", 
            "zip": "60077", 
            "country": "United States", 
            "longitude": -87.747954133722004, 
            "state": "IL", 
            "street": "4999 Old Orchard Ctr", 
            "latitude": 42.058794440189999
          }
        }, 
        {
          "category": "Restaurant/cafe", 
          "name": "Roka Akor San Francisco", 
          "id": "136531533153732", 
          "category_list": [
            {
              "id": "198367566846946", 
              "name": "Steakhouse"
            }, 
            {
              "id": "163300367054197", 
              "name": "Seafood Restaurant"
            }, 
            {
              "id": "134501539950711", 
              "name": "Sushi Restaurant"
            }
          ], 
          "location": {
            "city": "San Francisco", 
            "zip": "94133", 
            "country": "United States", 
            "longitude": -122.40389030954, 
            "state": "CA", 
            "street": "801 Montgomery St.", 
            "latitude": 37.796301203139002
          }
        }
      ]
    }
  }, 
  {
    "business_name": "Phoenix Sky Harbor International Airport", 
    "business_id": "hW0Ne_HTHEAgGF1rAdmR-g", 
    "fb_pages": {
      "paging": {
        "next": "https://graph.facebook.com/search?type=place&access_token=229546593895315|yPLlHqq6YvDLIH4nL0kjJtIFSlU&limit=5000&offset=5000&__after_id=478165778922890"
      }, 
      "data": [
        {
          "category": "Travel/leisure", 
          "name": "Phoenix Sky Harbor International Airport", 
          "id": "157617914253813", 
          "category_list": [
            {
              "id": "128966563840349", 
              "name": "Airport"
            }
          ], 
          "location": {
            "city": "Phoenix", 
            "zip": "85034", 
            "country": "United States", 
            "longitude": -111.99937618422, 
            "state": "AZ", 
            "street": "3400 E. Sky Harbor Blvd., Suite 3300", 
            "latitude": 33.43410238893
          }
        }, 
        {
          "category": "Local business", 
          "name": "Official JetBlue Terminal - Phoenix Sky Harbor International Airport", 
          "id": "130779583649208", 
          "category_list": [
            {
              "id": "177950465654024", 
              "name": "Airport Terminal"
            }, 
            {
              "id": "223760917681177", 
              "name": "Airport Lounge"
            }, 
            {
              "id": "128966563840349", 
              "name": "Airport"
            }
          ], 
          "location": {
            "city": "Phoenix", 
            "zip": "", 
            "country": "United States", 
            "longitude": -112.00888446218001, 
            "state": "AZ", 
            "street": "", 
            "latitude": 33.434213955556999, 
            "located_in": 287968188010946
          }
        }, 
        {
          "category": "Local business", 
          "name": "Phoenix Sky Harbor International Airport", 
          "id": "577944012284338", 
          "category_list": [
            {
              "id": "128966563840349", 
              "name": "Airport"
            }
          ], 
          "location": {
            "city": "Phoenix", 
            "zip": "85034", 
            "country": "United States", 
            "longitude": -111.97973773299999, 
            "state": "AZ", 
            "street": "E. Sky Harbor Boulevard", 
            "latitude": 33.436484101799998
          }
        }, 
        {
          "category": "Local business", 
          "name": "Phoenix Sky Harbor International Airport Gate A18", 
          "id": "199069846817498", 
          "category_list": [
            {
              "id": "2500", 
              "name": "Local Business"
            }
          ], 
          "location": {
            "city": "Phoenix", 
            "zip": "85034", 
            "country": "United States", 
            "longitude": -112.00196838399999, 
            "state": "AZ", 
            "street": "", 
            "latitude": 33.435867309599999, 
            "located_in": 516921938383222
          }
        }, 
        {
          "category": "Local business", 
          "name": "Phoenix Sky Harbor International Airport (Command Center)", 
          "id": "300396486723260", 
          "category_list": [
            {
              "id": "2500", 
              "name": "Local Business"
            }
          ], 
          "location": {
            "city": "Phoenix", 
            "zip": "", 
            "country": "United States", 
            "longitude": -112.00850665599999, 
            "state": "AZ", 
            "street": "", 
            "latitude": 33.435484170899997, 
            "located_in": 287968188010946
          }
        }, 
        {
          "category": "Local business", 
          "name": "Phoenix Sky Harbor International Airport- Ground Transportation Office", 
          "id": "138700709542875", 
          "category_list": [
            {
              "id": "2500", 
              "name": "Local Business"
            }
          ], 
          "location": {
            "city": "Phoenix", 
            "zip": "85034", 
            "country": "United States", 
            "longitude": -112.034609391, 
            "state": "AZ", 
            "street": "", 
            "latitude": 33.4346990596
          }
        }, 
        {
          "category": "Local business", 
          "name": "Aeromexico - Phoenix Sky Harbor International Airport", 
          "id": "390193267695358", 
          "category_list": [
            {
              "id": "2500", 
              "name": "Local Business"
            }
          ], 
          "location": {
            "city": "Phoenix", 
            "zip": "85034", 
            "country": "United States", 
            "longitude": -111.99450141600001, 
            "state": "AZ", 
            "street": "", 
            "latitude": 33.437385910700002, 
            "located_in": 516921938383222
          }
        }, 
        {
          "category": "Local business", 
          "name": "Gate 6A Phoenix \"Sky Harbor\" International Airport", 
          "id": "113900622017226", 
          "category_list": [
            {
              "id": "128966563840349", 
              "name": "Airport"
            }
          ], 
          "location": {
            "city": "Phoenix", 
            "zip": "85034", 
            "country": "United States", 
            "longitude": -112.01409405699999, 
            "state": "AZ", 
            "street": "", 
            "latitude": 33.434626541999997, 
            "located_in": 234626233354026
          }
        }, 
        {
          "category": "Local business", 
          "name": "Phoenix International Sky Harbor Airport", 
          "id": "405859516137727", 
          "category_list": [
            {
              "id": "177950465654024", 
              "name": "Airport Terminal"
            }
          ], 
          "location": {
            "city": "Avondale", 
            "zip": "85323", 
            "country": "United States", 
            "longitude": -112.307373603, 
            "state": "AZ", 
            "street": "", 
            "latitude": 33.459054318900002
          }
        }, 
        {
          "category": "Local business", 
          "name": "HMS Host - Phoenix Sky Harbor International Airport", 
          "id": "126765290743443", 
          "category_list": [
            {
              "id": "2500", 
              "name": "Local Business"
            }
          ], 
          "location": {
            "city": "Phoenix", 
            "zip": "85034", 
            "country": "United States", 
            "longitude": -112.00937999999999, 
            "state": "AZ", 
            "street": "", 
            "latitude": 33.435020000000002, 
            "located_in": 287968188010946
          }
        }, 
        {
          "category": "Local business", 
          "name": "Brighton Collectibles Phoenix Sky Harbor International Airport", 
          "id": "255888787803365", 
          "category_list": [
            {
              "id": "200600219953504", 
              "name": "Shopping & Retail"
            }
          ], 
          "location": {
            "city": "Phoenix", 
            "zip": "85034", 
            "country": "United States", 
            "longitude": -111.998093, 
            "state": "AZ", 
            "street": "3800 Sky Harbor Blvd. T-4  C-Concourse", 
            "latitude": 33.435910999999997
          }
        }, 
        {
          "category": "Local business", 
          "name": "Terminal 4 International Arrivals-PHOENIX Sky Harbor Airport", 
          "id": "239529246101536", 
          "category_list": [
            {
              "id": "2500", 
              "name": "Local Business"
            }
          ], 
          "location": {
            "city": "Phoenix", 
            "zip": "85034", 
            "country": "United States", 
            "longitude": -111.997956114, 
            "state": "AZ", 
            "street": "", 
            "latitude": 33.435603079800003
          }
        }, 
        {
          "category": "Local business", 
          "name": "Brighton Collectibles Phoenix Sky Harbor International Airport Landside", 
          "id": "261565803892366", 
          "category_list": [
            {
              "id": "200600219953504", 
              "name": "Shopping & Retail"
            }
          ], 
          "location": {
            "city": "Phoenix", 
            "zip": "85034", 
            "country": "United States", 
            "longitude": -111.998093, 
            "state": "AZ", 
            "street": "3800 Sky Harbor Blvd. T-4 Lobby", 
            "latitude": 33.435910999999997
          }
        }, 
        {
          "category": "Local business", 
          "name": "Us Airways Phoenix Sky Harbor International Airport", 
          "id": "389577641073369", 
          "category_list": [
            {
              "id": "177950465654024", 
              "name": "Airport Terminal"
            }, 
            {
              "id": "128966563840349", 
              "name": "Airport"
            }
          ], 
          "location": {
            "city": "Charlotte", 
            "zip": "28208", 
            "country": "United States", 
            "longitude": -80.943526031499999, 
            "state": "NC", 
            "street": "", 
            "latitude": 35.2185673368
          }
        }, 
        {
          "category": "Local business", 
          "name": "TCBY - Sky Harbor Intl Airport", 
          "id": "478165778922890", 
          "category_list": [
            {
              "id": "215290398491661", 
              "name": "Frozen Yogurt Shop"
            }
          ], 
          "location": {
            "city": "Phoenix", 
            "zip": "85034", 
            "country": "United States", 
            "longitude": -112.006546, 
            "state": "AZ", 
            "street": "3400 E. Sky Harbor Blvd", 
            "latitude": 33.434905999999998
          }
        }
      ]
    }
  }, 
  {
    "business_name": "Coblentz Electric", 
    "business_id": "aWzlRZGRVu2OYBpE3ztv-w", 
    "fb_pages": {
      "paging": {
        "next": "https://graph.facebook.com/search?type=place&access_token=229546593895315|yPLlHqq6YvDLIH4nL0kjJtIFSlU&limit=5000&offset=5000&__after_id=145454735578188"
      }, 
      "data": [
        {
          "category": "Business services", 
          "name": "Lindsey Coblentz - Electric Beach", 
          "id": "145454735578188", 
          "category_list": [
            {
              "id": "187133811318958", 
              "name": "Business Services"
            }
          ], 
          "location": {
            "city": "Coralville", 
            "zip": "52241", 
            "country": "United States", 
            "longitude": -91.572106000000005, 
            "state": "IA", 
            "street": "405 2nd St", 
            "latitude": 41.671120999999999
          }
        }
      ]
    }
  }, 
  {
    "business_name": "Cohen Stephen OD", 
    "business_id": "9sVyWIR7rUowu1KJZj7Q1Q", 
    "fb_pages": {
      "paging": {
        "next": "https://graph.facebook.com/search?type=place&access_token=229546593895315|yPLlHqq6YvDLIH4nL0kjJtIFSlU&limit=5000&offset=5000&__after_id=155021434535667"
      }, 
      "data": [
        {
          "category": "Local business", 
          "name": "Cohen Stephen OD", 
          "id": "155021434535667", 
          "category_list": [
            {
              "id": "192316870798061", 
              "name": "Optometrist"
            }
          ], 
          "location": {
            "city": "Scottsdale", 
            "zip": "85254-5232", 
            "country": "United States", 
            "longitude": -111.927194, 
            "state": "AZ", 
            "street": "10900 N Scottsdale Rd Ste 403", 
            "latitude": 33.586243000000003
          }
        }
      ]
    }
  }, 
  {
    "business_name": "La Katra Hot Dog Cart", 
    "business_id": "eV25RVJvKcvPQqxSde0lBQ", 
    "fb_pages": {
      "data": []
    }
  }, 
  {
    "business_name": "The Twenty Dollar Valley Wide Process Server", 
    "business_id": "rzNidfyoNsNg9SPkQVe_wA", 
    "fb_pages": {
      "data": []
    }
  }, 
  {
    "business_name": "Mooster's Mootique", 
    "business_id": "-Tc8XH5AovlSX3_tEmGerg", 
    "fb_pages": {
      "data": []
    }
  }, 
  {
    "business_name": "Bien Nails", 
    "business_id": "wEh9tQZxl5H1ke9MgSOW9g", 
    "fb_pages": {
      "paging": {
        "next": "https://graph.facebook.com/search?type=place&access_token=229546593895315|yPLlHqq6YvDLIH4nL0kjJtIFSlU&limit=5000&offset=5000&__after_id=241558005888924"
      }, 
      "data": [
        {
          "category": "Local business", 
          "name": "Bien Nails", 
          "id": "138945776153211", 
          "category_list": [
            {
              "id": "198516863494646", 
              "name": "Nail Salon"
            }, 
            {
              "id": "144873802247220", 
              "name": "Cosmetics & Beauty Supply"
            }
          ], 
          "location": {
            "city": "Phoenix", 
            "zip": "85037-4055", 
            "country": "United States", 
            "longitude": -112.25453797284, 
            "state": "AZ", 
            "street": "2755 N 91st Ave", 
            "latitude": 33.478084668831997
          }
        }, 
        {
          "category": "Local business", 
          "name": "Bien Nails", 
          "id": "127890810603943", 
          "category_list": [
            {
              "id": "198516863494646", 
              "name": "Nail Salon"
            }, 
            {
              "id": "200814353265561", 
              "name": "Spa"
            }, 
            {
              "id": "144873802247220", 
              "name": "Cosmetics & Beauty Supply"
            }
          ], 
          "location": {
            "city": "Phoenix", 
            "zip": "11111-1111", 
            "country": "United States", 
            "longitude": -112.09432336856, 
            "state": "AZ", 
            "street": "", 
            "latitude": 33.508753578531
          }
        }, 
        {
          "category": "Local business", 
          "name": "Tres Bien Nails", 
          "id": "137637406393592", 
          "category_list": [
            {
              "id": "198516863494646", 
              "name": "Nail Salon"
            }, 
            {
              "id": "144873802247220", 
              "name": "Cosmetics & Beauty Supply"
            }
          ], 
          "location": {
            "city": "Chicago", 
            "zip": "60622", 
            "country": "United States", 
            "longitude": -87.676315757799998, 
            "state": "IL", 
            "street": "", 
            "latitude": 41.903223718
          }
        }, 
        {
          "category": "Local business", 
          "name": "Bien Nails & Spa", 
          "id": "137009309682330", 
          "category_list": [
            {
              "id": "144873802247220", 
              "name": "Cosmetics & Beauty Supply"
            }, 
            {
              "id": "198516863494646", 
              "name": "Nail Salon"
            }
          ], 
          "location": {
            "city": "San Diego", 
            "zip": "92154-6641", 
            "country": "United States", 
            "longitude": -117.004608, 
            "state": "CA", 
            "street": "6051 Business Center Ct", 
            "latitude": 32.568829000000001
          }
        }, 
        {
          "category": "Education", 
          "name": "D\u1ea1y l\u00e0m m\u00f3ng - Nails \u1edf Bi\u00ean H\u00f2a", 
          "id": "440499209400123", 
          "category_list": [
            {
              "id": "108557642554592", 
              "name": "Educational Service"
            }
          ], 
          "location": {
            "city": "Bi\u00ean H\u00f2a", 
            "zip": "\u0110\u1ed3ng Nai", 
            "country": "Vietnam", 
            "longitude": 106.81699999999999, 
            "state": "", 
            "street": "46 v\u00f5 th\u1ecb s\u00e1u, ph\u01b0\u1eddng quy\u1ebft th\u1eafng", 
            "latitude": 10.949999999999999
          }
        }, 
        {
          "category": "Local business", 
          "name": "Spa Tres Bien Nails", 
          "id": "165560053562550", 
          "category_list": [
            {
              "id": "2500", 
              "name": "Local Business"
            }
          ], 
          "location": {
            "city": "Wilmette", 
            "zip": "60091", 
            "country": "United States", 
            "longitude": -87.704186000000007, 
            "state": "IL", 
            "street": "", 
            "latitude": 42.081739800000001
          }
        }, 
        {
          "category": "Local business", 
          "name": "SophieNails - Centre m\u00e9dical et de bien-\u00eatre", 
          "id": "167889909897094", 
          "category_list": [
            {
              "id": "2500", 
              "name": "Local Business"
            }
          ], 
          "location": {
            "city": "Rhode-Saint-Gen\u00e8se", 
            "zip": "1640", 
            "country": "Belgium", 
            "longitude": 4.3810967965199996, 
            "state": "", 
            "street": "Avenue des C\u00e8dres 1", 
            "latitude": 50.756359971999998
          }
        }, 
        {
          "category": "Health/beauty", 
          "name": "Ni\u00f1as Bien", 
          "id": "416268605155369", 
          "category_list": [
            {
              "id": "198516863494646", 
              "name": "Nail Salon"
            }
          ], 
          "location": {
            "city": "Mexico City", 
            "zip": "06100", 
            "country": "Mexico", 
            "longitude": -99.171666317749001, 
            "state": "", 
            "street": "Nuevo Leon 217", 
            "latitude": 19.404684884038002
          }
        }, 
        {
          "category": "Spas/beauty/personal care", 
          "name": "\u30cd\u30a4\u30eb\u30b5\u30ed\u30f3 \u30d3\u30fc\u30cd\uff08nailsalon Biene\uff09", 
          "id": "249265168513212", 
          "category_list": [
            {
              "id": "198516863494646", 
              "name": "Nail Salon"
            }
          ], 
          "location": {
            "city": "Minato-ku", 
            "zip": "108-0074", 
            "country": "Japan", 
            "longitude": 139.74069, 
            "state": "Tokyo", 
            "street": "\u9ad8\u8f2a3-19-20-1F", 
            "latitude": 35.63026
          }
        }, 
        {
          "category": "Local business", 
          "name": "U\u00f1as Bien", 
          "id": "176627139095057", 
          "category_list": [
            {
              "id": "198516863494646", 
              "name": "Nail Salon"
            }
          ], 
          "location": {
            "city": "Zapopan", 
            "zip": "45079", 
            "country": "Mexico", 
            "longitude": -103.43242717699999, 
            "state": "", 
            "street": "PLAZA PASEOS L-1  Calle Luz Torres E 1641 esq. Felipe Zetter Col. Paseos del Sol.  ", 
            "latitude": 20.636380506199998
          }
        }, 
        {
          "category": "Spas/beauty/personal care", 
          "name": "Bien Assorti", 
          "id": "208600135846322", 
          "category_list": [
            {
              "id": "198516863494646", 
              "name": "Nail Salon"
            }, 
            {
              "id": "199236533423806", 
              "name": "Beauty Salon"
            }
          ], 
          "location": {
            "city": "Chicago", 
            "zip": "60647", 
            "country": "United States", 
            "longitude": -87.677796363300004, 
            "state": "IL", 
            "street": "2010 N Damen", 
            "latitude": 41.918302582899997
          }
        }, 
        {
          "category": "Local business", 
          "name": "Tres Bien Beauty Corp", 
          "id": "137740929606478", 
          "category_list": [
            {
              "id": "198516863494646", 
              "name": "Nail Salon"
            }
          ], 
          "location": {
            "city": "New York", 
            "zip": "10022-5102", 
            "country": "United States", 
            "longitude": -73.964396292999993, 
            "state": "NY", 
            "street": "981 1st Ave", 
            "latitude": 40.756241285199998
          }
        }, 
        {
          "category": "Local business", 
          "name": "Bien Assorti", 
          "id": "320663924709974", 
          "category_list": [
            {
              "id": "198516863494646", 
              "name": "Nail Salon"
            }
          ], 
          "location": {
            "city": "Winnetka", 
            "zip": "60093", 
            "country": "United States", 
            "longitude": -87.743136617299996, 
            "state": "IL", 
            "street": "", 
            "latitude": 42.115974153899998
          }
        }, 
        {
          "category": "Spas/beauty/personal care", 
          "name": "Bien Etre Hair and Beauty Clinic & Nail Bar", 
          "id": "134086943295830", 
          "category_list": [
            {
              "id": "199236533423806", 
              "name": "Beauty Salon"
            }, 
            {
              "id": "198516863494646", 
              "name": "Nail Salon"
            }, 
            {
              "id": "174177802634376", 
              "name": "Hair Salon"
            }
          ], 
          "location": {
            "city": "Centurion", 
            "zip": "0157", 
            "country": "South Africa", 
            "longitude": 28.166707462000002, 
            "state": "", 
            "street": "114 Bantry Rd ,Bronberrick, Hennopspark", 
            "latitude": -25.857589119899998
          }
        }, 
        {
          "category": "Spas/beauty/personal care", 
          "name": "Be Beautiful Bienes Kosmetikstudio", 
          "id": "422727214481946", 
          "category_list": [
            {
              "id": "198516863494646", 
              "name": "Nail Salon"
            }, 
            {
              "id": "138322342904312", 
              "name": "Skin Care"
            }, 
            {
              "id": "190310404327530", 
              "name": "Podiatrist"
            }
          ], 
          "location": {
            "city": "Regis-Breitingen", 
            "zip": "04565", 
            "country": "Germany", 
            "longitude": 12.445159, 
            "state": "", 
            "street": "Weststra\u00dfe 14", 
            "latitude": 51.088479999999997
          }
        }, 
        {
          "category": "Local business", 
          "name": "Nail Kh\u00e1nh - 21 Long Bi\u00ean 2", 
          "id": "386262008082164", 
          "category_list": [
            {
              "id": "2500", 
              "name": "Local Business"
            }
          ], 
          "location": {
            "city": "Hanoi", 
            "zip": "", 
            "country": "Vietnam", 
            "longitude": 105.8677234, 
            "state": "", 
            "street": "", 
            "latitude": 21.044747848099998
          }
        }, 
        {
          "category": "Spas/beauty/personal care", 
          "name": "nail salon Biene\u3000\u30cd\u30a4\u30eb\u30b5\u30ed\u30f3\u3000\u30d3\u30fc\u30cd", 
          "id": "241558005888924", 
          "category_list": [
            {
              "id": "139225689474222", 
              "name": "Spa, Beauty & Personal Care"
            }
          ], 
          "location": {
            "city": "Minato-ku", 
            "zip": "", 
            "country": "Japan", 
            "longitude": 139.737924075, 
            "state": "Tokyo", 
            "street": "", 
            "latitude": 35.633109291899999
          }
        }
      ]
    }
  }
]