[
  {
    "business_name": "Nathans Famous Hotdogs", 
    "business_id": "kMxYp2GZL5ic6b05gPP57Q", 
    "fb_pages": {
      "paging": {
        "next": "https://graph.facebook.com/search?type=place&access_token=229546593895315|yPLlHqq6YvDLIH4nL0kjJtIFSlU&limit=5000&offset=5000&__after_id=357352230988112"
      }, 
      "data": [
        {
          "category": "Local business", 
          "name": "Nathan's Famous Hotdogs", 
          "id": "185410084837268", 
          "category_list": [
            {
              "id": "192803624072087", 
              "name": "Fast Food Restaurant"
            }, 
            {
              "id": "212285478786733", 
              "name": "Hot Dog Joint"
            }
          ], 
          "location": {
            "city": "Brooklyn", 
            "zip": "11224", 
            "country": "United States", 
            "longitude": -73.981336453878001, 
            "state": "NY", 
            "street": "1310 Surf Ave.", 
            "latitude": 40.575513530772
          }
        }, 
        {
          "category": "Local business", 
          "name": "Nathans Famous Hotdogs", 
          "id": "126162074119273", 
          "category_list": [
            {
              "id": "273819889375819", 
              "name": "Restaurant"
            }
          ], 
          "location": {
            "city": "Tempe", 
            "zip": "85282", 
            "country": "United States", 
            "longitude": -111.964841745, 
            "state": "AZ", 
            "street": "", 
            "latitude": 33.384826928599999, 
            "located_in": 136076983090467
          }
        }, 
        {
          "category": "Local business", 
          "name": "Nathan's Famous, Hotdogs", 
          "id": "217459148321540", 
          "category_list": [
            {
              "id": "273819889375819", 
              "name": "Restaurant"
            }
          ], 
          "location": {
            "city": "Myrtle Beach", 
            "zip": "29577", 
            "country": "United States", 
            "longitude": -78.902532739600005, 
            "state": "SC", 
            "street": "", 
            "latitude": 33.676522722999998
          }
        }, 
        {
          "category": "Restaurant/cafe", 
          "name": "Nathan's Famous Hotdogs", 
          "id": "169008696615514", 
          "category_list": [
            {
              "id": "273819889375819", 
              "name": "Restaurant"
            }
          ], 
          "location": {
            "city": "Westbury", 
            "zip": "11590", 
            "country": "United States", 
            "longitude": -73.590711999999996, 
            "state": "NY", 
            "street": "1530 Old Country Road", 
            "latitude": 40.746715999999999
          }
        }, 
        {
          "category": "Local business", 
          "name": "Nathan's Famous Hotdogs @ MGM Grand", 
          "id": "227364213952245", 
          "category_list": [
            {
              "id": "212285478786733", 
              "name": "Hot Dog Joint"
            }
          ], 
          "location": {
            "city": "Las Vegas", 
            "zip": "89109", 
            "country": "United States", 
            "longitude": -115.16814589559, 
            "state": "NV", 
            "street": "", 
            "latitude": 36.103256076205
          }
        }, 
        {
          "category": "Local business", 
          "name": "Nathans Famous Hotdogs - K Mart", 
          "id": "367759476617024", 
          "category_list": [
            {
              "id": "2500", 
              "name": "Local Business"
            }
          ], 
          "location": {
            "city": "Bonita", 
            "zip": "92173", 
            "country": "United States", 
            "longitude": -117.04034839800001, 
            "state": "CA", 
            "street": "", 
            "latitude": 32.546320564299997
          }
        }, 
        {
          "category": "Local business", 
          "name": "Nathan's Famous Hotdogs", 
          "id": "123371131170541", 
          "category_list": [
            {
              "id": "165679780146824", 
              "name": "Food & Restaurant"
            }
          ], 
          "location": {
            "city": "Orlando", 
            "zip": "32835", 
            "country": "United States", 
            "longitude": -81.498529127699996, 
            "state": "FL", 
            "street": "", 
            "latitude": 28.514281158300001
          }
        }, 
        {
          "category": "Local business", 
          "name": "Nathan's Famous Hotdogs", 
          "id": "208366622518421", 
          "category_list": [
            {
              "id": "273819889375819", 
              "name": "Restaurant"
            }
          ], 
          "location": {
            "city": "Greenville", 
            "zip": "29615", 
            "country": "United States", 
            "longitude": -82.347908680100005, 
            "state": "SC", 
            "street": "", 
            "latitude": 34.866549039299997
          }
        }, 
        {
          "category": "Local business", 
          "name": "Nathan's Famous Hotdogs / Arthur Teacher's Fish & Chips", 
          "id": "127726023969005", 
          "category_list": [
            {
              "id": "192803624072087", 
              "name": "Fast Food Restaurant"
            }
          ], 
          "location": {
            "city": "Cleveland", 
            "zip": "44113", 
            "country": "United States", 
            "longitude": -81.693836392899996, 
            "state": "OH", 
            "street": "", 
            "latitude": 41.497000163000003
          }
        }, 
        {
          "category": "Local business", 
          "name": "Nathans Famous Coney Island Hotdogs At Waterford Lakes", 
          "id": "259350724175347", 
          "category_list": [
            {
              "id": "2500", 
              "name": "Local Business"
            }
          ], 
          "location": {
            "city": "Orlando", 
            "zip": "", 
            "country": "United States", 
            "longitude": -81.206519999999998, 
            "state": "FL", 
            "street": "", 
            "latitude": 28.557289999999998
          }
        }, 
        {
          "category": "Restaurant/cafe", 
          "name": "Holbrook Ralph's Italian Ices and Nathan's Famous Hotdogs", 
          "id": "357352230988112", 
          "category_list": [
            {
              "id": "273819889375819", 
              "name": "Restaurant"
            }
          ], 
          "location": {
            "city": "Holbrook", 
            "zip": "11741", 
            "country": "United States", 
            "longitude": -73.076049999999995, 
            "state": "NY", 
            "street": "1191 Grundy Ave", 
            "latitude": 40.794952000000002
          }
        }
      ]
    }
  }, 
  {
    "business_name": "Bryan Mok Design & Photography", 
    "business_id": "t2aUr49fVM8QkdZ5Z-FRfg", 
    "fb_pages": {
      "data": []
    }
  }, 
  {
    "business_name": "Northside Carpet Cleaning", 
    "business_id": "zOxg6JO5VA8EMPBFv8egvw", 
    "fb_pages": {
      "paging": {
        "next": "https://graph.facebook.com/search?type=place&access_token=229546593895315|yPLlHqq6YvDLIH4nL0kjJtIFSlU&limit=5000&offset=5000&__after_id=104920672909236"
      }, 
      "data": [
        {
          "category": "Local business", 
          "name": "Coastal Carpet Care & Restoration, Inc.", 
          "id": "275731435843886", 
          "category_list": [
            {
              "id": "210709755608101", 
              "name": "Carpet Cleaner"
            }, 
            {
              "id": "199442556739626", 
              "name": "Upholstery Service"
            }, 
            {
              "id": "186564191378474", 
              "name": "Cleaning Service"
            }
          ], 
          "location": {
            "city": "Statesboro", 
            "zip": "30458", 
            "country": "United States", 
            "longitude": -81.759739999999994, 
            "state": "GA", 
            "street": "715 Northside Dr E ", 
            "latitude": 32.438819000000002
          }
        }, 
        {
          "category": "Local business", 
          "name": "Ansley Dry Cleaning", 
          "id": "104920672909236", 
          "category_list": [
            {
              "id": "210709755608101", 
              "name": "Carpet Cleaner"
            }, 
            {
              "id": "133148010085253", 
              "name": "Dry Cleaner"
            }
          ], 
          "location": {
            "city": "Atlanta", 
            "zip": "30318-3203", 
            "country": "United States", 
            "longitude": -84.408187999999996, 
            "state": "GA", 
            "street": "1640 Northside Dr NW", 
            "latitude": 33.799877000000002
          }
        }
      ]
    }
  }, 
  {
    "business_name": "La Bonne Vie Skin Studio", 
    "business_id": "dbXi2Ebw8y8W2qBtbDHXxQ", 
    "fb_pages": {
      "paging": {
        "next": "https://graph.facebook.com/search?type=place&access_token=229546593895315|yPLlHqq6YvDLIH4nL0kjJtIFSlU&limit=5000&offset=5000&__after_id=237580113812"
      }, 
      "data": [
        {
          "category": "Spas/beauty/personal care", 
          "name": "La Bonne Vie Skin Studio", 
          "id": "237580113812", 
          "category_list": [
            {
              "id": "138322342904312", 
              "name": "Skin Care"
            }
          ], 
          "location": {
            "city": "Tempe", 
            "zip": "85282", 
            "country": "United States", 
            "longitude": -111.899323, 
            "state": "AZ", 
            "street": "2034 E. Southern Ave., Ste. B", 
            "latitude": 33.393791
          }
        }
      ]
    }
  }, 
  {
    "business_name": "Udupi Indian Veg & Vegan Cuisine", 
    "business_id": "lhRUPA28pRIN1MnllN-o9g", 
    "fb_pages": {
      "paging": {
        "next": "https://graph.facebook.com/search?type=place&access_token=229546593895315|yPLlHqq6YvDLIH4nL0kjJtIFSlU&limit=5000&offset=5000&__after_id=153340758197073"
      }, 
      "data": [
        {
          "category": "Local business", 
          "name": "Udupi Cafe Indian Vegetarian Cuisine", 
          "id": "104993576210112", 
          "category_list": [
            {
              "id": "129539913784760", 
              "name": "Indian Restaurant"
            }
          ], 
          "location": {
            "city": "Cary", 
            "zip": "27511-6955", 
            "country": "United States", 
            "longitude": -78.768338985065, 
            "state": "NC", 
            "street": "590 E Chatham St", 
            "latitude": 35.790693277602003
          }
        }, 
        {
          "category": "Restaurant/cafe", 
          "name": "Udupi Bhavan South Indian Vegetarian Cuisine", 
          "id": "167386443315762", 
          "category_list": [
            {
              "id": "200742186618963", 
              "name": "Vegetarian & Vegan Restaurant"
            }, 
            {
              "id": "192803624072087", 
              "name": "Fast Food Restaurant"
            }, 
            {
              "id": "176007949109829", 
              "name": "Buffet Restaurant"
            }
          ], 
          "location": {
            "city": "Lowell", 
            "zip": "01851", 
            "country": "United States", 
            "longitude": -71.353223413896004, 
            "state": "MA", 
            "street": "1717 Mddlesex Street", 
            "latitude": 42.635582525654002
          }
        }, 
        {
          "category": "Restaurant/cafe", 
          "name": "Amanthran Veg", 
          "id": "153340758197073", 
          "category_list": [
            {
              "id": "129539913784760", 
              "name": "Indian Restaurant"
            }
          ], 
          "location": {
            "city": "Udupi", 
            "zip": "576101", 
            "country": "India", 
            "longitude": 74.75, 
            "state": "", 
            "street": "Opposite Geethanjali Talkies,Ramakrishna Complex", 
            "latitude": 13.59
          }
        }
      ]
    }
  }, 
  {
    "business_name": "Maryvale Baseball Park", 
    "business_id": "zyCrtvCPdSZDhUrH86vbeA", 
    "fb_pages": {
      "paging": {
        "next": "https://graph.facebook.com/search?type=place&access_token=229546593895315|yPLlHqq6YvDLIH4nL0kjJtIFSlU&limit=5000&offset=5000&__after_id=153636534654602"
      }, 
      "data": [
        {
          "category": "Local business", 
          "name": "Maryvale Baseball Park", 
          "id": "153636534654602", 
          "category_list": [
            {
              "id": "109976259083543", 
              "name": "Sports Venue & Stadium"
            }, 
            {
              "id": "186982054657561", 
              "name": "Sports & Recreation"
            }
          ], 
          "location": {
            "city": "Phoenix", 
            "zip": "85031", 
            "country": "United States", 
            "longitude": -112.17234056328, 
            "state": "AZ", 
            "street": "3600 N. 51st Avenue ", 
            "latitude": 33.491757502976
          }
        }
      ]
    }
  }, 
  {
    "business_name": "Let It Roll Bowl & Entertainment", 
    "business_id": "R4catpIG7txsNMv1ZBL5vA", 
    "fb_pages": {
      "paging": {
        "next": "https://graph.facebook.com/search?type=place&access_token=229546593895315|yPLlHqq6YvDLIH4nL0kjJtIFSlU&limit=5000&offset=5000&__after_id=117994888230836"
      }, 
      "data": [
        {
          "category": "Local business", 
          "name": "Let It Roll Bowl", 
          "id": "117994888230836", 
          "category_list": [
            {
              "id": "182582091788254", 
              "name": "Bowling Alley"
            }
          ], 
          "location": {
            "city": "Phoenix", 
            "zip": "85020", 
            "country": "United States", 
            "longitude": -112.05578683451, 
            "state": "AZ", 
            "street": "8925 North 12th Street", 
            "latitude": 33.566937296828002
          }
        }
      ]
    }
  }, 
  {
    "business_name": "Rubio's Fresh Mexican Grill", 
    "business_id": "EeQlS9VLlfWT25-MeYsJTg", 
    "fb_pages": {
      "paging": {
        "next": "https://graph.facebook.com/search?type=place&access_token=229546593895315|yPLlHqq6YvDLIH4nL0kjJtIFSlU&limit=5000&offset=5000&__after_id=164885876898001"
      }, 
      "data": [
        {
          "category": "Local business", 
          "name": "Rubio's Fresh Mexican Grill", 
          "id": "165225890197481", 
          "category_list": [
            {
              "id": "199377230079198", 
              "name": "Mexican Restaurant"
            }
          ], 
          "location": {
            "city": "Downey", 
            "zip": "90242", 
            "country": "United States", 
            "longitude": -118.12944199214, 
            "state": "CA", 
            "street": "12010 Lakewood Blvd.", 
            "latitude": 33.927508743986998
          }
        }, 
        {
          "category": "Local business", 
          "name": "Rubio's Fresh Mexican Grill", 
          "id": "200974373258615", 
          "category_list": [
            {
              "id": "199377230079198", 
              "name": "Mexican Restaurant"
            }
          ], 
          "location": {
            "city": "Vacaville", 
            "zip": "95688", 
            "country": "United States", 
            "longitude": -121.96157319923, 
            "state": "CA", 
            "street": "1651 E Monte Vista Avenue", 
            "latitude": 38.368611732848997
          }
        }, 
        {
          "category": "Local business", 
          "name": "Rubio's Fresh Mexican Grill", 
          "id": "197422876958916", 
          "category_list": [
            {
              "id": "199377230079198", 
              "name": "Mexican Restaurant"
            }
          ], 
          "location": {
            "city": "Stockton", 
            "zip": "95207", 
            "country": "United States", 
            "longitude": -121.31757664574, 
            "state": "CA", 
            "street": "5779 Pacific Avenue", 
            "latitude": 38.002440748882997
          }
        }, 
        {
          "category": "Local business", 
          "name": "Rubio's Fresh Mexican Grill", 
          "id": "183408551705993", 
          "category_list": [
            {
              "id": "199377230079198", 
              "name": "Mexican Restaurant"
            }
          ], 
          "location": {
            "city": "Chula Vista", 
            "zip": "91910", 
            "country": "United States", 
            "longitude": -117.08777928223, 
            "state": "CA", 
            "street": "555 Broadway Street", 
            "latitude": 32.630494880736002
          }
        }, 
        {
          "category": "Local business", 
          "name": "Rubio's Fresh Mexican Grill", 
          "id": "187300187981130", 
          "category_list": [
            {
              "id": "199377230079198", 
              "name": "Mexican Restaurant"
            }
          ], 
          "location": {
            "city": "Anaheim", 
            "zip": "92801", 
            "country": "United States", 
            "longitude": -117.93810249018, 
            "state": "CA", 
            "street": "520 North Euclid Avenue", 
            "latitude": 33.838555174124998
          }
        }, 
        {
          "category": "Local business", 
          "name": "Rubio's Fresh Mexican Grill", 
          "id": "177801362267277", 
          "category_list": [
            {
              "id": "199377230079198", 
              "name": "Mexican Restaurant"
            }
          ], 
          "location": {
            "city": "Redlands", 
            "zip": "92374", 
            "country": "United States", 
            "longitude": -117.18275353241, 
            "state": "CA", 
            "street": "633 Orange Street", 
            "latitude": 34.060803771262002
          }
        }, 
        {
          "category": "Local business", 
          "name": "Rubio's Fresh Mexican Grill", 
          "id": "192104467492378", 
          "category_list": [
            {
              "id": "199377230079198", 
              "name": "Mexican Restaurant"
            }
          ], 
          "location": {
            "city": "Vallejo", 
            "zip": "94591", 
            "country": "United States", 
            "longitude": -122.21828691096, 
            "state": "CA", 
            "street": "173 Plaza Drive", 
            "latitude": 38.133295678933003
          }
        }, 
        {
          "category": "Local business", 
          "name": "Rubio's Fresh Mexican Grill", 
          "id": "197677193605737", 
          "category_list": [
            {
              "id": "199377230079198", 
              "name": "Mexican Restaurant"
            }
          ], 
          "location": {
            "city": "Murrieta", 
            "zip": "92563", 
            "country": "United States", 
            "longitude": -117.17711325448001, 
            "state": "CA", 
            "street": "40436 Murrieta Hot Springs Road", 
            "latitude": 33.554947888633002
          }
        }, 
        {
          "category": "Local business", 
          "name": "Rubio's Fresh Mexican Grill", 
          "id": "102703966480851", 
          "category_list": [
            {
              "id": "199377230079198", 
              "name": "Mexican Restaurant"
            }
          ], 
          "location": {
            "city": "Fresno", 
            "zip": "93720", 
            "country": "United States", 
            "longitude": -119.78918312779, 
            "state": "CA", 
            "street": "40 El Camino", 
            "latitude": 36.847874527107003
          }
        }, 
        {
          "category": "Local business", 
          "name": "Rubio's Fresh Mexican Grill", 
          "id": "181857681859984", 
          "category_list": [
            {
              "id": "199377230079198", 
              "name": "Mexican Restaurant"
            }
          ], 
          "location": {
            "city": "Bakersfield", 
            "zip": "93312", 
            "country": "United States", 
            "longitude": -119.10467861028, 
            "state": "CA", 
            "street": "9200 Rosedale Highway", 
            "latitude": 35.383972184478999
          }
        }, 
        {
          "category": "Local business", 
          "name": "Rubio's Fresh Mexican Grill", 
          "id": "210237052320346", 
          "category_list": [
            {
              "id": "199377230079198", 
              "name": "Mexican Restaurant"
            }
          ], 
          "location": {
            "city": "Victorville", 
            "zip": "92301", 
            "country": "United States", 
            "longitude": -117.40000990159, 
            "state": "CA", 
            "street": "14148 Highway 395", 
            "latitude": 34.507176731681
          }
        }, 
        {
          "category": "Local business", 
          "name": "Rubio's Fresh Mexican Grill", 
          "id": "164423560277726", 
          "category_list": [
            {
              "id": "199377230079198", 
              "name": "Mexican Restaurant"
            }
          ], 
          "location": {
            "city": "Goodyear", 
            "zip": "85338", 
            "country": "United States", 
            "longitude": -112.39202738663001, 
            "state": "AZ", 
            "street": "15479 W McDowell Road", 
            "latitude": 33.463783129135003
          }
        }, 
        {
          "category": "Local business", 
          "name": "Rubio's Fresh Mexican Grill", 
          "id": "113553875390122", 
          "category_list": [
            {
              "id": "199377230079198", 
              "name": "Mexican Restaurant"
            }
          ], 
          "location": {
            "city": "Mesa", 
            "zip": "85201", 
            "country": "United States", 
            "longitude": -111.60052175817, 
            "state": "AZ", 
            "street": "1804 S Signal Butte ", 
            "latitude": 33.382612687113998
          }
        }, 
        {
          "category": "Local business", 
          "name": "Rubio's Fresh Mexican Grill", 
          "id": "210238525655841", 
          "category_list": [
            {
              "id": "199377230079198", 
              "name": "Mexican Restaurant"
            }
          ], 
          "location": {
            "city": "San Diego", 
            "zip": "92109", 
            "country": "United States", 
            "longitude": -117.21647644033, 
            "state": "CA", 
            "street": "4504 East Mission Bay Drive", 
            "latitude": 32.802749524524003
          }
        }, 
        {
          "category": "Local business", 
          "name": "Rubio's Fresh Mexican Grill", 
          "id": "211903402160378", 
          "category_list": [
            {
              "id": "199377230079198", 
              "name": "Mexican Restaurant"
            }
          ], 
          "location": {
            "city": "Escondido", 
            "zip": "92027", 
            "country": "United States", 
            "longitude": -117.06182904629, 
            "state": "CA", 
            "street": "1485 East Valley Parkway", 
            "latitude": 33.132259638209
          }
        }, 
        {
          "category": "Local business", 
          "name": "Rubio's Fresh Mexican Grill", 
          "id": "188012444574648", 
          "category_list": [
            {
              "id": "199377230079198", 
              "name": "Mexican Restaurant"
            }
          ], 
          "location": {
            "city": "Oxnard", 
            "zip": "93036", 
            "country": "United States", 
            "longitude": -119.15970244634001, 
            "state": "CA", 
            "street": "2121 North Rose Avenue", 
            "latitude": 34.221344659335003
          }
        }, 
        {
          "category": "Local business", 
          "name": "Rubio's Fresh Mexican Grill", 
          "id": "199024856795478", 
          "category_list": [
            {
              "id": "199377230079198", 
              "name": "Mexican Restaurant"
            }
          ], 
          "location": {
            "city": "San Marcos", 
            "zip": "92069", 
            "country": "United States", 
            "longitude": -117.12145781763, 
            "state": "CA", 
            "street": "751 Center Drive", 
            "latitude": 33.135550826673999
          }
        }, 
        {
          "category": "Local business", 
          "name": "Rubio's Fresh Mexican Grill", 
          "id": "160691553989013", 
          "category_list": [
            {
              "id": "199377230079198", 
              "name": "Mexican Restaurant"
            }
          ], 
          "location": {
            "city": "Pleasant Hill", 
            "zip": "94523", 
            "country": "United States", 
            "longitude": -122.05644321358, 
            "state": "CA", 
            "street": "2390 Monument Blvd.", 
            "latitude": 37.944738752485001
          }
        }, 
        {
          "category": "Local business", 
          "name": "Rubio's Fresh Mexican Grill", 
          "id": "120267011382666", 
          "category_list": [
            {
              "id": "199377230079198", 
              "name": "Mexican Restaurant"
            }
          ], 
          "location": {
            "city": "Casa Grande", 
            "zip": "85294", 
            "country": "United States", 
            "longitude": -111.6812038371, 
            "state": "AZ", 
            "street": "844 N Promenade Parkway", 
            "latitude": 32.881854235401001
          }
        }, 
        {
          "category": "Local business", 
          "name": "Rubio's Fresh Mexican Grill", 
          "id": "197214840318355", 
          "category_list": [
            {
              "id": "199377230079198", 
              "name": "Mexican Restaurant"
            }
          ], 
          "location": {
            "city": "Hemet", 
            "zip": "92545", 
            "country": "United States", 
            "longitude": -117.00061656456, 
            "state": "CA", 
            "street": "2701 West Florida Avenue", 
            "latitude": 33.747203477550002
          }
        }, 
        {
          "category": "Local business", 
          "name": "Rubio's Fresh Mexican Grill", 
          "id": "200008956689210", 
          "category_list": [
            {
              "id": "199377230079198", 
              "name": "Mexican Restaurant"
            }
          ], 
          "location": {
            "city": "San Diego", 
            "zip": "92115", 
            "country": "United States", 
            "longitude": -117.05165580983, 
            "state": "CA", 
            "street": "3406 College Avenue", 
            "latitude": 32.742215896493001
          }
        }, 
        {
          "category": "Local business", 
          "name": "Rubio's Fresh Mexican Grill", 
          "id": "200589813296464", 
          "category_list": [
            {
              "id": "199377230079198", 
              "name": "Mexican Restaurant"
            }
          ], 
          "location": {
            "city": "Tucson", 
            "zip": "85716", 
            "country": "United States", 
            "longitude": -110.91855552187, 
            "state": "AZ", 
            "street": "3421 East Broadway Blvd.", 
            "latitude": 32.222112133156003
          }
        }, 
        {
          "category": "Local business", 
          "name": "Rubio's Fresh Mexican Grill", 
          "id": "199057083461741", 
          "category_list": [
            {
              "id": "199377230079198", 
              "name": "Mexican Restaurant"
            }
          ], 
          "location": {
            "city": "San Diego", 
            "zip": "92126", 
            "country": "United States", 
            "longitude": -117.12089363683, 
            "state": "CA", 
            "street": "10732 Westview Parkway", 
            "latitude": 32.916021145648003
          }
        }, 
        {
          "category": "Local business", 
          "name": "Rubio's Fresh Mexican Grill", 
          "id": "153713031357471", 
          "category_list": [
            {
              "id": "199377230079198", 
              "name": "Mexican Restaurant"
            }
          ], 
          "location": {
            "city": "Fremont", 
            "zip": "94538", 
            "country": "United States", 
            "longitude": -121.97140950626, 
            "state": "CA", 
            "street": "43405 Christy Street", 
            "latitude": 37.505203279980996
          }
        }, 
        {
          "category": "Local business", 
          "name": "Rubio's Fresh Mexican Grill", 
          "id": "214079841941479", 
          "category_list": [
            {
              "id": "199377230079198", 
              "name": "Mexican Restaurant"
            }
          ], 
          "location": {
            "city": "Mesa", 
            "zip": "85201", 
            "country": "United States", 
            "longitude": -111.86792065543, 
            "state": "AZ", 
            "street": "937 N Dobson Road", 
            "latitude": 33.433953469311
          }
        }, 
        {
          "category": "Local business", 
          "name": "Rubio's Fresh Mexican Grill", 
          "id": "210735882271478", 
          "category_list": [
            {
              "id": "199377230079198", 
              "name": "Mexican Restaurant"
            }
          ], 
          "location": {
            "city": "San Diego", 
            "zip": "92108", 
            "country": "United States", 
            "longitude": -117.14237617169999, 
            "state": "CA", 
            "street": "2075-A Camino De La Reina", 
            "latitude": 32.771098075254997
          }
        }, 
        {
          "category": "Local business", 
          "name": "Rubio's Fresh Mexican Grill", 
          "id": "210143759011106", 
          "category_list": [
            {
              "id": "199377230079198", 
              "name": "Mexican Restaurant"
            }
          ], 
          "location": {
            "city": "Palm Springs", 
            "zip": "92264", 
            "country": "United States", 
            "longitude": -116.49240057701, 
            "state": "CA", 
            "street": "5200 Ramon Road", 
            "latitude": 33.816745653757998
          }
        }, 
        {
          "category": "Local business", 
          "name": "Rubio's Fresh Mexican Grill", 
          "id": "199211926768579", 
          "category_list": [
            {
              "id": "199377230079198", 
              "name": "Mexican Restaurant"
            }
          ], 
          "location": {
            "city": "San Diego", 
            "zip": "92037", 
            "country": "United States", 
            "longitude": -117.23217173018, 
            "state": "CA", 
            "street": "8855 Villa La Jolla Drive", 
            "latitude": 32.869034148093
          }
        }, 
        {
          "category": "Local business", 
          "name": "Rubio's Fresh Mexican Grill", 
          "id": "173877995998407", 
          "category_list": [
            {
              "id": "199377230079198", 
              "name": "Mexican Restaurant"
            }
          ], 
          "location": {
            "city": "Glendale", 
            "zip": "85382", 
            "country": "United States", 
            "longitude": -112.21831810768001, 
            "state": "AZ", 
            "street": "7407 West Bell Road", 
            "latitude": 33.637925193224
          }
        }, 
        {
          "category": "Local business", 
          "name": "Rubio's Fresh Mexican Grill", 
          "id": "197591243607299", 
          "category_list": [
            {
              "id": "199377230079198", 
              "name": "Mexican Restaurant"
            }
          ], 
          "location": {
            "city": "Temecula", 
            "zip": "92592", 
            "country": "United States", 
            "longitude": -117.09589332995, 
            "state": "CA", 
            "street": "32180 Temecula Parkway", 
            "latitude": 33.482869862660003
          }
        }, 
        {
          "category": "Local business", 
          "name": "Rubio's Fresh Mexican Grill", 
          "id": "102814419802371", 
          "category_list": [
            {
              "id": "199377230079198", 
              "name": "Mexican Restaurant"
            }
          ], 
          "location": {
            "city": "Carlsbad", 
            "zip": "92008", 
            "country": "United States", 
            "longitude": -117.31983758924, 
            "state": "CA", 
            "street": "5620 Paseo Del Norte", 
            "latitude": 33.125141444428998
          }
        }, 
        {
          "category": "Local business", 
          "name": "Rubio's Fresh Mexican Grill", 
          "id": "136050739799490", 
          "category_list": [
            {
              "id": "199377230079198", 
              "name": "Mexican Restaurant"
            }
          ], 
          "location": {
            "city": "San Jose", 
            "zip": "95125", 
            "country": "United States", 
            "longitude": -121.86478521295, 
            "state": "CA", 
            "street": "81 Curtner Avenue", 
            "latitude": 37.3029450676
          }
        }, 
        {
          "category": "Local business", 
          "name": "Rubio's Fresh Mexican Grill", 
          "id": "138659849535437", 
          "category_list": [
            {
              "id": "199377230079198", 
              "name": "Mexican Restaurant"
            }
          ], 
          "location": {
            "city": "Henderson", 
            "zip": "89014", 
            "country": "United States", 
            "longitude": -115.03841428489, 
            "state": "NV", 
            "street": "1205 West Sunset Road", 
            "latitude": 36.063305569817999
          }
        }, 
        {
          "category": "Local business", 
          "name": "Rubio's Fresh Mexican Grill", 
          "id": "200131136674997", 
          "category_list": [
            {
              "id": "199377230079198", 
              "name": "Mexican Restaurant"
            }
          ], 
          "location": {
            "city": "Chula Vista", 
            "zip": "91915", 
            "country": "United States", 
            "longitude": -116.96520047241, 
            "state": "CA", 
            "street": "1480 Eastlake Parkway", 
            "latitude": 32.628542741750998
          }
        }, 
        {
          "category": "Local business", 
          "name": "Rubio's Fresh Mexican Grill", 
          "id": "102804099803402", 
          "category_list": [
            {
              "id": "199377230079198", 
              "name": "Mexican Restaurant"
            }
          ], 
          "location": {
            "city": "Moreno Valley", 
            "zip": "92507", 
            "country": "United States", 
            "longitude": -117.28204995934, 
            "state": "CA", 
            "street": "2694 Canyon Springs Parkway", 
            "latitude": 33.941243169659003
          }
        }, 
        {
          "category": "Local business", 
          "name": "Rubio's Fresh Mexican Grill", 
          "id": "189153167794876", 
          "category_list": [
            {
              "id": "199377230079198", 
              "name": "Mexican Restaurant"
            }
          ], 
          "location": {
            "city": "Oceanside", 
            "zip": "92057", 
            "country": "United States", 
            "longitude": -117.28445648000999, 
            "state": "CA", 
            "street": "4201 Oceanside Blvd.", 
            "latitude": 33.206957576257999
          }
        }, 
        {
          "category": "Local business", 
          "name": "Rubio's Fresh Mexican Grill", 
          "id": "135580233182533", 
          "category_list": [
            {
              "id": "199377230079198", 
              "name": "Mexican Restaurant"
            }
          ], 
          "location": {
            "city": "Orange", 
            "zip": "92865", 
            "country": "United States", 
            "longitude": -117.83660529285, 
            "state": "CA", 
            "street": "2318 North Tustin Street", 
            "latitude": 33.828595840142
          }
        }, 
        {
          "category": "Local business", 
          "name": "Rubio's Fresh Mexican Grill", 
          "id": "113823605363101", 
          "category_list": [
            {
              "id": "199377230079198", 
              "name": "Mexican Restaurant"
            }
          ], 
          "location": {
            "city": "Mesa", 
            "zip": "85206", 
            "country": "United States", 
            "longitude": -111.68898420022001, 
            "state": "AZ", 
            "street": "6736 East Baseline Road", 
            "latitude": 33.379864510624003
          }
        }, 
        {
          "category": "Local business", 
          "name": "Rubio's Fresh Mexican Grill", 
          "id": "164552906933253", 
          "category_list": [
            {
              "id": "199377230079198", 
              "name": "Mexican Restaurant"
            }
          ], 
          "location": {
            "city": "Chandler", 
            "zip": "85249", 
            "country": "United States", 
            "longitude": -111.79121236931999, 
            "state": "AZ", 
            "street": "2970 E Germann Road", 
            "latitude": 33.278414145169002
          }
        }, 
        {
          "category": "Local business", 
          "name": "Rubio's Fresh Mexican Grill", 
          "id": "102788019807328", 
          "category_list": [
            {
              "id": "199377230079198", 
              "name": "Mexican Restaurant"
            }
          ], 
          "location": {
            "city": "San Diego", 
            "zip": "92110", 
            "country": "United States", 
            "longitude": -117.20536134175001, 
            "state": "CA", 
            "street": "3555 Rosecrans Street", 
            "latitude": 32.750213357751001
          }
        }, 
        {
          "category": "Local business", 
          "name": "Rubio's Fresh Mexican Grill", 
          "id": "197303636976173", 
          "category_list": [
            {
              "id": "199377230079198", 
              "name": "Mexican Restaurant"
            }
          ], 
          "location": {
            "city": "Brentwood", 
            "zip": "94513", 
            "country": "United States", 
            "longitude": -121.7399545172, 
            "state": "CA", 
            "street": "2505 Sand Creek Road", 
            "latitude": 37.944900842507003
          }
        }, 
        {
          "category": "Local business", 
          "name": "Rubio's Fresh Mexican Grill", 
          "id": "144183955648538", 
          "category_list": [
            {
              "id": "199377230079198", 
              "name": "Mexican Restaurant"
            }
          ], 
          "location": {
            "city": "Cerritos", 
            "zip": "90701", 
            "country": "United States", 
            "longitude": -118.05953611125, 
            "state": "CA", 
            "street": "12751 Towne Center Drive", 
            "latitude": 33.871133977069
          }
        }, 
        {
          "category": "Local business", 
          "name": "Rubio's Fresh Mexican Grill", 
          "id": "213092925372260", 
          "category_list": [
            {
              "id": "199377230079198", 
              "name": "Mexican Restaurant"
            }
          ], 
          "location": {
            "city": "La Mesa", 
            "zip": "91942", 
            "country": "United States", 
            "longitude": -117.0098776289, 
            "state": "CA", 
            "street": "5500 Grossmont Center Drive", 
            "latitude": 32.778902941037003
          }
        }, 
        {
          "category": "Local business", 
          "name": "Rubio's Fresh Mexican Grill", 
          "id": "144354608965120", 
          "category_list": [
            {
              "id": "199377230079198", 
              "name": "Mexican Restaurant"
            }
          ], 
          "location": {
            "city": "Las Vegas", 
            "zip": "89128", 
            "country": "United States", 
            "longitude": -115.25046152858, 
            "state": "NV", 
            "street": "7290 West Lake Mead Blvd.", 
            "latitude": 36.196586859884
          }
        }, 
        {
          "category": "Local business", 
          "name": "Rubio's Fresh Mexican Grill", 
          "id": "193041290731575", 
          "category_list": [
            {
              "id": "199377230079198", 
              "name": "Mexican Restaurant"
            }
          ], 
          "location": {
            "city": "Ontario", 
            "zip": "91764", 
            "country": "United States", 
            "longitude": -117.54578614432, 
            "state": "CA", 
            "street": "980 North Ontario Mills Drive", 
            "latitude": 34.074591271575997
          }
        }, 
        {
          "category": "Local business", 
          "name": "Rubio's Fresh Mexican Grill", 
          "id": "150490588347085", 
          "category_list": [
            {
              "id": "199377230079198", 
              "name": "Mexican Restaurant"
            }
          ], 
          "location": {
            "city": "Northridge", 
            "zip": "91324", 
            "country": "United States", 
            "longitude": -118.55917758872999, 
            "state": "CA", 
            "street": "19500 Plummer Street", 
            "latitude": 34.241400178298001
          }
        }, 
        {
          "category": "Local business", 
          "name": "Rubio's Fresh Mexican Grill", 
          "id": "135211409885320", 
          "category_list": [
            {
              "id": "199377230079198", 
              "name": "Mexican Restaurant"
            }
          ], 
          "location": {
            "city": "Palmdale", 
            "zip": "93550", 
            "country": "United States", 
            "longitude": -118.1482901007, 
            "state": "CA", 
            "street": "39445 10th Street West", 
            "latitude": 34.599821246939001
          }
        }, 
        {
          "category": "Local business", 
          "name": "Rubio's Fresh Mexican Grill", 
          "id": "194072837298091", 
          "category_list": [
            {
              "id": "199377230079198", 
              "name": "Mexican Restaurant"
            }
          ], 
          "location": {
            "city": "Mesa", 
            "zip": "85204", 
            "country": "United States", 
            "longitude": -111.80287246064, 
            "state": "AZ", 
            "street": "1649 South Stapley Drive", 
            "latitude": 33.383800193786001
          }
        }, 
        {
          "category": "Local business", 
          "name": "Rubio's Fresh Mexican Grill", 
          "id": "212734408742757", 
          "category_list": [
            {
              "id": "199377230079198", 
              "name": "Mexican Restaurant"
            }
          ], 
          "location": {
            "city": "Sacramento", 
            "zip": "95823", 
            "country": "United States", 
            "longitude": -121.41678669624, 
            "state": "CA", 
            "street": "8251 Bruceville Road", 
            "latitude": 38.458824486155002
          }
        }, 
        {
          "category": "Local business", 
          "name": "Rubio's Fresh Mexican Grill", 
          "id": "199782796721254", 
          "category_list": [
            {
              "id": "199377230079198", 
              "name": "Mexican Restaurant"
            }
          ], 
          "location": {
            "city": "Santa Ana", 
            "zip": "92704", 
            "country": "United States", 
            "longitude": -117.90730486776999, 
            "state": "CA", 
            "street": "2841 West MacArthur Blvd.", 
            "latitude": 33.700584964987002
          }
        }, 
        {
          "category": "Local business", 
          "name": "Rubio's Fresh Mexican Grill", 
          "id": "196833140356913", 
          "category_list": [
            {
              "id": "199377230079198", 
              "name": "Mexican Restaurant"
            }
          ], 
          "location": {
            "city": "Santee", 
            "zip": "92071", 
            "country": "United States", 
            "longitude": -116.98917764686, 
            "state": "CA", 
            "street": "130 Town Center Parkway", 
            "latitude": 32.841095378497997
          }
        }, 
        {
          "category": "Local business", 
          "name": "Rubio's Fresh Mexican Grill", 
          "id": "209935419019749", 
          "category_list": [
            {
              "id": "199377230079198", 
              "name": "Mexican Restaurant"
            }
          ], 
          "location": {
            "city": "Torrance", 
            "zip": "90505", 
            "country": "United States", 
            "longitude": -118.33075901398, 
            "state": "CA", 
            "street": "25366 Crenshaw Blvd.", 
            "latitude": 33.793117467252003
          }
        }, 
        {
          "category": "Local business", 
          "name": "Rubio's Fresh Mexican Grill", 
          "id": "191505494219452", 
          "category_list": [
            {
              "id": "199377230079198", 
              "name": "Mexican Restaurant"
            }
          ], 
          "location": {
            "city": "Emeryville", 
            "zip": "94608", 
            "country": "United States", 
            "longitude": -122.29212013375, 
            "state": "CA", 
            "street": "5614 Bay Street", 
            "latitude": 37.833576776545002
          }
        }, 
        {
          "category": "Local business", 
          "name": "Rubio's Fresh Mexican Grill", 
          "id": "164054453648640", 
          "category_list": [
            {
              "id": "199377230079198", 
              "name": "Mexican Restaurant"
            }
          ], 
          "location": {
            "city": "Lancaster", 
            "zip": "93534", 
            "country": "United States", 
            "longitude": -118.14745297307999, 
            "state": "CA", 
            "street": "43530 10th Street West", 
            "latitude": 34.673844691639999
          }
        }, 
        {
          "category": "Local business", 
          "name": "Rubio's Fresh Mexican Grill", 
          "id": "113533008726280", 
          "category_list": [
            {
              "id": "199377230079198", 
              "name": "Mexican Restaurant"
            }
          ], 
          "location": {
            "city": "Phoenix", 
            "zip": "85027", 
            "country": "United States", 
            "longitude": -112.1232023644, 
            "state": "AZ", 
            "street": "3009 West Agua Fria Fwy.", 
            "latitude": 33.66675930801
          }
        }, 
        {
          "category": "Local business", 
          "name": "Rubio's Fresh Mexican Grill", 
          "id": "209249082435635", 
          "category_list": [
            {
              "id": "199377230079198", 
              "name": "Mexican Restaurant"
            }
          ], 
          "location": {
            "city": "Littleton", 
            "zip": "80126", 
            "country": "United States", 
            "longitude": -104.94708830242, 
            "state": "CO", 
            "street": "3620 Highlands Ranch Parkway", 
            "latitude": 39.542759126326999
          }
        }, 
        {
          "category": "Local business", 
          "name": "Rubio's Fresh Mexican Grill", 
          "id": "198786296822468", 
          "category_list": [
            {
              "id": "199377230079198", 
              "name": "Mexican Restaurant"
            }
          ], 
          "location": {
            "city": "San Diego", 
            "zip": "92109", 
            "country": "United States", 
            "longitude": -117.25219807585, 
            "state": "CA", 
            "street": "910 Grand Avenue", 
            "latitude": 32.795467012743998
          }
        }, 
        {
          "category": "Local business", 
          "name": "Rubio's Fresh Mexican Grill", 
          "id": "157522960975865", 
          "category_list": [
            {
              "id": "199377230079198", 
              "name": "Mexican Restaurant"
            }
          ], 
          "location": {
            "city": "Temecula", 
            "zip": "92591", 
            "country": "United States", 
            "longitude": -117.14785122004, 
            "state": "CA", 
            "street": "27480 Ynez Road", 
            "latitude": 33.507335751507
          }
        }, 
        {
          "category": "Local business", 
          "name": "Rubio's Fresh Mexican Grill", 
          "id": "120705738006241", 
          "category_list": [
            {
              "id": "199377230079198", 
              "name": "Mexican Restaurant"
            }
          ], 
          "location": {
            "city": "Chula Vista", 
            "zip": "91910", 
            "country": "United States", 
            "longitude": -117.02042161362, 
            "state": "CA", 
            "street": "1016 Tierra Del Rey", 
            "latitude": 32.637038917817002
          }
        }, 
        {
          "category": "Local business", 
          "name": "Rubio's Fresh Mexican Grill", 
          "id": "187602591284650", 
          "category_list": [
            {
              "id": "199377230079198", 
              "name": "Mexican Restaurant"
            }
          ], 
          "location": {
            "city": "Long Beach", 
            "zip": "90803", 
            "country": "United States", 
            "longitude": -118.13866030397, 
            "state": "CA", 
            "street": "4702 East 2nd Street", 
            "latitude": 33.761727326699997
          }
        }, 
        {
          "category": "Local business", 
          "name": "Rubio's Fresh Mexican Grill", 
          "id": "173116862737512", 
          "category_list": [
            {
              "id": "199377230079198", 
              "name": "Mexican Restaurant"
            }
          ], 
          "location": {
            "city": "El Cajon", 
            "zip": "92019", 
            "country": "United States", 
            "longitude": -116.94025197217, 
            "state": "CA", 
            "street": "2959 Jamacha Road", 
            "latitude": 32.737718878667998
          }
        }, 
        {
          "category": "Local business", 
          "name": "Rubio's Fresh Mexican Grill", 
          "id": "181477088565005", 
          "category_list": [
            {
              "id": "199377230079198", 
              "name": "Mexican Restaurant"
            }
          ], 
          "location": {
            "city": "Stanton", 
            "zip": "90680", 
            "country": "United States", 
            "longitude": -118.00998812959, 
            "state": "CA", 
            "street": "7063 Katella Avenue", 
            "latitude": 33.803169304561003
          }
        }, 
        {
          "category": "Local business", 
          "name": "Rubio's Fresh Mexican Grill", 
          "id": "102750409809130", 
          "category_list": [
            {
              "id": "199377230079198", 
              "name": "Mexican Restaurant"
            }
          ], 
          "location": {
            "city": "Sunnyvale", 
            "zip": "94087", 
            "country": "United States", 
            "longitude": -122.03201992757, 
            "state": "CA", 
            "street": "108 East El Camino Real", 
            "latitude": 37.366811232741
          }
        }, 
        {
          "category": "Local business", 
          "name": "Rubio's Fresh Mexican Grill", 
          "id": "199522130070301", 
          "category_list": [
            {
              "id": "199377230079198", 
              "name": "Mexican Restaurant"
            }
          ], 
          "location": {
            "city": "Peoria", 
            "zip": "85383", 
            "country": "United States", 
            "longitude": -112.27297709676, 
            "state": "AZ", 
            "street": "24920 N Lake Pleasant Parkway", 
            "latitude": 33.710325965286003
          }
        }, 
        {
          "category": "Local business", 
          "name": "Rubio's Fresh Mexican Grill", 
          "id": "160249010698832", 
          "category_list": [
            {
              "id": "199377230079198", 
              "name": "Mexican Restaurant"
            }, 
            {
              "id": "200600219953504", 
              "name": "Shopping & Retail"
            }
          ], 
          "location": {
            "city": "Phoenix", 
            "zip": "85050", 
            "country": "United States", 
            "longitude": -111.97164081768, 
            "state": "AZ", 
            "street": "21001 North Tatum Blvd.", 
            "latitude": 33.675870638671
          }
        }, 
        {
          "category": "Local business", 
          "name": "Rubio's Fresh Mexican Grill", 
          "id": "181012015277878", 
          "category_list": [
            {
              "id": "199377230079198", 
              "name": "Mexican Restaurant"
            }
          ], 
          "location": {
            "city": "Pico Rivera", 
            "zip": "90660", 
            "country": "United States", 
            "longitude": -118.09658379282, 
            "state": "CA", 
            "street": "8949 Washington Boulevard", 
            "latitude": 33.984317820398999
          }
        }, 
        {
          "category": "Local business", 
          "name": "Rubio's Fresh Mexican Grill", 
          "id": "138334942902259", 
          "category_list": [
            {
              "id": "199377230079198", 
              "name": "Mexican Restaurant"
            }
          ], 
          "location": {
            "city": "Costa Mesa", 
            "zip": "92627", 
            "country": "United States", 
            "longitude": -117.91977761728999, 
            "state": "CA", 
            "street": "1835 Newport Blvd.", 
            "latitude": 33.641225987561
          }
        }, 
        {
          "category": "Local business", 
          "name": "Rubio's Fresh Mexican Grill", 
          "id": "162594390464934", 
          "category_list": [
            {
              "id": "199377230079198", 
              "name": "Mexican Restaurant"
            }
          ], 
          "location": {
            "city": "Fullerton", 
            "zip": "92833", 
            "country": "United States", 
            "longitude": -117.96321783465, 
            "state": "CA", 
            "street": "1935 West Malvern Avenue", 
            "latitude": 33.878393285134997
          }
        }, 
        {
          "category": "Local business", 
          "name": "Rubio's Fresh Mexican Grill", 
          "id": "202682419756526", 
          "category_list": [
            {
              "id": "199377230079198", 
              "name": "Mexican Restaurant"
            }
          ], 
          "location": {
            "city": "Gilbert", 
            "zip": "85236", 
            "country": "United States", 
            "longitude": -111.68749510417, 
            "state": "AZ", 
            "street": "4770 E Ray Road", 
            "latitude": 33.322197966093
          }
        }, 
        {
          "category": "Local business", 
          "name": "Rubio's Fresh Mexican Grill", 
          "id": "162159077174014", 
          "category_list": [
            {
              "id": "199377230079198", 
              "name": "Mexican Restaurant"
            }
          ], 
          "location": {
            "city": "Lakewood", 
            "zip": "90712", 
            "country": "United States", 
            "longitude": -118.13321081538, 
            "state": "CA", 
            "street": "5111 Candlewood Street", 
            "latitude": 33.853964844263999
          }
        }, 
        {
          "category": "Local business", 
          "name": "Rubio's Fresh Mexican Grill", 
          "id": "120075021403940", 
          "category_list": [
            {
              "id": "199377230079198", 
              "name": "Mexican Restaurant"
            }, 
            {
              "id": "192831537402299", 
              "name": "Family Style Restaurant"
            }
          ], 
          "location": {
            "city": "Denver", 
            "zip": "80246", 
            "country": "United States", 
            "longitude": -104.94137304336, 
            "state": "CO", 
            "street": "703 South Colorado Blvd.", 
            "latitude": 39.703621664274998
          }
        }, 
        {
          "category": "Local business", 
          "name": "Rubio's Fresh Mexican Grill", 
          "id": "164337530286928", 
          "category_list": [
            {
              "id": "199377230079198", 
              "name": "Mexican Restaurant"
            }
          ], 
          "location": {
            "city": "San Jose", 
            "zip": "95130", 
            "country": "United States", 
            "longitude": -121.99067165779, 
            "state": "CA", 
            "street": "1010 El Paseo de Saratoga", 
            "latitude": 37.289819106308997
          }
        }, 
        {
          "category": "Local business", 
          "name": "Rubio's Fresh Mexican Grill", 
          "id": "109816972433687", 
          "category_list": [
            {
              "id": "199377230079198", 
              "name": "Mexican Restaurant"
            }
          ], 
          "location": {
            "city": "El Cajon", 
            "zip": "92020", 
            "country": "United States", 
            "longitude": -116.96699806581999, 
            "state": "CA", 
            "street": "419 Parkway Plaza", 
            "latitude": 32.806102945410998
          }
        }, 
        {
          "category": "Local business", 
          "name": "Rubio's Fresh Mexican Grill", 
          "id": "213203255361405", 
          "category_list": [
            {
              "id": "199377230079198", 
              "name": "Mexican Restaurant"
            }
          ], 
          "location": {
            "city": "Valencia", 
            "zip": "91355", 
            "country": "United States", 
            "longitude": -118.56319059086, 
            "state": "CA", 
            "street": "27055 McBean Parkway", 
            "latitude": 34.421289305252998
          }
        }, 
        {
          "category": "Local business", 
          "name": "Rubio's Fresh Mexican Grill", 
          "id": "135811829825063", 
          "category_list": [
            {
              "id": "199377230079198", 
              "name": "Mexican Restaurant"
            }
          ], 
          "location": {
            "city": "El Segundo", 
            "zip": "90245", 
            "country": "United States", 
            "longitude": -118.39587149771, 
            "state": "CA", 
            "street": "400 North Sepulveda", 
            "latitude": 33.921141850085
          }
        }, 
        {
          "category": "Local business", 
          "name": "Rubio's Fresh Mexican Grill", 
          "id": "113674215379867", 
          "category_list": [
            {
              "id": "199377230079198", 
              "name": "Mexican Restaurant"
            }
          ], 
          "location": {
            "city": "Tustin", 
            "zip": "92782", 
            "country": "United States", 
            "longitude": -117.79277666676001, 
            "state": "CA", 
            "street": "2955 El Camino Real", 
            "latitude": 33.724301130123003
          }
        }, 
        {
          "category": "Local business", 
          "name": "Rubio's Fresh Mexican Grill", 
          "id": "197613673606639", 
          "category_list": [
            {
              "id": "199377230079198", 
              "name": "Mexican Restaurant"
            }
          ], 
          "location": {
            "city": "Henderson", 
            "zip": "89014", 
            "country": "United States", 
            "longitude": -115.08584387774, 
            "state": "NV", 
            "street": "1500 North Green Valley Parkway", 
            "latitude": 36.029764196560002
          }
        }, 
        {
          "category": "Local business", 
          "name": "Rubio's Fresh Mexican Grill", 
          "id": "191374627571341", 
          "category_list": [
            {
              "id": "199377230079198", 
              "name": "Mexican Restaurant"
            }
          ], 
          "location": {
            "city": "Fairfield", 
            "zip": "94533", 
            "country": "United States", 
            "longitude": -122.05397899242, 
            "state": "CA", 
            "street": "1450 Travis Blvd.", 
            "latitude": 38.258407365859
          }
        }, 
        {
          "category": "Local business", 
          "name": "Rubio's Fresh Mexican Grill", 
          "id": "139215602814557", 
          "category_list": [
            {
              "id": "199377230079198", 
              "name": "Mexican Restaurant"
            }
          ], 
          "location": {
            "city": "Roseville", 
            "zip": "95661", 
            "country": "United States", 
            "longitude": -121.256835076, 
            "state": "CA", 
            "street": "1913 Douglass Blvd.", 
            "latitude": 38.7446473141
          }
        }, 
        {
          "category": "Local business", 
          "name": "Rubio's Fresh Mexican Grill", 
          "id": "198419296857866", 
          "category_list": [
            {
              "id": "199377230079198", 
              "name": "Mexican Restaurant"
            }
          ], 
          "location": {
            "city": "Tracy", 
            "zip": "95304", 
            "country": "United States", 
            "longitude": -121.46697287792, 
            "state": "CA", 
            "street": "2431 North Naglee Road", 
            "latitude": 37.755486097510001
          }
        }, 
        {
          "category": "Local business", 
          "name": "Rubio's Fresh Mexican Grill", 
          "id": "202490423104948", 
          "category_list": [
            {
              "id": "199377230079198", 
              "name": "Mexican Restaurant"
            }
          ], 
          "location": {
            "city": "Aurora", 
            "zip": "80015", 
            "country": "United States", 
            "longitude": -104.79209955349999, 
            "state": "CO", 
            "street": "16891 East Quincy Avenue", 
            "latitude": 39.638828449568003
          }
        }, 
        {
          "category": "Local business", 
          "name": "Rubio's Fresh Mexican Grill", 
          "id": "113491102063032", 
          "category_list": [
            {
              "id": "199377230079198", 
              "name": "Mexican Restaurant"
            }
          ], 
          "location": {
            "city": "Rancho Cucamonga", 
            "zip": "91730", 
            "country": "United States", 
            "longitude": -117.56893960543, 
            "state": "CA", 
            "street": "10798 Foothill Blvd.", 
            "latitude": 34.106756760713999
          }
        }, 
        {
          "category": "Local business", 
          "name": "Rubio's Fresh Mexican Grill", 
          "id": "199453703419140", 
          "category_list": [
            {
              "id": "199377230079198", 
              "name": "Mexican Restaurant"
            }
          ], 
          "location": {
            "city": "Las Vegas", 
            "zip": "89123", 
            "country": "United States", 
            "longitude": -115.11914042204, 
            "state": "NV", 
            "street": "2390 East Serene", 
            "latitude": 36.020873110978997
          }
        }, 
        {
          "category": "Local business", 
          "name": "Rubio's Fresh Mexican Grill", 
          "id": "135597706512034", 
          "category_list": [
            {
              "id": "199377230079198", 
              "name": "Mexican Restaurant"
            }
          ], 
          "location": {
            "city": "Orem", 
            "zip": "84097", 
            "country": "United States", 
            "longitude": -111.68270330092, 
            "state": "UT", 
            "street": "530 East University Pkwy", 
            "latitude": 40.272911308914999
          }
        }, 
        {
          "category": "Local business", 
          "name": "Rubio's Fresh Mexican Grill", 
          "id": "198347543530417", 
          "category_list": [
            {
              "id": "199377230079198", 
              "name": "Mexican Restaurant"
            }
          ], 
          "location": {
            "city": "La Habra", 
            "zip": "90631", 
            "country": "United States", 
            "longitude": -117.96187824722, 
            "state": "CA", 
            "street": "1401 Imperial Highway", 
            "latitude": 33.917795981028
          }
        }, 
        {
          "category": "Local business", 
          "name": "Rubio's Fresh Mexican Grill", 
          "id": "135844503154526", 
          "category_list": [
            {
              "id": "199377230079198", 
              "name": "Mexican Restaurant"
            }
          ], 
          "location": {
            "city": "Corona", 
            "zip": "92603", 
            "country": "United States", 
            "longitude": -117.54080277385999, 
            "state": "CA", 
            "street": "1297 East Ontario Avenue", 
            "latitude": 33.847487094837
          }
        }, 
        {
          "category": "Local business", 
          "name": "Rubio's Fresh Mexican Grill", 
          "id": "182597648453514", 
          "category_list": [
            {
              "id": "199377230079198", 
              "name": "Mexican Restaurant"
            }
          ], 
          "location": {
            "city": "San Marcos", 
            "zip": "92069", 
            "country": "United States", 
            "longitude": -117.19248399478001, 
            "state": "CA", 
            "street": "1158 West San Marcos Blvd.", 
            "latitude": 33.133863766829997
          }
        }, 
        {
          "category": "Local business", 
          "name": "Rubio's Fresh Mexican Grill", 
          "id": "210090835669253", 
          "category_list": [
            {
              "id": "199377230079198", 
              "name": "Mexican Restaurant"
            }
          ], 
          "location": {
            "city": "Santa Ana", 
            "zip": "92705", 
            "country": "United States", 
            "longitude": -117.83543876969, 
            "state": "CA", 
            "street": "2220 East 17th Street", 
            "latitude": 33.758784790615003
          }
        }, 
        {
          "category": "Local business", 
          "name": "Rubio's Fresh Mexican Grill", 
          "id": "199538406743239", 
          "category_list": [
            {
              "id": "199377230079198", 
              "name": "Mexican Restaurant"
            }
          ], 
          "location": {
            "city": "San Diego", 
            "zip": "92111", 
            "country": "United States", 
            "longitude": -117.15846139499, 
            "state": "CA", 
            "street": "7420 Clairemont Mesa Blvd.", 
            "latitude": 32.833511885126001
          }
        }, 
        {
          "category": "Local business", 
          "name": "Rubio's Fresh Mexican Grill", 
          "id": "173344222718393", 
          "category_list": [
            {
              "id": "199377230079198", 
              "name": "Mexican Restaurant"
            }
          ], 
          "location": {
            "city": "Phoenix", 
            "zip": "85044", 
            "country": "United States", 
            "longitude": -111.97806307509001, 
            "state": "AZ", 
            "street": "4905 East Ray Road", 
            "latitude": 33.317456995024997
          }
        }, 
        {
          "category": "Local business", 
          "name": "Rubio's Fresh Mexican Grill", 
          "id": "200030383351317", 
          "category_list": [
            {
              "id": "199377230079198", 
              "name": "Mexican Restaurant"
            }
          ], 
          "location": {
            "city": "Santa Rosa", 
            "zip": "95401", 
            "country": "United States", 
            "longitude": -122.71580831350001, 
            "state": "CA", 
            "street": "1016 Santa Rosa Plaza", 
            "latitude": 38.439462313969003
          }
        }, 
        {
          "category": "Local business", 
          "name": "Rubio's Fresh Mexican Grill", 
          "id": "188188891224924", 
          "category_list": [
            {
              "id": "199377230079198", 
              "name": "Mexican Restaurant"
            }
          ], 
          "location": {
            "city": "San Diego", 
            "zip": "92128", 
            "country": "United States", 
            "longitude": -117.07632581234, 
            "state": "CA", 
            "street": "12002 Carmel Mountain Road", 
            "latitude": 32.983503603854999
          }
        }, 
        {
          "category": "Local business", 
          "name": "Rubio's Fresh Mexican Grill", 
          "id": "199706413386228", 
          "category_list": [
            {
              "id": "199377230079198", 
              "name": "Mexican Restaurant"
            }
          ], 
          "location": {
            "city": "Carlsbad", 
            "zip": "92008", 
            "country": "United States", 
            "longitude": -117.32592743052, 
            "state": "CA", 
            "street": "2604-A El Camino Real", 
            "latitude": 33.177079764490003
          }
        }, 
        {
          "category": "Local business", 
          "name": "Rubio's Fresh Mexican Grill", 
          "id": "109679725781164", 
          "category_list": [
            {
              "id": "199377230079198", 
              "name": "Mexican Restaurant"
            }
          ], 
          "location": {
            "city": "Los Angeles", 
            "zip": "90045", 
            "country": "United States", 
            "longitude": -118.39160700564, 
            "state": "CA", 
            "street": "6081 Center Drive", 
            "latitude": 33.977662854557003
          }
        }, 
        {
          "category": "Local business", 
          "name": "Rubio's Fresh Mexican Grill", 
          "id": "161600247231741", 
          "category_list": [
            {
              "id": "199377230079198", 
              "name": "Mexican Restaurant"
            }
          ], 
          "location": {
            "city": "Vista", 
            "zip": "92083", 
            "country": "United States", 
            "longitude": -117.21348991126, 
            "state": "CA", 
            "street": "1711 University Drive", 
            "latitude": 33.169426088761
          }
        }, 
        {
          "category": "Local business", 
          "name": "Rubio's Fresh Mexican Grill", 
          "id": "156534154407273", 
          "category_list": [
            {
              "id": "199377230079198", 
              "name": "Mexican Restaurant"
            }
          ], 
          "location": {
            "city": "Orange", 
            "zip": "92868", 
            "country": "United States", 
            "longitude": -117.86685554461, 
            "state": "CA", 
            "street": "691 South Main Street", 
            "latitude": 33.777468272222002
          }
        }, 
        {
          "category": "Local business", 
          "name": "Rubio's Fresh Mexican Grill", 
          "id": "197624040268229", 
          "category_list": [
            {
              "id": "199377230079198", 
              "name": "Mexican Restaurant"
            }
          ], 
          "location": {
            "city": "Tucson", 
            "zip": "85737", 
            "country": "United States", 
            "longitude": -110.96026972395001, 
            "state": "AZ", 
            "street": "10509 North Oracle Road", 
            "latitude": 32.397153705786003
          }
        }, 
        {
          "category": "Local business", 
          "name": "Rubio's Fresh Mexican Grill", 
          "id": "161775970546089", 
          "category_list": [
            {
              "id": "199377230079198", 
              "name": "Mexican Restaurant"
            }
          ], 
          "location": {
            "city": "Marina del Rey", 
            "zip": "90292", 
            "country": "United States", 
            "longitude": -118.4435750128, 
            "state": "CA", 
            "street": "4250-4252 Lincoln Blvd.", 
            "latitude": 33.985927364243999
          }
        }, 
        {
          "category": "Local business", 
          "name": "Rubio's Fresh Mexican Grill", 
          "id": "173070319410071", 
          "category_list": [
            {
              "id": "199377230079198", 
              "name": "Mexican Restaurant"
            }
          ], 
          "location": {
            "city": "Riverside", 
            "zip": "92507", 
            "country": "United States", 
            "longitude": -117.33752980350999, 
            "state": "CA", 
            "street": "1201 University Avenue", 
            "latitude": 33.975938024455999
          }
        }, 
        {
          "category": "Local business", 
          "name": "Rubio's Fresh Mexican Grill", 
          "id": "203395563018984", 
          "category_list": [
            {
              "id": "199377230079198", 
              "name": "Mexican Restaurant"
            }
          ], 
          "location": {
            "city": "San Diego", 
            "zip": "92120", 
            "country": "United States", 
            "longitude": -117.09833836823999, 
            "state": "CA", 
            "street": "10460 Friars Road", 
            "latitude": 32.792092197872996
          }
        }, 
        {
          "category": "Local business", 
          "name": "Rubio's Fresh Mexican Grill", 
          "id": "204735472889351", 
          "category_list": [
            {
              "id": "199377230079198", 
              "name": "Mexican Restaurant"
            }
          ], 
          "location": {
            "city": "Phoenix", 
            "zip": "85042", 
            "country": "United States", 
            "longitude": -112.03090789213999, 
            "state": "AZ", 
            "street": "2320 East Baseline Road", 
            "latitude": 33.379341315239998
          }
        }, 
        {
          "category": "Local business", 
          "name": "Rubio's Fresh Mexican Grill", 
          "id": "135505669856010", 
          "category_list": [
            {
              "id": "199377230079198", 
              "name": "Mexican Restaurant"
            }
          ], 
          "location": {
            "city": "Glendale", 
            "zip": "91206", 
            "country": "United States", 
            "longitude": -118.24597125784, 
            "state": "CA", 
            "street": "249 North Glendale Avenue", 
            "latitude": 34.149718467014999
          }
        }, 
        {
          "category": "Local business", 
          "name": "Rubio's Fresh Mexican Grill", 
          "id": "209535112392462", 
          "category_list": [
            {
              "id": "199377230079198", 
              "name": "Mexican Restaurant"
            }
          ], 
          "location": {
            "city": "Ventura", 
            "zip": "93003", 
            "country": "United States", 
            "longitude": -119.21043083895999, 
            "state": "CA", 
            "street": "1788 South Victoria Avenue", 
            "latitude": 34.258157539069003
          }
        }, 
        {
          "category": "Local business", 
          "name": "Rubio's Fresh Mexican Grill", 
          "id": "199613700070518", 
          "category_list": [
            {
              "id": "199377230079198", 
              "name": "Mexican Restaurant"
            }
          ], 
          "location": {
            "city": "Anaheim", 
            "zip": "92806", 
            "country": "United States", 
            "longitude": -117.88270576343, 
            "state": "CA", 
            "street": "2406 East Katella Avenue", 
            "latitude": 33.805123830402998
          }
        }, 
        {
          "category": "Local business", 
          "name": "Rubio's Fresh Mexican Grill", 
          "id": "200328543323098", 
          "category_list": [
            {
              "id": "199377230079198", 
              "name": "Mexican Restaurant"
            }
          ], 
          "location": {
            "city": "Pasadena", 
            "zip": "91101", 
            "country": "United States", 
            "longitude": -118.14422029245, 
            "state": "CA", 
            "street": "330 East Colorado Blvd.", 
            "latitude": 34.145465130037003
          }
        }, 
        {
          "category": "Local business", 
          "name": "Rubio's Fresh Mexican Grill", 
          "id": "204145102937812", 
          "category_list": [
            {
              "id": "199377230079198", 
              "name": "Mexican Restaurant"
            }
          ], 
          "location": {
            "city": "Glendale", 
            "zip": "85308", 
            "country": "United States", 
            "longitude": -112.18717960834999, 
            "state": "AZ", 
            "street": "20210 North 59th Avenue", 
            "latitude": 33.669517042091996
          }
        }, 
        {
          "category": "Local business", 
          "name": "Rubio's Fresh Mexican Grill", 
          "id": "212139578800157", 
          "category_list": [
            {
              "id": "199377230079198", 
              "name": "Mexican Restaurant"
            }
          ], 
          "location": {
            "city": "Yorba Linda", 
            "zip": "92886", 
            "country": "United States", 
            "longitude": -117.77586260824, 
            "state": "CA", 
            "street": "20355 Yorba Linda Blvd.", 
            "latitude": 33.891312683772
          }
        }, 
        {
          "category": "Local business", 
          "name": "Rubio's Fresh Mexican Grill", 
          "id": "138552426214119", 
          "category_list": [
            {
              "id": "199377230079198", 
              "name": "Mexican Restaurant"
            }
          ], 
          "location": {
            "city": "San Diego", 
            "zip": "92130", 
            "country": "United States", 
            "longitude": -117.23080153286, 
            "state": "CA", 
            "street": "3545 Del Mar Heights Road", 
            "latitude": 32.954292713851999
          }
        }, 
        {
          "category": "Local business", 
          "name": "Rubio's Fresh Mexican Grill", 
          "id": "156614814398797", 
          "category_list": [
            {
              "id": "199377230079198", 
              "name": "Mexican Restaurant"
            }
          ], 
          "location": {
            "city": "La Quinta", 
            "zip": "92253", 
            "country": "United States", 
            "longitude": -116.29660915300001, 
            "state": "CA", 
            "street": "78-447 Highway 111", 
            "latitude": 33.715286335800002
          }
        }, 
        {
          "category": "Local business", 
          "name": "Rubio's Fresh Mexican Grill", 
          "id": "181288071917996", 
          "category_list": [
            {
              "id": "199377230079198", 
              "name": "Mexican Restaurant"
            }
          ], 
          "location": {
            "city": "Foothill Ranch", 
            "zip": "92610", 
            "country": "United States", 
            "longitude": -117.66793701601, 
            "state": "CA", 
            "street": "26612 Towne Center Drive", 
            "latitude": 33.676065787429003
          }
        }, 
        {
          "category": "Local business", 
          "name": "Rubio's Fresh Mexican Grill", 
          "id": "174854049234048", 
          "category_list": [
            {
              "id": "199377230079198", 
              "name": "Mexican Restaurant"
            }
          ], 
          "location": {
            "city": "Gilbert", 
            "zip": "85234", 
            "country": "United States", 
            "longitude": -111.80890576916001, 
            "state": "AZ", 
            "street": "884 West Warner Road", 
            "latitude": 33.335871913345002
          }
        }, 
        {
          "category": "Local business", 
          "name": "Rubio's Fresh Mexican Grill", 
          "id": "194015727304072", 
          "category_list": [
            {
              "id": "199377230079198", 
              "name": "Mexican Restaurant"
            }
          ], 
          "location": {
            "city": "Brea", 
            "zip": "92821", 
            "country": "United States", 
            "longitude": -117.88897252693, 
            "state": "CA", 
            "street": "765 East Birch Street", 
            "latitude": 33.918080094375
          }
        }, 
        {
          "category": "Local business", 
          "name": "Rubio's Fresh Mexican Grill", 
          "id": "176225542430229", 
          "category_list": [
            {
              "id": "199377230079198", 
              "name": "Mexican Restaurant"
            }
          ], 
          "location": {
            "city": "Aliso Viejo", 
            "zip": "92677", 
            "country": "United States", 
            "longitude": -117.71396456818, 
            "state": "CA", 
            "street": "27000 Alicia Parkway", 
            "latitude": 33.570639443335999
          }
        }, 
        {
          "category": "Local business", 
          "name": "Rubio's Fresh Mexican Grill", 
          "id": "211499925533866", 
          "category_list": [
            {
              "id": "199377230079198", 
              "name": "Mexican Restaurant"
            }
          ], 
          "location": {
            "city": "Placentia", 
            "zip": "92870", 
            "country": "United States", 
            "longitude": -117.86491227243999, 
            "state": "CA", 
            "street": "127 East Yorba Linda Blvd.", 
            "latitude": 33.888304219147997
          }
        }, 
        {
          "category": "Local business", 
          "name": "Rubio's Fresh Mexican Grill", 
          "id": "163674213687179", 
          "category_list": [
            {
              "id": "199377230079198", 
              "name": "Mexican Restaurant"
            }
          ], 
          "location": {
            "city": "La Verne", 
            "zip": "91750", 
            "country": "United States", 
            "longitude": -117.76342147210001, 
            "state": "CA", 
            "street": "2204 Foothill Blvd.", 
            "latitude": 34.112455228616
          }
        }, 
        {
          "category": "Local business", 
          "name": "Rubio's Fresh Mexican Grill", 
          "id": "151916561538774", 
          "category_list": [
            {
              "id": "199377230079198", 
              "name": "Mexican Restaurant"
            }
          ], 
          "location": {
            "city": "Phoenix", 
            "zip": "85032", 
            "country": "United States", 
            "longitude": -111.97783025, 
            "state": "AZ", 
            "street": "4747 East Bell Road", 
            "latitude": 33.640329037621001
          }
        }, 
        {
          "category": "Local business", 
          "name": "Rubio's Fresh Mexican Grill", 
          "id": "205863779442703", 
          "category_list": [
            {
              "id": "199377230079198", 
              "name": "Mexican Restaurant"
            }
          ], 
          "location": {
            "city": "Ramona", 
            "zip": "92065", 
            "country": "United States", 
            "longitude": -116.88015735099999, 
            "state": "CA", 
            "street": "1664 Main Street", 
            "latitude": 33.035268660600003
          }
        }, 
        {
          "category": "Local business", 
          "name": "Rubio's Fresh Mexican Grill", 
          "id": "203430886348342", 
          "category_list": [
            {
              "id": "199377230079198", 
              "name": "Mexican Restaurant"
            }
          ], 
          "location": {
            "city": "Tempe", 
            "zip": "85283", 
            "country": "United States", 
            "longitude": -111.91279330864, 
            "state": "AZ", 
            "street": "1712 East Guadalupe Road", 
            "latitude": 33.364439429595997
          }
        }, 
        {
          "category": "Local business", 
          "name": "Rubio's Fresh Mexican Grill", 
          "id": "199981180035006", 
          "category_list": [
            {
              "id": "199377230079198", 
              "name": "Mexican Restaurant"
            }
          ], 
          "location": {
            "city": "El Cerrito", 
            "zip": "94530", 
            "country": "United States", 
            "longitude": -122.29998020222, 
            "state": "CA", 
            "street": "5010 El Cerrito Plaza", 
            "latitude": 37.900792638257997
          }
        }, 
        {
          "category": "Local business", 
          "name": "Rubio's Fresh Mexican Grill", 
          "id": "211095065567583", 
          "category_list": [
            {
              "id": "199377230079198", 
              "name": "Mexican Restaurant"
            }
          ], 
          "location": {
            "city": "Phoenix", 
            "zip": "85018", 
            "country": "United States", 
            "longitude": -111.98830692479, 
            "state": "AZ", 
            "street": "4340 East Indian School Road", 
            "latitude": 33.495160415080001
          }
        }, 
        {
          "category": "Local business", 
          "name": "Rubio's Fresh Mexican Grill", 
          "id": "102764833141720", 
          "category_list": [
            {
              "id": "199377230079198", 
              "name": "Mexican Restaurant"
            }
          ], 
          "location": {
            "city": "Chandler", 
            "zip": "85226", 
            "country": "United States", 
            "longitude": -111.92885320000001, 
            "state": "AZ", 
            "street": "5055 West Ray Road", 
            "latitude": 33.319500340499999
          }
        }, 
        {
          "category": "Local business", 
          "name": "Rubio's Fresh Mexican Grill", 
          "id": "160223577367817", 
          "category_list": [
            {
              "id": "199377230079198", 
              "name": "Mexican Restaurant"
            }
          ], 
          "location": {
            "city": "Salt Lake City", 
            "zip": "84106", 
            "country": "United States", 
            "longitude": -111.85797050616, 
            "state": "UT", 
            "street": "1160 East 2100 South", 
            "latitude": 40.724519286544002
          }
        }, 
        {
          "category": "Local business", 
          "name": "Rubio's Fresh Mexican Grill", 
          "id": "198867643479819", 
          "category_list": [
            {
              "id": "199377230079198", 
              "name": "Mexican Restaurant"
            }
          ], 
          "location": {
            "city": "Simi Valley", 
            "zip": "93063", 
            "country": "United States", 
            "longitude": -118.71717488389, 
            "state": "CA", 
            "street": "2916-B Tapo Canyon Road", 
            "latitude": 34.287096100755001
          }
        }, 
        {
          "category": "Local business", 
          "name": "Rubio's Fresh Mexican Grill", 
          "id": "187568427954898", 
          "category_list": [
            {
              "id": "199377230079198", 
              "name": "Mexican Restaurant"
            }
          ], 
          "location": {
            "city": "Salt Lake City", 
            "zip": "84107", 
            "country": "United States", 
            "longitude": -111.88780449719999, 
            "state": "UT", 
            "street": "5283 South State Street", 
            "latitude": 40.656395862769998
          }
        }, 
        {
          "category": "Local business", 
          "name": "Rubio's Fresh Mexican Grill", 
          "id": "204158239602822", 
          "category_list": [
            {
              "id": "199377230079198", 
              "name": "Mexican Restaurant"
            }
          ], 
          "location": {
            "city": "Carlsbad", 
            "zip": "92010", 
            "country": "United States", 
            "longitude": -117.25290774523, 
            "state": "CA", 
            "street": "2675 Gateway Road ", 
            "latitude": 33.127232660775
          }
        }, 
        {
          "category": "Local business", 
          "name": "Rubio's Fresh Mexican Grill", 
          "id": "200332783334863", 
          "category_list": [
            {
              "id": "199377230079198", 
              "name": "Mexican Restaurant"
            }
          ], 
          "location": {
            "city": "Vista", 
            "zip": "92081", 
            "country": "United States", 
            "longitude": -117.25414080844, 
            "state": "CA", 
            "street": "620 Hacienda Drive", 
            "latitude": 33.192501634734001
          }
        }, 
        {
          "category": "Local business", 
          "name": "Rubio's Fresh Mexican Grill", 
          "id": "200911376598531", 
          "category_list": [
            {
              "id": "199377230079198", 
              "name": "Mexican Restaurant"
            }
          ], 
          "location": {
            "city": "San Diego", 
            "zip": "92037", 
            "country": "United States", 
            "longitude": -117.27421601285, 
            "state": "CA", 
            "street": "7530 Fay Avenue", 
            "latitude": 32.840714657093997
          }
        }, 
        {
          "category": "Local business", 
          "name": "Rubio's Fresh Mexican Grill", 
          "id": "143416332392265", 
          "category_list": [
            {
              "id": "199377230079198", 
              "name": "Mexican Restaurant"
            }
          ], 
          "location": {
            "city": "West Jordan", 
            "zip": "84084", 
            "country": "United States", 
            "longitude": -111.97892334300001, 
            "state": "UT", 
            "street": "7251 Plaza Center Drive", 
            "latitude": 40.619400098
          }
        }, 
        {
          "category": "Local business", 
          "name": "Rubio's Fresh Mexican Grill", 
          "id": "156180377775401", 
          "category_list": [
            {
              "id": "199377230079198", 
              "name": "Mexican Restaurant"
            }
          ], 
          "location": {
            "city": "Irvine", 
            "zip": "92614", 
            "country": "United States", 
            "longitude": -117.83293788524, 
            "state": "CA", 
            "street": "17655 Harvard Avenue", 
            "latitude": 33.676399925977996
          }
        }, 
        {
          "category": "Local business", 
          "name": "Rubio's Fresh Mexican Grill", 
          "id": "164392406949942", 
          "category_list": [
            {
              "id": "199377230079198", 
              "name": "Mexican Restaurant"
            }
          ], 
          "location": {
            "city": "San Clemente", 
            "zip": "92673", 
            "country": "United States", 
            "longitude": -117.65313195468001, 
            "state": "CA", 
            "street": "638 Camino De Los Mares", 
            "latitude": 33.458247489740003
          }
        }, 
        {
          "category": "Local business", 
          "name": "Rubio's Fresh Mexican Grill", 
          "id": "144531308946251", 
          "category_list": [
            {
              "id": "199377230079198", 
              "name": "Mexican Restaurant"
            }
          ], 
          "location": {
            "city": "Chino Hills", 
            "zip": "91709", 
            "country": "United States", 
            "longitude": -117.73153637420999, 
            "state": "CA", 
            "street": "3330 Grand Avenue", 
            "latitude": 34.002813860069999
          }
        }, 
        {
          "category": "Local business", 
          "name": "Rubio's Fresh Mexican Grill", 
          "id": "206541456041405", 
          "category_list": [
            {
              "id": "199377230079198", 
              "name": "Mexican Restaurant"
            }
          ], 
          "location": {
            "city": "San Diego", 
            "zip": "92128", 
            "country": "United States", 
            "longitude": -117.07737532522, 
            "state": "CA", 
            "street": "16588 Bernardo Center Drive", 
            "latitude": 33.015179057105001
          }
        }, 
        {
          "category": "Local business", 
          "name": "Rubio's Fresh Mexican Grill", 
          "id": "173759129341025", 
          "category_list": [
            {
              "id": "199377230079198", 
              "name": "Mexican Restaurant"
            }
          ], 
          "location": {
            "city": "Rancho Santa Margarita", 
            "zip": "92688", 
            "country": "United States", 
            "longitude": -117.59950151300001, 
            "state": "CA", 
            "street": "30465 Avenida De Las Flores", 
            "latitude": 33.643283602928001
          }
        }, 
        {
          "category": "Local business", 
          "name": "Rubio's Fresh Mexican Grill", 
          "id": "161588057233464", 
          "category_list": [
            {
              "id": "199377230079198", 
              "name": "Mexican Restaurant"
            }
          ], 
          "location": {
            "city": "Huntington Beach", 
            "zip": "92647", 
            "country": "United States", 
            "longitude": -117.98881980444, 
            "state": "CA", 
            "street": "16622 Beach Blvd.", 
            "latitude": 33.720916766085999
          }
        }, 
        {
          "category": "Local business", 
          "name": "Rubio's Fresh Mexican Grill", 
          "id": "189240417785850", 
          "category_list": [
            {
              "id": "199377230079198", 
              "name": "Mexican Restaurant"
            }
          ], 
          "location": {
            "city": "Huntington Beach", 
            "zip": "92648", 
            "country": "United States", 
            "longitude": -118.006680308, 
            "state": "CA", 
            "street": "19035 Goldenwest Street", 
            "latitude": 33.686089113199998
          }
        }, 
        {
          "category": "Local business", 
          "name": "Rubio's Fresh Mexican Grill", 
          "id": "199325676757553", 
          "category_list": [
            {
              "id": "199377230079198", 
              "name": "Mexican Restaurant"
            }
          ], 
          "location": {
            "city": "Norco", 
            "zip": "92860", 
            "country": "United States", 
            "longitude": -117.5625139342, 
            "state": "CA", 
            "street": "110 Hidden Valley Parkway", 
            "latitude": 33.897871740978999
          }
        }, 
        {
          "category": "Local business", 
          "name": "Rubio's Fresh Mexican Grill", 
          "id": "119838344759886", 
          "category_list": [
            {
              "id": "199377230079198", 
              "name": "Mexican Restaurant"
            }
          ], 
          "location": {
            "city": "Fountain Valley", 
            "zip": "92708", 
            "country": "United States", 
            "longitude": -117.95453830309, 
            "state": "CA", 
            "street": "18517 Brookhurst Street", 
            "latitude": 33.693880060754999
          }
        }, 
        {
          "category": "Local business", 
          "name": "Rubio's Fresh Mexican Grill", 
          "id": "138020696267899", 
          "category_list": [
            {
              "id": "199377230079198", 
              "name": "Mexican Restaurant"
            }
          ], 
          "location": {
            "city": "Scottsdale", 
            "zip": "85260", 
            "country": "United States", 
            "longitude": -111.89139564638, 
            "state": "AZ", 
            "street": "15704 North Pima Road", 
            "latitude": 33.628251881872004
          }
        }, 
        {
          "category": "Local business", 
          "name": "Rubio's Fresh Mexican Grill", 
          "id": "203447823013058", 
          "category_list": [
            {
              "id": "199377230079198", 
              "name": "Mexican Restaurant"
            }
          ], 
          "location": {
            "city": "Alpine", 
            "zip": "91901", 
            "country": "United States", 
            "longitude": -116.704963244, 
            "state": "CA", 
            "street": "5005 Willows Road", 
            "latitude": 32.841072865100003
          }
        }, 
        {
          "category": "Local business", 
          "name": "Rubio's Fresh Mexican Grill", 
          "id": "177020605679667", 
          "category_list": [
            {
              "id": "199377230079198", 
              "name": "Mexican Restaurant"
            }
          ], 
          "location": {
            "city": "San Diego", 
            "zip": "92129", 
            "country": "United States", 
            "longitude": -117.15485005146, 
            "state": "CA", 
            "street": "7836 Highlands Village Place", 
            "latitude": 32.962043313918002
          }
        }, 
        {
          "category": "Local business", 
          "name": "Rubio's Fresh Mexican Grill", 
          "id": "120903431319540", 
          "category_list": [
            {
              "id": "199377230079198", 
              "name": "Mexican Restaurant"
            }
          ], 
          "location": {
            "city": "American Fork", 
            "zip": "84003", 
            "country": "United States", 
            "longitude": -111.8146362496, 
            "state": "UT", 
            "street": "598 West Main Street", 
            "latitude": 40.376802873315
          }
        }, 
        {
          "category": "Local business", 
          "name": "Rubio's Fresh Mexican Grill", 
          "id": "137544226315933", 
          "category_list": [
            {
              "id": "199377230079198", 
              "name": "Mexican Restaurant"
            }
          ], 
          "location": {
            "city": "Rolling Hills Estates", 
            "zip": "90274", 
            "country": "United States", 
            "longitude": -118.37369340634, 
            "state": "CA", 
            "street": "550 Deep Valley Drive", 
            "latitude": 33.772108114414998
          }
        }, 
        {
          "category": "Local business", 
          "name": "Rubio's Fresh Mexican Grill", 
          "id": "188885984487419", 
          "category_list": [
            {
              "id": "199377230079198", 
              "name": "Mexican Restaurant"
            }
          ], 
          "location": {
            "city": "Mission Viejo", 
            "zip": "92692", 
            "country": "United States", 
            "longitude": -117.6597459722, 
            "state": "CA", 
            "street": "25482 Marguerite Parkway", 
            "latitude": 33.592275881151998
          }
        }, 
        {
          "category": "Local business", 
          "name": "Rubio's Fresh Mexican Grill", 
          "id": "196582323715589", 
          "category_list": [
            {
              "id": "199377230079198", 
              "name": "Mexican Restaurant"
            }
          ], 
          "location": {
            "city": "San Diego", 
            "zip": "92123", 
            "country": "United States", 
            "longitude": -117.13187196171, 
            "state": "CA", 
            "street": "9187 Clairemont Mesa Blvd.", 
            "latitude": 32.830845962011999
          }
        }, 
        {
          "category": "Local business", 
          "name": "Rubio's Fresh Mexican Grill", 
          "id": "156565454403042", 
          "category_list": [
            {
              "id": "199377230079198", 
              "name": "Mexican Restaurant"
            }
          ], 
          "location": {
            "city": "Seal Beach", 
            "zip": "90740", 
            "country": "United States", 
            "longitude": -118.07161195016, 
            "state": "CA", 
            "street": "12420 Seal Beach Blvd.", 
            "latitude": 33.781609164041001
          }
        }, 
        {
          "category": "Local business", 
          "name": "Rubio's Fresh Mexican Grill", 
          "id": "163767370344879", 
          "category_list": [
            {
              "id": "199377230079198", 
              "name": "Mexican Restaurant"
            }
          ], 
          "location": {
            "city": "San Diego", 
            "zip": "92122", 
            "country": "United States", 
            "longitude": -117.20651072251, 
            "state": "CA", 
            "street": "8935 Towne Center Drive", 
            "latitude": 32.867848989218999
          }
        }, 
        {
          "category": "Local business", 
          "name": "Rubio's Fresh Mexican Grill", 
          "id": "197252753648286", 
          "category_list": [
            {
              "id": "199377230079198", 
              "name": "Mexican Restaurant"
            }
          ], 
          "location": {
            "city": "San Mateo", 
            "zip": "94401", 
            "country": "United States", 
            "longitude": -122.32433160297001, 
            "state": "CA", 
            "street": "38 East 4th Avenue", 
            "latitude": 37.562709778289999
          }
        }, 
        {
          "category": "Local business", 
          "name": "Rubio's Fresh Mexican Grill", 
          "id": "138889636179759", 
          "category_list": [
            {
              "id": "199377230079198", 
              "name": "Mexican Restaurant"
            }
          ], 
          "location": {
            "city": "San Diego", 
            "zip": "92108", 
            "country": "United States", 
            "longitude": -117.16603621964001, 
            "state": "CA", 
            "street": "7007 Friars Road", 
            "latitude": 32.767923351415
          }
        }, 
        {
          "category": "Local business", 
          "name": "Rubio's Fresh Mexican Grill", 
          "id": "211827578832792", 
          "category_list": [
            {
              "id": "199377230079198", 
              "name": "Mexican Restaurant"
            }
          ], 
          "location": {
            "city": "Menlo Park", 
            "zip": "94025", 
            "country": "United States", 
            "longitude": -122.17817921563, 
            "state": "CA", 
            "street": "515 El Camino Real", 
            "latitude": 37.449866886956002
          }
        }, 
        {
          "category": "Local business", 
          "name": "Rubio's Fresh Mexican Grill", 
          "id": "211125565566779", 
          "category_list": [
            {
              "id": "199377230079198", 
              "name": "Mexican Restaurant"
            }
          ], 
          "location": {
            "city": "Tucson", 
            "zip": "85719", 
            "country": "United States", 
            "longitude": -110.943430635, 
            "state": "AZ", 
            "street": "2906 North Campbell Avenue", 
            "latitude": 32.259453804800003
          }
        }, 
        {
          "category": "Local business", 
          "name": "Rubio's Fresh Mexican Grill", 
          "id": "109735612442673", 
          "category_list": [
            {
              "id": "199377230079198", 
              "name": "Mexican Restaurant"
            }
          ], 
          "location": {
            "city": "Solana Beach", 
            "zip": "92075", 
            "country": "United States", 
            "longitude": -117.27067312651, 
            "state": "CA", 
            "street": "437 South Highway 101", 
            "latitude": 32.985969818581999
          }
        }, 
        {
          "category": "Local business", 
          "name": "Rubio's Fresh Mexican Grill", 
          "id": "206961175998729", 
          "category_list": [
            {
              "id": "199377230079198", 
              "name": "Mexican Restaurant"
            }
          ], 
          "location": {
            "city": "San Diego", 
            "zip": "92131", 
            "country": "United States", 
            "longitude": -117.09695536456, 
            "state": "CA", 
            "street": "10785 Scripps Poway Pkwy.", 
            "latitude": 32.936354286007003
          }
        }, 
        {
          "category": "Local business", 
          "name": "Rubio's Fresh Mexican Grill", 
          "id": "192726117430693", 
          "category_list": [
            {
              "id": "199377230079198", 
              "name": "Mexican Restaurant"
            }
          ], 
          "location": {
            "city": "Encinitas", 
            "zip": "92024", 
            "country": "United States", 
            "longitude": -117.260750054, 
            "state": "CA", 
            "street": "252 North El Camino Real", 
            "latitude": 33.050319249399998
          }
        }, 
        {
          "category": "Local business", 
          "name": "Rubio's Fresh Mexican Grill", 
          "id": "139394642795990", 
          "category_list": [
            {
              "id": "199377230079198", 
              "name": "Mexican Restaurant"
            }
          ], 
          "location": {
            "city": "Santa Ana", 
            "zip": "92707", 
            "country": "United States", 
            "longitude": -117.86528481863, 
            "state": "CA", 
            "street": "2 Hutton Center Drive", 
            "latitude": 33.699682669611001
          }
        }, 
        {
          "category": "Local business", 
          "name": "Rubio's Fresh Mexican Grill", 
          "id": "176530252395205", 
          "category_list": [
            {
              "id": "199377230079198", 
              "name": "Mexican Restaurant"
            }
          ], 
          "location": {
            "city": "Mission Viejo", 
            "zip": "92691", 
            "country": "United States", 
            "longitude": -117.67962616018001, 
            "state": "CA", 
            "street": "23981 Alicia Parkway", 
            "latitude": 33.614646089472998
          }
        }, 
        {
          "category": "Local business", 
          "name": "Rubio's Fresh Mexican Grill", 
          "id": "210938898919059", 
          "category_list": [
            {
              "id": "199377230079198", 
              "name": "Mexican Restaurant"
            }
          ], 
          "location": {
            "city": "Orange", 
            "zip": "92868", 
            "country": "United States", 
            "longitude": -117.892293729, 
            "state": "CA", 
            "street": "20 City Boulevard West", 
            "latitude": 33.7820318431
          }
        }, 
        {
          "category": "Local business", 
          "name": "Rubio's Fresh Mexican Grill", 
          "id": "102688966483567", 
          "category_list": [
            {
              "id": "199377230079198", 
              "name": "Mexican Restaurant"
            }
          ], 
          "location": {
            "city": "Poway", 
            "zip": "92074", 
            "country": "United States", 
            "longitude": -117.03861764653, 
            "state": "CA", 
            "street": "13504 Poway Road", 
            "latitude": 32.956560376328
          }
        }, 
        {
          "category": "Local business", 
          "name": "Rubio's Fresh Mexican Grill", 
          "id": "109654632449940", 
          "category_list": [
            {
              "id": "199377230079198", 
              "name": "Mexican Restaurant"
            }
          ], 
          "location": {
            "city": "Broomfield", 
            "zip": "80021", 
            "country": "United States", 
            "longitude": -105.133274443, 
            "state": "CO", 
            "street": "1 West Flat Iron Circle", 
            "latitude": 39.932828539900001
          }
        }, 
        {
          "category": "Local business", 
          "name": "Rubio's Fresh Mexican Grill", 
          "id": "209123585779863", 
          "category_list": [
            {
              "id": "199377230079198", 
              "name": "Mexican Restaurant"
            }
          ], 
          "location": {
            "city": "Salt Lake City", 
            "zip": "84102", 
            "country": "United States", 
            "longitude": -111.87194613299999, 
            "state": "UT", 
            "street": "358 South 700 East", 
            "latitude": 40.7614152684
          }
        }, 
        {
          "category": "Local business", 
          "name": "Rubio's Fresh Mexican Grill", 
          "id": "135873329818330", 
          "category_list": [
            {
              "id": "199377230079198", 
              "name": "Mexican Restaurant"
            }
          ], 
          "location": {
            "city": "Laguna Hills", 
            "zip": "92653", 
            "country": "United States", 
            "longitude": -117.708088151, 
            "state": "CA", 
            "street": "24155 Laguna Hills Mall", 
            "latitude": 33.611755672000001
          }
        }, 
        {
          "category": "Local business", 
          "name": "Rubio's Fresh Mexican Grill", 
          "id": "164062716980140", 
          "category_list": [
            {
              "id": "199377230079198", 
              "name": "Mexican Restaurant"
            }
          ], 
          "location": {
            "city": "La Jolla", 
            "zip": "92093", 
            "country": "United States", 
            "longitude": -117.23961, 
            "state": "CA", 
            "street": "9500 Gilman Dr, Price Center Food Ct. - UCSD", 
            "latitude": 32.875293999999997
          }
        }, 
        {
          "category": "Local business", 
          "name": "Rubio's Fresh Mexican Grill", 
          "id": "151979288198976", 
          "category_list": [
            {
              "id": "199377230079198", 
              "name": "Mexican Restaurant"
            }
          ], 
          "location": {
            "city": "Newbury Park", 
            "zip": "91320", 
            "country": "United States", 
            "longitude": -118.93466400886, 
            "state": "CA", 
            "street": "2751 West Hillcrest Drive", 
            "latitude": 34.189551787851002
          }
        }, 
        {
          "category": "Local business", 
          "name": "Rubio's Fresh Mexican Grill", 
          "id": "113391345407075", 
          "category_list": [
            {
              "id": "199377230079198", 
              "name": "Mexican Restaurant"
            }
          ], 
          "location": {
            "city": "San Diego", 
            "zip": "92121", 
            "country": "United States", 
            "longitude": -117.20172337621, 
            "state": "CA", 
            "street": "9254 Scranton Road", 
            "latitude": 32.890829827498997
          }
        }, 
        {
          "category": "Local business", 
          "name": "Rubio's Fresh Mexican Grill", 
          "id": "192032614167601", 
          "category_list": [
            {
              "id": "199377230079198", 
              "name": "Mexican Restaurant"
            }
          ], 
          "location": {
            "city": "Scottsdale", 
            "zip": "85262", 
            "country": "United States", 
            "longitude": -111.92393146800001, 
            "state": "AZ", 
            "street": "32415 North Scottsdale Road", 
            "latitude": 33.7799561076
          }
        }, 
        {
          "category": "Local business", 
          "name": "Rubio's Fresh Mexican Grill", 
          "id": "142754642456793", 
          "category_list": [
            {
              "id": "199377230079198", 
              "name": "Mexican Restaurant"
            }
          ], 
          "location": {
            "city": "National City", 
            "zip": "92136", 
            "country": "United States", 
            "longitude": -117.12858612386, 
            "state": "CA", 
            "street": "2260 Callagan Highway", 
            "latitude": 32.689873389585998
          }
        }, 
        {
          "category": "Local business", 
          "name": "Rubio's Fresh Mexican Grill", 
          "id": "109580132456840", 
          "category_list": [
            {
              "id": "199377230079198", 
              "name": "Mexican Restaurant"
            }
          ], 
          "location": {
            "city": "Monrovia", 
            "zip": "91016", 
            "country": "United States", 
            "longitude": -118.013142884, 
            "state": "CA", 
            "street": "664 Huntington Drive", 
            "latitude": 34.139403462200001
          }
        }, 
        {
          "category": "Local business", 
          "name": "Rubio's Fresh Mexican Grill", 
          "id": "102743033145328", 
          "category_list": [
            {
              "id": "199377230079198", 
              "name": "Mexican Restaurant"
            }
          ], 
          "location": {
            "city": "Walnut", 
            "zip": "91789", 
            "country": "United States", 
            "longitude": -117.824119, 
            "state": "CA", 
            "street": "515 East Grand Avenue", 
            "latitude": 34.012315999999998
          }
        }, 
        {
          "category": "Local business", 
          "name": "Rubio's Fresh Mexican Grill", 
          "id": "213307002017689", 
          "category_list": [
            {
              "id": "199377230079198", 
              "name": "Mexican Restaurant"
            }
          ], 
          "location": {
            "city": "Rowland Heights", 
            "zip": "91748", 
            "country": "United States", 
            "longitude": -117.92407805152, 
            "state": "CA", 
            "street": "17525 Colima Road", 
            "latitude": 33.990847742324
          }
        }, 
        {
          "category": "Local business", 
          "name": "Rubio's Fresh Mexican Grill", 
          "id": "213453092011646", 
          "category_list": [
            {
              "id": "199377230079198", 
              "name": "Mexican Restaurant"
            }
          ], 
          "location": {
            "city": "North Las Vegas", 
            "zip": "89084", 
            "country": "United States", 
            "longitude": -115.178611117, 
            "state": "NV", 
            "street": "", 
            "latitude": 36.293043088399997
          }
        }, 
        {
          "category": "Local business", 
          "name": "Rubio's Fresh Mexican Grill", 
          "id": "144100758991103", 
          "category_list": [
            {
              "id": "199377230079198", 
              "name": "Mexican Restaurant"
            }
          ], 
          "location": {
            "city": "Los Angeles", 
            "zip": "90025", 
            "country": "United States", 
            "longitude": -118.465401414, 
            "state": "CA", 
            "street": "12007 Wilshire Blvd.", 
            "latitude": 34.045885269400003
          }
        }, 
        {
          "category": "Local business", 
          "name": "Rubio's Fresh Mexican Grill", 
          "id": "102819216469508", 
          "category_list": [
            {
              "id": "199377230079198", 
              "name": "Mexican Restaurant"
            }
          ], 
          "location": {
            "city": "Hermosa Beach", 
            "zip": "90266", 
            "country": "United States", 
            "longitude": -118.395704212, 
            "state": "CA", 
            "street": "2000 South Sepulveda Blvd.", 
            "latitude": 33.892578964199998
          }
        }, 
        {
          "category": "Local business", 
          "name": "Rubio's Fresh Mexican Grill", 
          "id": "210459928965649", 
          "category_list": [
            {
              "id": "199377230079198", 
              "name": "Mexican Restaurant"
            }
          ], 
          "location": {
            "city": "Las Vegas", 
            "zip": "89135", 
            "country": "United States", 
            "longitude": -115.176038597, 
            "state": "NV", 
            "street": "3770 S Las Vegas Blvd.", 
            "latitude": 36.105013970599998
          }
        }, 
        {
          "category": "Local business", 
          "name": "Rubio's Fresh Mexican Grill", 
          "id": "198836486803739", 
          "category_list": [
            {
              "id": "199377230079198", 
              "name": "Mexican Restaurant"
            }
          ], 
          "location": {
            "city": "Tucson", 
            "zip": "85711", 
            "country": "United States", 
            "longitude": -110.865478606, 
            "state": "AZ", 
            "street": "5870 East Broadway Blvd.", 
            "latitude": 32.218516421700002
          }
        }, 
        {
          "category": "Local business", 
          "name": "Rubio's Fresh Mexican Grill", 
          "id": "189653287744509", 
          "category_list": [
            {
              "id": "199377230079198", 
              "name": "Mexican Restaurant"
            }
          ], 
          "location": {
            "city": "Ramona", 
            "zip": "92123", 
            "country": "United States", 
            "longitude": -117.11535600000001, 
            "state": "CA", 
            "street": "3675 Murphy Canyon Road", 
            "latitude": 32.808765000000001
          }
        }, 
        {
          "category": "Local business", 
          "name": "Rubio's Fresh Mexican Grill", 
          "id": "145692095497678", 
          "category_list": [
            {
              "id": "199377230079198", 
              "name": "Mexican Restaurant"
            }
          ], 
          "location": {
            "city": "Las Vegas", 
            "zip": "89109", 
            "country": "United States", 
            "longitude": -115.335465, 
            "state": "NV", 
            "street": "11011 W Charleston Blvd", 
            "latitude": 36.158746000000001
          }
        }, 
        {
          "category": "Local business", 
          "name": "Rubio's Fresh Mexican Grill", 
          "id": "121221907953328", 
          "category_list": [
            {
              "id": "199377230079198", 
              "name": "Mexican Restaurant"
            }
          ], 
          "location": {
            "city": "Mission Viejo", 
            "zip": "92691", 
            "country": "United States", 
            "longitude": -117.668624014, 
            "state": "CA", 
            "street": "555 The Shops at Mission Viejo", 
            "latitude": 33.558042784999998
          }
        }, 
        {
          "category": "Local business", 
          "name": "Rubio's Fresh Mexican Grill", 
          "id": "102788653138141", 
          "category_list": [
            {
              "id": "199377230079198", 
              "name": "Mexican Restaurant"
            }
          ], 
          "location": {
            "city": "San Diego", 
            "zip": "92135", 
            "country": "United States", 
            "longitude": -117.18410369199999, 
            "state": "CA", 
            "street": "NEX North Island", 
            "latitude": 32.701859632800002
          }
        }, 
        {
          "category": "Local business", 
          "name": "Rubio's Fresh Mexican Grill", 
          "id": "186384764739700", 
          "category_list": [
            {
              "id": "199377230079198", 
              "name": "Mexican Restaurant"
            }
          ], 
          "location": {
            "city": "Chandler", 
            "zip": "85226", 
            "country": "United States", 
            "longitude": -111.898723, 
            "state": "AZ", 
            "street": "3111 West Chandler Blvd.", 
            "latitude": 33.301721000000001
          }
        }, 
        {
          "category": "Local business", 
          "name": "Rubio's Fresh Mexican Grill", 
          "id": "165330786854399", 
          "category_list": [
            {
              "id": "199377230079198", 
              "name": "Mexican Restaurant"
            }
          ], 
          "location": {
            "city": "San Diego", 
            "zip": "92182", 
            "country": "United States", 
            "longitude": -117.072199, 
            "state": "CA", 
            "street": "5500 Campanile Drive, East Commons Building - SDSU", 
            "latitude": 32.774687
          }
        }, 
        {
          "category": "Local business", 
          "name": "Rubio's Fresh Mexican Grill", 
          "id": "120873311322104", 
          "category_list": [
            {
              "id": "199377230079198", 
              "name": "Mexican Restaurant"
            }
          ], 
          "location": {
            "city": "Henderson", 
            "zip": "94111", 
            "country": "United States", 
            "longitude": -122.396118, 
            "state": "NV", 
            "street": "4 Embarcadero Center", 
            "latitude": 37.795261000000004
          }
        }, 
        {
          "category": "Local business", 
          "name": "Rubio's Fresh Mexican Grill", 
          "id": "173911872658897", 
          "category_list": [
            {
              "id": "199377230079198", 
              "name": "Mexican Restaurant"
            }
          ], 
          "location": {
            "city": "Henderson", 
            "zip": "92807", 
            "country": "United States", 
            "longitude": -117.786349, 
            "state": "NV", 
            "street": "5781 East Santa Ana Canyon Rd.", 
            "latitude": 33.852251000000003
          }
        }, 
        {
          "category": "Local business", 
          "name": "Rubio's Fresh Mexican Grill", 
          "id": "198491820184078", 
          "category_list": [
            {
              "id": "199377230079198", 
              "name": "Mexican Restaurant"
            }
          ], 
          "location": {
            "city": "Ramona", 
            "zip": "92040", 
            "country": "United States", 
            "longitude": -116.962036751, 
            "state": "CA", 
            "street": "1932 Wildcat Canyon Road", 
            "latitude": 32.798754782400003
          }
        }, 
        {
          "category": "Local business", 
          "name": "Rubio's Fresh Mexican Grill", 
          "id": "286121118162459", 
          "category_list": [
            {
              "id": "2500", 
              "name": "Local Business"
            }
          ], 
          "location": {
            "city": "Rancho Cordova", 
            "zip": "95670", 
            "country": "United States", 
            "longitude": -121.28451501799999, 
            "state": "CA", 
            "street": "3221 Zinfandel Dr", 
            "latitude": 38.583870093400002
          }
        }, 
        {
          "category": "Local business", 
          "name": "Rubio's Fresh Mexican Grill", 
          "id": "146837202033173", 
          "category_list": [
            {
              "id": "199377230079198", 
              "name": "Mexican Restaurant"
            }
          ], 
          "location": {
            "city": "San Diego", 
            "zip": "", 
            "country": "United States", 
            "longitude": -117.1156395, 
            "state": "CA", 
            "street": "", 
            "latitude": 32.778314999999999
          }
        }, 
        {
          "category": "Local business", 
          "name": "Rubio's Fresh Mexican Grill", 
          "id": "138690672868343", 
          "category_list": [
            {
              "id": "199377230079198", 
              "name": "Mexican Restaurant"
            }
          ], 
          "location": {
            "city": "Palm Desert", 
            "zip": "92260", 
            "country": "United States", 
            "longitude": -116.394419122, 
            "state": "CA", 
            "street": "72-840 Highway 111", 
            "latitude": 33.723845397399998
          }
        }, 
        {
          "category": "Local business", 
          "name": "Rubio's Fresh Mexican Grill", 
          "id": "164885876898001", 
          "category_list": [
            {
              "id": "199377230079198", 
              "name": "Mexican Restaurant"
            }
          ], 
          "location": {
            "city": "Los Angeles", 
            "zip": "90024", 
            "country": "United States", 
            "longitude": -118.444954, 
            "state": "CA", 
            "street": "308 Westwood Plaza - 1st Floor", 
            "latitude": 34.063085000000001
          }
        }
      ]
    }
  }, 
  {
    "business_name": "Paddock Pools Patios & Spas", 
    "business_id": "aljaT41Exv3SBrQrODdiYw", 
    "fb_pages": {
      "paging": {
        "next": "https://graph.facebook.com/search?type=place&access_token=229546593895315|yPLlHqq6YvDLIH4nL0kjJtIFSlU&limit=5000&offset=5000&__after_id=168690943143929"
      }, 
      "data": [
        {
          "category": "Local business", 
          "name": "Paddock Pools Patios & Spas", 
          "id": "122522454473240", 
          "category_list": [
            {
              "id": "162845797101278", 
              "name": "Furniture Store"
            }, 
            {
              "id": "124760297597666", 
              "name": "Swimming Pool Maintenance"
            }, 
            {
              "id": "153490828039067", 
              "name": "Outdoor Equipment Store"
            }
          ], 
          "location": {
            "city": "Mesa", 
            "zip": "85209-3302", 
            "country": "United States", 
            "longitude": -111.68039899999999, 
            "state": "AZ", 
            "street": "6952 E Hampton Ave", 
            "latitude": 33.390492999999999
          }
        }, 
        {
          "category": "Local business", 
          "name": "Paddock Pools Patios & Spas", 
          "id": "123795037675282", 
          "category_list": [
            {
              "id": "124760297597666", 
              "name": "Swimming Pool Maintenance"
            }, 
            {
              "id": "162845797101278", 
              "name": "Furniture Store"
            }
          ], 
          "location": {
            "city": "Las Vegas", 
            "zip": "89108-7051", 
            "country": "United States", 
            "longitude": -115.239639, 
            "state": "NV", 
            "street": "2170 N Rainbow Blvd", 
            "latitude": 36.199157999999997
          }
        }, 
        {
          "category": "Local business", 
          "name": "Paddock Pools Patios & Spas", 
          "id": "134269503292012", 
          "category_list": [
            {
              "id": "124760297597666", 
              "name": "Swimming Pool Maintenance"
            }, 
            {
              "id": "162845797101278", 
              "name": "Furniture Store"
            }
          ], 
          "location": {
            "city": "Tempe", 
            "zip": "85284-1100", 
            "country": "United States", 
            "longitude": -111.95935900000001, 
            "state": "AZ", 
            "street": "1238 W Elliot Rd", 
            "latitude": 33.349336000000001
          }
        }, 
        {
          "category": "Local business", 
          "name": "Paddock Pools Patios & Spas", 
          "id": "158130767554219", 
          "category_list": [
            {
              "id": "124760297597666", 
              "name": "Swimming Pool Maintenance"
            }
          ], 
          "location": {
            "city": "Henderson", 
            "zip": "89014-6613", 
            "country": "United States", 
            "longitude": -115.046486, 
            "state": "NV", 
            "street": "519 N Stephanie St", 
            "latitude": 36.057738000000001
          }
        }, 
        {
          "category": "Local business", 
          "name": "Paddock Pools Patios & Spas", 
          "id": "163354550355449", 
          "category_list": [
            {
              "id": "124760297597666", 
              "name": "Swimming Pool Maintenance"
            }, 
            {
              "id": "162845797101278", 
              "name": "Furniture Store"
            }, 
            {
              "id": "153490828039067", 
              "name": "Outdoor Equipment Store"
            }
          ], 
          "location": {
            "city": "Scottsdale", 
            "zip": "85260-6625", 
            "country": "United States", 
            "longitude": -111.893649, 
            "state": "AZ", 
            "street": "8718 E Shea Blvd", 
            "latitude": 33.582242999999998
          }
        }, 
        {
          "category": "Local business", 
          "name": "Paddock Pool Patios & Spas", 
          "id": "168690943143929", 
          "category_list": [
            {
              "id": "124760297597666", 
              "name": "Swimming Pool Maintenance"
            }
          ], 
          "location": {
            "city": "Las Vegas", 
            "zip": "89149-4478", 
            "country": "United States", 
            "longitude": -115.287569, 
            "state": "NV", 
            "street": "7060 N Durango Dr", 
            "latitude": 36.289099
          }
        }
      ]
    }
  }, 
  {
    "business_name": "Kooza Cirque du Soleil", 
    "business_id": "9XXRokqQsjitcHuwKTA2WQ", 
    "fb_pages": {
      "paging": {
        "next": "https://graph.facebook.com/search?type=place&access_token=229546593895315|yPLlHqq6YvDLIH4nL0kjJtIFSlU&limit=5000&offset=5000&__after_id=149878958536927"
      }, 
      "data": [
        {
          "category": "Arts/entertainment/nightlife", 
          "name": "KOOZA by Cirque du Soleil", 
          "id": "34324811338", 
          "category_list": [
            {
              "id": "354275401259620", 
              "name": "Nightlife"
            }, 
            {
              "id": "213019495381691", 
              "name": "Circus"
            }
          ], 
          "location": {
            "city": "Munich", 
            "zip": "80336", 
            "country": "Germany", 
            "longitude": -96.803808679959005, 
            "state": "", 
            "street": "Theresienwiese", 
            "latitude": 32.770611849047
          }
        }, 
        {
          "category": "Local business", 
          "name": "Kooza - Cirque Du Soleil", 
          "id": "224034507719339", 
          "category_list": [
            {
              "id": "210881938937928", 
              "name": "Performance Venue"
            }
          ], 
          "location": {
            "city": "Houston", 
            "zip": "77064", 
            "country": "United States", 
            "longitude": -95.532918026960004, 
            "state": "TX", 
            "street": "", 
            "latitude": 29.932470659777
          }
        }, 
        {
          "category": "Local business", 
          "name": "Cirque Du Soleil - Kooza", 
          "id": "1436743033214541", 
          "category_list": [
            {
              "id": "213019495381691", 
              "name": "Circus"
            }
          ], 
          "location": {
            "city": "Boulogne-Billancourt", 
            "zip": "", 
            "country": "France", 
            "longitude": 2.2351193015620998, 
            "state": "", 
            "street": "Ile Seguin", 
            "latitude": 48.822996272592
          }
        }, 
        {
          "category": "Local business", 
          "name": "Cirque Du Soleil, Kooza", 
          "id": "448617895157038", 
          "category_list": [
            {
              "id": "192119584190796", 
              "name": "Event"
            }
          ], 
          "location": {
            "city": "Glendale", 
            "zip": "85305", 
            "country": "United States", 
            "longitude": -112.26677963528, 
            "state": "AZ", 
            "street": "", 
            "latitude": 33.525529122568997
          }
        }, 
        {
          "category": "Local business", 
          "name": "Cirque Du Soleil Kooza At Tropicana Field", 
          "id": "206720639462857", 
          "category_list": [
            {
              "id": "210881938937928", 
              "name": "Performance Venue"
            }, 
            {
              "id": "109976259083543", 
              "name": "Sports Venue & Stadium"
            }
          ], 
          "location": {
            "city": "Saint Petersburg", 
            "zip": "33705", 
            "country": "United States", 
            "longitude": -82.650727361445007, 
            "state": "FL", 
            "street": "", 
            "latitude": 27.768004458071001
          }
        }, 
        {
          "category": "Local business", 
          "name": "Kooza - Cirque Du Soleil At Royal Albert Hall, London", 
          "id": "393039624120658", 
          "category_list": [
            {
              "id": "192119584190796", 
              "name": "Event"
            }
          ], 
          "location": {
            "city": "London", 
            "zip": "", 
            "country": "United Kingdom", 
            "longitude": -0.17743185114570001, 
            "state": "", 
            "street": "", 
            "latitude": 51.501036791268
          }
        }, 
        {
          "category": "Local business", 
          "name": "Cirque du Soleil - Kooza", 
          "id": "175104789173278", 
          "category_list": [
            {
              "id": "177246315652372", 
              "name": "Entertainer"
            }, 
            {
              "id": "211155112228091", 
              "name": "Event Venue"
            }, 
            {
              "id": "213019495381691", 
              "name": "Circus"
            }
          ], 
          "location": {
            "city": "Los Angeles", 
            "zip": "33130", 
            "country": "United States", 
            "longitude": -80.189663967806993, 
            "state": "CA", 
            "street": "1075 Biscayne Blvd", 
            "latitude": 25.787126720591001
          }
        }, 
        {
          "category": "Local business", 
          "name": "Cirque Du Soleil - Kooza", 
          "id": "704753779541898", 
          "category_list": [
            {
              "id": "133436743388217", 
              "name": "Arts & Entertainment"
            }
          ], 
          "location": {
            "city": "Moscow", 
            "zip": "", 
            "country": "Russia", 
            "longitude": 37.561472840999997, 
            "state": "", 
            "street": "", 
            "latitude": 55.715507753677002
          }
        }, 
        {
          "category": "Local business", 
          "name": "Cirque Du Soleil - Kooza", 
          "id": "149878958536927", 
          "category_list": [
            {
              "id": "192119584190796", 
              "name": "Event"
            }
          ], 
          "location": {
            "city": "Knokke-Heist", 
            "zip": "", 
            "country": "Belgium", 
            "longitude": 3.2813242559240998, 
            "state": "", 
            "street": "", 
            "latitude": 51.338383754962003
          }
        }
      ]
    }
  }
]