[
  {
    "business_name": "Fantasy Window Tinting", 
    "business_id": "ZWbKpRdo7G5VtvDqXZZH8w", 
    "fb_pages": {
      "paging": {
        "next": "https://graph.facebook.com/search?type=place&access_token=229546593895315|yPLlHqq6YvDLIH4nL0kjJtIFSlU&limit=5000&offset=5000&__after_id=126321564088681"
      }, 
      "data": [
        {
          "category": "Local business", 
          "name": "Fantasy Window Tinting", 
          "id": "126321564088681", 
          "category_list": [
            {
              "id": "127781400626024", 
              "name": "Glass Products"
            }
          ], 
          "location": {
            "city": "Surprise", 
            "zip": "85378-9607", 
            "country": "United States", 
            "longitude": -112.307706, 
            "state": "AZ", 
            "street": "11541 W Bell Rd Ste 109", 
            "latitude": 33.638464999999997
          }
        }
      ]
    }
  }, 
  {
    "business_name": "Cracker Barrel Old Country Store Inc", 
    "business_id": "fESObRt-YtkgeNS_TUBhlw", 
    "fb_pages": {
      "data": []
    }
  }, 
  {
    "business_name": "Benjamin Franklin Plumbing", 
    "business_id": "nMm5NomMHQgWHAtmvVCHlw", 
    "fb_pages": {
      "paging": {
        "next": "https://graph.facebook.com/search?type=place&access_token=229546593895315|yPLlHqq6YvDLIH4nL0kjJtIFSlU&limit=5000&offset=5000&__after_id=160658887290967"
      }, 
      "data": [
        {
          "category": "Shopping/retail", 
          "name": "Benjamin Franklin Plumbing", 
          "id": "528735897196315", 
          "category_list": [
            {
              "id": "178867352155084", 
              "name": "Plumber"
            }
          ], 
          "location": {
            "city": "Marion", 
            "zip": "", 
            "country": "United States", 
            "longitude": -91.573357000000001, 
            "state": "IA", 
            "street": "", 
            "latitude": 42.026012000000001
          }
        }, 
        {
          "category": "Local business", 
          "name": "Benjamin Franklin Plumbing", 
          "id": "379432628794379", 
          "category_list": [
            {
              "id": "176831012360626", 
              "name": "Professional Services"
            }
          ], 
          "location": {
            "city": "Levittown", 
            "zip": "19057", 
            "country": "United States", 
            "longitude": -74.869147999999996, 
            "state": "PA", 
            "street": "5503 Emilie Road", 
            "latitude": 40.138351
          }
        }, 
        {
          "category": "Local business", 
          "name": "Benjamin Franklin Plumbing Greenville", 
          "id": "251862948317126", 
          "category_list": [
            {
              "id": "178867352155084", 
              "name": "Plumber"
            }, 
            {
              "id": "128784863859103", 
              "name": "Home Inspection"
            }, 
            {
              "id": "192308454131801", 
              "name": "Sewer Service"
            }
          ], 
          "location": {
            "city": "Greenville", 
            "zip": "29611", 
            "country": "United States", 
            "longitude": -82.482837000000004, 
            "state": "SC", 
            "street": "3307 New Easley Hwy", 
            "latitude": 34.832797999999997
          }
        }, 
        {
          "category": "Home improvement", 
          "name": "Benjamin Franklin Plumbing", 
          "id": "169918956384222", 
          "category_list": [
            {
              "id": "178867352155084", 
              "name": "Plumber"
            }
          ], 
          "location": {
            "city": "Merrillville", 
            "zip": "46410", 
            "country": "United States", 
            "longitude": -87.258194000000003, 
            "state": "IN", 
            "street": " 8183 Grand Blvd", 
            "latitude": 41.46846
          }
        }, 
        {
          "category": "Professional services", 
          "name": "Benjamin Franklin Plumbing Wilmington", 
          "id": "604108586285501", 
          "category_list": [
            {
              "id": "178867352155084", 
              "name": "Plumber"
            }
          ], 
          "location": {
            "city": "Wilmington", 
            "zip": "28411", 
            "country": "United States", 
            "longitude": -77.805288000000004, 
            "state": "NC", 
            "street": "7664 Market St", 
            "latitude": 34.282724000000002
          }
        }, 
        {
          "category": "Local business", 
          "name": "Benjamin Franklin Plumbing", 
          "id": "150555198471463", 
          "category_list": [
            {
              "id": "2500", 
              "name": "Local Business"
            }
          ], 
          "location": {
            "city": "Bossier City", 
            "zip": "71111", 
            "country": "United States", 
            "longitude": -93.718192999999999, 
            "state": "LA", 
            "street": "2600 Brown Street", 
            "latitude": 32.576500000000003
          }
        }, 
        {
          "category": "Local business", 
          "name": "Benjamin Franklin Plumbing", 
          "id": "160255814011018", 
          "category_list": [
            {
              "id": "178867352155084", 
              "name": "Plumber"
            }
          ], 
          "location": {
            "city": "Riverside", 
            "zip": "92503", 
            "country": "United States", 
            "longitude": -117.442352, 
            "state": "CA", 
            "street": "3030 Myers Street", 
            "latitude": 33.907620999999999
          }
        }, 
        {
          "category": "Local business", 
          "name": "Benjamin Franklin Plumbing", 
          "id": "112131995483038", 
          "category_list": [
            {
              "id": "178867352155084", 
              "name": "Plumber"
            }
          ], 
          "location": {
            "city": "Grove City", 
            "zip": "43123", 
            "country": "United States", 
            "longitude": -83.088577000000001, 
            "state": "OH", 
            "street": "3711 Broadway ", 
            "latitude": 39.888289999999998
          }
        }, 
        {
          "category": "Home improvement", 
          "name": "Benjamin Franklin Plumbing", 
          "id": "109961139074281", 
          "category_list": [
            {
              "id": "178867352155084", 
              "name": "Plumber"
            }, 
            {
              "id": "132219350176698", 
              "name": "Heating, Ventilating & Air Conditioning"
            }
          ], 
          "location": {
            "city": "Deer Park", 
            "zip": "11729", 
            "country": "United States", 
            "longitude": -73.342101999999997, 
            "state": "NY", 
            "street": "569 Acorn St, Unit 5", 
            "latitude": 40.759234999999997
          }
        }, 
        {
          "category": "Home improvement", 
          "name": "Benjamin Franklin Plumbing of Western New York", 
          "id": "127428147325173", 
          "category_list": [
            {
              "id": "108427109235243", 
              "name": "Home Improvement"
            }
          ], 
          "location": {
            "city": "Hamburg", 
            "zip": "14075", 
            "country": "United States", 
            "longitude": -78.834778, 
            "state": "NY", 
            "street": "5700 Maelou Drive", 
            "latitude": 42.732418000000003
          }
        }, 
        {
          "category": "Professional services", 
          "name": "Benjamin Franklin Plumbing", 
          "id": "165123753689654", 
          "category_list": [
            {
              "id": "178867352155084", 
              "name": "Plumber"
            }
          ], 
          "location": {
            "city": "San Francisco", 
            "zip": "94105", 
            "country": "United States", 
            "longitude": -122.419, 
            "state": "CA", 
            "street": "Serving San francisco", 
            "latitude": 37.779299999999999
          }
        }, 
        {
          "category": "Local business", 
          "name": "Benjamin Franklin Plumbing", 
          "id": "170497176308970", 
          "category_list": [
            {
              "id": "2500", 
              "name": "Local Business"
            }
          ], 
          "location": {
            "city": "Parma", 
            "zip": "44134", 
            "country": "United States", 
            "longitude": -81.712861000000004, 
            "state": "OH", 
            "street": "4005 Brookpark Rd", 
            "latitude": 41.418740999999997
          }
        }, 
        {
          "category": "Local business", 
          "name": "Benjamin Franklin Plumbing - Hot Springs", 
          "id": "368235319890767", 
          "category_list": [
            {
              "id": "2500", 
              "name": "Local Business"
            }
          ], 
          "location": {
            "city": "Hot Springs", 
            "zip": "71913", 
            "country": "United States", 
            "longitude": -93.096628999999993, 
            "state": "AR", 
            "street": "534 Airport Road", 
            "latitude": 34.485686000000001
          }
        }, 
        {
          "category": "Home improvement", 
          "name": "Benjamin Franklin Plumbing", 
          "id": "240339466004219", 
          "category_list": [
            {
              "id": "178867352155084", 
              "name": "Plumber"
            }
          ], 
          "location": {
            "city": "Southern Pines", 
            "zip": "28387", 
            "country": "United States", 
            "longitude": -79.391133999999994, 
            "state": "NC", 
            "street": "144 W New Hampshire Ave.", 
            "latitude": 35.174903
          }
        }, 
        {
          "category": "Local business", 
          "name": "Benjamin Franklin Plumbing", 
          "id": "150194588384202", 
          "category_list": [
            {
              "id": "132219350176698", 
              "name": "Heating, Ventilating & Air Conditioning"
            }, 
            {
              "id": "178867352155084", 
              "name": "Plumber"
            }
          ], 
          "location": {
            "city": "High Bridge", 
            "zip": "08827", 
            "country": "United States", 
            "longitude": -74.895202999999995, 
            "state": "NJ", 
            "street": "20 Main Street", 
            "latitude": 40.667374000000002
          }
        }, 
        {
          "category": "Small business", 
          "name": "Benjamin Franklin Plumbing SF Bay Area", 
          "id": "111147325593812", 
          "category_list": [
            {
              "id": "178867352155084", 
              "name": "Plumber"
            }, 
            {
              "id": "192308454131801", 
              "name": "Sewer Service"
            }
          ], 
          "location": {
            "city": "Novato", 
            "zip": "94949", 
            "country": "United States", 
            "longitude": -122.532944, 
            "state": "CA", 
            "street": "22 Digital Dr., Suite 1", 
            "latitude": 38.069870000000002
          }
        }, 
        {
          "category": "Local business", 
          "name": "Benjamin Franklin Plumbing - The Punctual Plumber Phoenix", 
          "id": "157686641094848", 
          "category_list": [
            {
              "id": "178867352155084", 
              "name": "Plumber"
            }, 
            {
              "id": "144587185601777", 
              "name": "Water Filtration & Treatment"
            }
          ], 
          "location": {
            "city": "Phoenix", 
            "zip": "85027", 
            "country": "United States", 
            "longitude": -112.09917299999999, 
            "state": "AZ", 
            "street": "20601 N 19th Ave Ste 150", 
            "latitude": 33.673847000000002
          }
        }, 
        {
          "category": "Home improvement", 
          "name": "Benjamin Franklin Plumbing, Wilmington, DE", 
          "id": "241036432267", 
          "category_list": [
            {
              "id": "178867352155084", 
              "name": "Plumber"
            }
          ], 
          "location": {
            "city": "Wilmington", 
            "zip": "19804", 
            "country": "United States", 
            "longitude": -75.579696999999996, 
            "state": "DE", 
            "street": "410 Meco Drive, Suite B", 
            "latitude": 39.724800000000002
          }
        }, 
        {
          "category": "Local business", 
          "name": "Benjamin Franklin Plumbing", 
          "id": "148086015286918", 
          "category_list": [
            {
              "id": "2500", 
              "name": "Local Business"
            }
          ], 
          "location": {
            "city": "Carrollton", 
            "zip": "75006", 
            "country": "United States", 
            "longitude": -96.914214999999999, 
            "state": "TX", 
            "street": "1911 Old Denton Road ", 
            "latitude": 32.965533999999998
          }
        }, 
        {
          "category": "Local business", 
          "name": "Benjamin Franklin Plumbing, Lancaster PA", 
          "id": "121972621177330", 
          "category_list": [
            {
              "id": "178867352155084", 
              "name": "Plumber"
            }, 
            {
              "id": "132219350176698", 
              "name": "Heating, Ventilating & Air Conditioning"
            }
          ], 
          "location": {
            "city": "Lancaster", 
            "zip": "17601", 
            "country": "United States", 
            "longitude": -76.376823999999999, 
            "state": "PA", 
            "street": "518 Running Pump Road", 
            "latitude": 40.051943999999999
          }
        }, 
        {
          "category": "Local business", 
          "name": "Benjamin Franklin Plumbing", 
          "id": "161025527248527", 
          "category_list": [
            {
              "id": "178867352155084", 
              "name": "Plumber"
            }
          ], 
          "location": {
            "city": "Lafayette", 
            "zip": "47905-3963", 
            "country": "United States", 
            "longitude": -86.864259000000004, 
            "state": "IN", 
            "street": "2821 Schuyler Ave", 
            "latitude": 40.445456
          }
        }, 
        {
          "category": "Local business", 
          "name": "Benjamin Franklin Plumbing", 
          "id": "129149533795271", 
          "category_list": [
            {
              "id": "178867352155084", 
              "name": "Plumber"
            }, 
            {
              "id": "187133811318958", 
              "name": "Business Services"
            }
          ], 
          "location": {
            "city": "Hastings", 
            "zip": "55033", 
            "country": "United States", 
            "longitude": -92.852988999999994, 
            "state": "MN", 
            "street": "1904 Vermillion St.", 
            "latitude": 44.726211999999997
          }
        }, 
        {
          "category": "Local business", 
          "name": "Benjamin Franklin Plumbing", 
          "id": "137440002971022", 
          "category_list": [
            {
              "id": "178867352155084", 
              "name": "Plumber"
            }
          ], 
          "location": {
            "city": "Hendersonville", 
            "zip": "28791-5001", 
            "country": "United States", 
            "longitude": -82.480008999999995, 
            "state": "NC", 
            "street": "3278 Asheville Hwy Unit B", 
            "latitude": 35.360807000000001
          }
        }, 
        {
          "category": "Local business", 
          "name": "Benjamin Franklin Plumbing", 
          "id": "149761191827765", 
          "category_list": [
            {
              "id": "2500", 
              "name": "Local Business"
            }
          ], 
          "location": {
            "city": "Howell", 
            "zip": "48843", 
            "country": "United States", 
            "longitude": -83.755508027299996, 
            "state": "MI", 
            "street": "", 
            "latitude": 42.618828683099998
          }
        }, 
        {
          "category": "Local business", 
          "name": "Benjamin Franklin Plumbing", 
          "id": "154153584622229", 
          "category_list": [
            {
              "id": "187133811318958", 
              "name": "Business Services"
            }, 
            {
              "id": "144587185601777", 
              "name": "Water Filtration & Treatment"
            }, 
            {
              "id": "124816677590074", 
              "name": "Contractor"
            }
          ], 
          "location": {
            "city": "Chardon", 
            "zip": "44024-8447", 
            "country": "United States", 
            "longitude": -81.207145999999995, 
            "state": "OH", 
            "street": "12043 Mayfield Rd", 
            "latitude": 41.529693999999999
          }
        }, 
        {
          "category": "Local business", 
          "name": "Benjamin Franklin Plumbing", 
          "id": "154230521279854", 
          "category_list": [
            {
              "id": "139386576124160", 
              "name": "Public Services"
            }, 
            {
              "id": "178867352155084", 
              "name": "Plumber"
            }
          ], 
          "location": {
            "city": "Toledo", 
            "zip": "43606-4431", 
            "country": "United States", 
            "longitude": -83.580642999999995, 
            "state": "OH", 
            "street": "1602 W Bancroft St", 
            "latitude": 41.663978999999998
          }
        }, 
        {
          "category": "Local business", 
          "name": "Benjamin Franklin Plumbing", 
          "id": "163803560421331", 
          "category_list": [
            {
              "id": "178867352155084", 
              "name": "Plumber"
            }
          ], 
          "location": {
            "city": "Springfield", 
            "zip": "65807", 
            "country": "United States", 
            "longitude": -93.331733999999997, 
            "state": "MO", 
            "street": "3378 S. Scenic Ave, Suite C", 
            "latitude": 37.154159999999997
          }
        }, 
        {
          "category": "Business services", 
          "name": "Benjamin Franklin Plumbing", 
          "id": "252987088057131", 
          "category_list": [
            {
              "id": "187133811318958", 
              "name": "Business Services"
            }
          ], 
          "location": {
            "city": "Dallas", 
            "zip": "75243", 
            "country": "United States", 
            "longitude": -96.747352000000006, 
            "state": "TX", 
            "street": "13551 Method Street", 
            "latitude": 32.931829
          }
        }, 
        {
          "category": "Small business", 
          "name": "Benjamin Franklin Plumbing", 
          "id": "367430079986980", 
          "category_list": [
            {
              "id": "2237", 
              "name": "Small Business"
            }
          ], 
          "location": {
            "city": "Mount Pleasant", 
            "zip": "29466", 
            "country": "United States", 
            "longitude": -79.804518000000002, 
            "state": "SC", 
            "street": "2612 Larch Ln Suite 104", 
            "latitude": 32.879463000000001
          }
        }, 
        {
          "category": "Local business", 
          "name": "Benjamin Franklin Plumbing", 
          "id": "423531281103751", 
          "category_list": [
            {
              "id": "178867352155084", 
              "name": "Plumber"
            }
          ], 
          "location": {
            "city": "Chadds Ford", 
            "zip": "19317", 
            "country": "United States", 
            "longitude": -75.537406000000004, 
            "state": "PA", 
            "street": "125 Wilmington-West Chester Pike", 
            "latitude": 39.845652999999999
          }
        }, 
        {
          "category": "Business services", 
          "name": "Benjamin Franklin Plumbing", 
          "id": "535501976479123", 
          "category_list": [
            {
              "id": "187133811318958", 
              "name": "Business Services"
            }
          ], 
          "location": {
            "city": "Mission Viejo", 
            "zip": "92692", 
            "country": "United States", 
            "longitude": -117.63510100000001, 
            "state": "CA", 
            "street": "23052 Alicia Parkway H-337", 
            "latitude": 33.627547999999997
          }
        }, 
        {
          "category": "Local business", 
          "name": "Benjamin Franklin Plumbing", 
          "id": "102627016470834", 
          "category_list": [
            {
              "id": "178867352155084", 
              "name": "Plumber"
            }
          ], 
          "location": {
            "city": "Atascadero", 
            "zip": "93422-5270", 
            "country": "United States", 
            "longitude": -120.653374, 
            "state": "CA", 
            "street": "8860 Palomar Ave", 
            "latitude": 35.475364999999996
          }
        }, 
        {
          "category": "Local business", 
          "name": "Benjamin Franklin Plumbing", 
          "id": "102898076443739", 
          "category_list": [
            {
              "id": "178867352155084", 
              "name": "Plumber"
            }, 
            {
              "id": "124816677590074", 
              "name": "Contractor"
            }
          ], 
          "location": {
            "city": "Kittery", 
            "zip": "03904-1479", 
            "country": "United States", 
            "longitude": -70.735825000000006, 
            "state": "ME", 
            "street": "10 Shapleigh Rd", 
            "latitude": 43.090260000000001
          }
        }, 
        {
          "category": "Local business", 
          "name": "Benjamin Franklin Plumbing", 
          "id": "103320573067049", 
          "category_list": [
            {
              "id": "178867352155084", 
              "name": "Plumber"
            }
          ], 
          "location": {
            "city": "Independence", 
            "zip": "64052-4038", 
            "country": "United States", 
            "longitude": -94.431702000000001, 
            "state": "MO", 
            "street": "909 S Crysler Ave", 
            "latitude": 39.082656
          }
        }, 
        {
          "category": "Local business", 
          "name": "Benjamin Franklin Plumbing", 
          "id": "103701886363402", 
          "category_list": [
            {
              "id": "178867352155084", 
              "name": "Plumber"
            }
          ], 
          "location": {
            "city": "Petaluma", 
            "zip": "94954-6647", 
            "country": "United States", 
            "longitude": -122.63479599999999, 
            "state": "CA", 
            "street": "432 Park Place Dr", 
            "latitude": 38.257427
          }
        }, 
        {
          "category": "Local business", 
          "name": "Benjamin Franklin Plumbing", 
          "id": "105233409543168", 
          "category_list": [
            {
              "id": "132219350176698", 
              "name": "Heating, Ventilating & Air Conditioning"
            }, 
            {
              "id": "178867352155084", 
              "name": "Plumber"
            }, 
            {
              "id": "192308454131801", 
              "name": "Sewer Service"
            }
          ], 
          "location": {
            "city": "Staten Island", 
            "zip": "10304-2610", 
            "country": "United States", 
            "longitude": -74.077438000000001, 
            "state": "NY", 
            "street": "66 Broad St", 
            "latitude": 40.624961999999996
          }
        }, 
        {
          "category": "Local business", 
          "name": "Benjamin Franklin Plumbing", 
          "id": "110360052361593", 
          "category_list": [
            {
              "id": "178867352155084", 
              "name": "Plumber"
            }
          ], 
          "location": {
            "city": "North Augusta", 
            "zip": "29841-4409", 
            "country": "United States", 
            "longitude": -81.929794000000001, 
            "state": "SC", 
            "street": "942 Atomic Rd", 
            "latitude": 33.493350999999997
          }
        }, 
        {
          "category": "Local business", 
          "name": "Benjamin Franklin Plumbing", 
          "id": "110967658967393", 
          "category_list": [
            {
              "id": "192308454131801", 
              "name": "Sewer Service"
            }, 
            {
              "id": "178867352155084", 
              "name": "Plumber"
            }
          ], 
          "location": {
            "city": "Palmyra", 
            "zip": "62674-6330", 
            "country": "United States", 
            "longitude": -89.967493000000005, 
            "state": "IL", 
            "street": "31134 Terry Park Rd", 
            "latitude": 39.451331000000003
          }
        }, 
        {
          "category": "Local business", 
          "name": "Benjamin Franklin Plumbing", 
          "id": "111652448898081", 
          "category_list": [
            {
              "id": "192308454131801", 
              "name": "Sewer Service"
            }, 
            {
              "id": "178867352155084", 
              "name": "Plumber"
            }
          ], 
          "location": {
            "city": "Anna", 
            "zip": "75409-2566", 
            "country": "United States", 
            "longitude": -96.552582000000001, 
            "state": "TX", 
            "street": "1002 S Powell Pkwy", 
            "latitude": 33.341293
          }
        }, 
        {
          "category": "Local business", 
          "name": "Benjamin Franklin Plumbing", 
          "id": "111693552228896", 
          "category_list": [
            {
              "id": "178867352155084", 
              "name": "Plumber"
            }, 
            {
              "id": "199405806739848", 
              "name": "Public School"
            }
          ], 
          "location": {
            "city": "San Jose", 
            "zip": "95125-1244", 
            "country": "United States", 
            "longitude": -121.877167, 
            "state": "CA", 
            "street": "412 Lano St", 
            "latitude": 37.305667999999997
          }
        }, 
        {
          "category": "Local business", 
          "name": "Benjamin Franklin Plumbing", 
          "id": "112071642188752", 
          "category_list": [
            {
              "id": "178867352155084", 
              "name": "Plumber"
            }
          ], 
          "location": {
            "city": "Freeport", 
            "zip": "11520-3943", 
            "country": "United States", 
            "longitude": -73.572263000000007, 
            "state": "NY", 
            "street": "256 E Sunrise Hwy", 
            "latitude": 40.657423000000001
          }
        }, 
        {
          "category": "Local business", 
          "name": "Benjamin Franklin Plumbing", 
          "id": "115766601815986", 
          "category_list": [
            {
              "id": "178867352155084", 
              "name": "Plumber"
            }, 
            {
              "id": "192308454131801", 
              "name": "Sewer Service"
            }
          ], 
          "location": {
            "city": "Houston", 
            "zip": "77098-1002", 
            "country": "United States", 
            "longitude": -95.425391000000005, 
            "state": "TX", 
            "street": "3262 Westheimer Rd", 
            "latitude": 29.742256999999999
          }
        }, 
        {
          "category": "Local business", 
          "name": "Benjamin Franklin Plumbing", 
          "id": "116472768411925", 
          "category_list": [
            {
              "id": "178867352155084", 
              "name": "Plumber"
            }
          ], 
          "location": {
            "city": "Londonderry", 
            "zip": "03053-7401", 
            "country": "United States", 
            "longitude": -71.423264000000003, 
            "state": "NH", 
            "street": "136 Harvey Rd", 
            "latitude": 42.926155000000001
          }
        }, 
        {
          "category": "Local business", 
          "name": "Benjamin Franklin Plumbing", 
          "id": "121884924535614", 
          "category_list": [
            {
              "id": "178867352155084", 
              "name": "Plumber"
            }
          ], 
          "location": {
            "city": "Britton", 
            "zip": "49229-9597", 
            "country": "United States", 
            "longitude": -83.829635999999994, 
            "state": "MI", 
            "street": "168 E Chicago Blvd", 
            "latitude": 41.986201999999999
          }
        }, 
        {
          "category": "Local business", 
          "name": "Benjamin Franklin Plumbing", 
          "id": "124975490890959", 
          "category_list": [
            {
              "id": "178867352155084", 
              "name": "Plumber"
            }
          ], 
          "location": {
            "city": "Memphis", 
            "zip": "38122-3151", 
            "country": "United States", 
            "longitude": -89.951683000000003, 
            "state": "TN", 
            "street": "693 N Holmes St", 
            "latitude": 35.151051000000002
          }
        }, 
        {
          "category": "Local business", 
          "name": "Benjamin Franklin Plumbing", 
          "id": "125911344131152", 
          "category_list": [
            {
              "id": "178867352155084", 
              "name": "Plumber"
            }
          ], 
          "location": {
            "city": "Lexington", 
            "zip": "40510-1003", 
            "country": "United States", 
            "longitude": -84.540244999999999, 
            "state": "KY", 
            "street": "624 Bizzell Dr", 
            "latitude": 38.065455999999998
          }
        }, 
        {
          "category": "Local business", 
          "name": "Benjamin Franklin Plumbing", 
          "id": "126478617405736", 
          "category_list": [
            {
              "id": "144587185601777", 
              "name": "Water Filtration & Treatment"
            }, 
            {
              "id": "178867352155084", 
              "name": "Plumber"
            }, 
            {
              "id": "187133811318958", 
              "name": "Business Services"
            }
          ], 
          "location": {
            "city": "Leeds", 
            "zip": "35094-3109", 
            "country": "United States", 
            "longitude": -86.604195000000004, 
            "state": "AL", 
            "street": "618 Dogwood Ter", 
            "latitude": 33.486632999999998
          }
        }, 
        {
          "category": "Local business", 
          "name": "Benjamin Franklin Plumbing", 
          "id": "133346426715905", 
          "category_list": [
            {
              "id": "178867352155084", 
              "name": "Plumber"
            }
          ], 
          "location": {
            "city": "Columbus", 
            "zip": "31904-5953", 
            "country": "United States", 
            "longitude": -84.973448000000005, 
            "state": "GA", 
            "street": "4602 Holly Ave", 
            "latitude": 32.507998000000001
          }
        }, 
        {
          "category": "Local business", 
          "name": "Benjamin Franklin Plumbing", 
          "id": "133800200003822", 
          "category_list": [
            {
              "id": "132219350176698", 
              "name": "Heating, Ventilating & Air Conditioning"
            }, 
            {
              "id": "178867352155084", 
              "name": "Plumber"
            }
          ], 
          "location": {
            "city": "Montrose", 
            "zip": "81401-3603", 
            "country": "United States", 
            "longitude": -107.879655, 
            "state": "CO", 
            "street": "201 N 1st St", 
            "latitude": 38.479078999999999
          }
        }, 
        {
          "category": "Local business", 
          "name": "Benjamin Franklin Plumbing", 
          "id": "133817063336622", 
          "category_list": [
            {
              "id": "132219350176698", 
              "name": "Heating, Ventilating & Air Conditioning"
            }, 
            {
              "id": "178867352155084", 
              "name": "Plumber"
            }, 
            {
              "id": "192308454131801", 
              "name": "Sewer Service"
            }
          ], 
          "location": {
            "city": "Somerset", 
            "zip": "15501-1518", 
            "country": "United States", 
            "longitude": -79.085182000000003, 
            "state": "PA", 
            "street": "374 W Main St", 
            "latitude": 40.008934000000004
          }
        }, 
        {
          "category": "Local business", 
          "name": "Benjamin Franklin Plumbing", 
          "id": "134129749968972", 
          "category_list": [
            {
              "id": "178867352155084", 
              "name": "Plumber"
            }
          ], 
          "location": {
            "city": "Little Rock", 
            "zip": "72207-4625", 
            "country": "United States", 
            "longitude": -92.336219999999997, 
            "state": "AR", 
            "street": "1818 N Taylor St", 
            "latitude": 34.768959000000002
          }
        }, 
        {
          "category": "Local business", 
          "name": "Benjamin Franklin Plumbing", 
          "id": "135206683195231", 
          "category_list": [
            {
              "id": "178867352155084", 
              "name": "Plumber"
            }, 
            {
              "id": "192308454131801", 
              "name": "Sewer Service"
            }
          ], 
          "location": {
            "city": "Rosenberg", 
            "zip": "77471-2307", 
            "country": "United States", 
            "longitude": -95.815498000000005, 
            "state": "TX", 
            "street": "1015 Frost St", 
            "latitude": 29.557901999999999
          }
        }, 
        {
          "category": "Local business", 
          "name": "Benjamin Franklin Plumbing", 
          "id": "142137975832909", 
          "category_list": [
            {
              "id": "192308454131801", 
              "name": "Sewer Service"
            }, 
            {
              "id": "178867352155084", 
              "name": "Plumber"
            }
          ], 
          "location": {
            "city": "Duluth", 
            "zip": "55806-1925", 
            "country": "United States", 
            "longitude": -92.125146000000001, 
            "state": "MN", 
            "street": "2220 W Michigan St", 
            "latitude": 46.765191000000002
          }
        }, 
        {
          "category": "Local business", 
          "name": "Benjamin Franklin Plumbing", 
          "id": "146355265408655", 
          "category_list": [
            {
              "id": "178867352155084", 
              "name": "Plumber"
            }, 
            {
              "id": "192308454131801", 
              "name": "Sewer Service"
            }
          ], 
          "location": {
            "city": "Liverpool", 
            "zip": "13088-5513", 
            "country": "United States", 
            "longitude": -76.197601000000006, 
            "state": "NY", 
            "street": "914 Old Liverpool Rd", 
            "latitude": 43.099151999999997
          }
        }, 
        {
          "category": "Local business", 
          "name": "Benjamin Franklin Plumbing", 
          "id": "146668145377883", 
          "category_list": [
            {
              "id": "178867352155084", 
              "name": "Plumber"
            }
          ], 
          "location": {
            "city": "Mahwah", 
            "zip": "07430-1337", 
            "country": "United States", 
            "longitude": -74.145803000000001, 
            "state": "NJ", 
            "street": "184 Franklin Tpke", 
            "latitude": 41.095508000000002
          }
        }, 
        {
          "category": "Local business", 
          "name": "Benjamin Franklin Plumbing", 
          "id": "147539638624612", 
          "category_list": [
            {
              "id": "139386576124160", 
              "name": "Public Services"
            }, 
            {
              "id": "178867352155084", 
              "name": "Plumber"
            }, 
            {
              "id": "192308454131801", 
              "name": "Sewer Service"
            }
          ], 
          "location": {
            "city": "Valdosta", 
            "zip": "31601-5041", 
            "country": "United States", 
            "longitude": -83.245857000000001, 
            "state": "GA", 
            "street": "119 Blanchard St", 
            "latitude": 30.844099
          }
        }, 
        {
          "category": "Local business", 
          "name": "Benjamin Franklin Plumbing", 
          "id": "147883141922121", 
          "category_list": [
            {
              "id": "178867352155084", 
              "name": "Plumber"
            }
          ], 
          "location": {
            "city": "Greencastle", 
            "zip": "46135-1224", 
            "country": "United States", 
            "longitude": -86.865649000000005, 
            "state": "IN", 
            "street": "116 W Franklin St", 
            "latitude": 39.644635999999998
          }
        }, 
        {
          "category": "Local business", 
          "name": "Benjamin Franklin Plumbing", 
          "id": "148171395225675", 
          "category_list": [
            {
              "id": "178867352155084", 
              "name": "Plumber"
            }
          ], 
          "location": {
            "city": "Port Chester", 
            "zip": "10573-3301", 
            "country": "United States", 
            "longitude": -73.661727999999997, 
            "state": "NY", 
            "street": "153 Highland St", 
            "latitude": 41.00526
          }
        }, 
        {
          "category": "Local business", 
          "name": "Benjamin Franklin Plumbing", 
          "id": "149839471726299", 
          "category_list": [
            {
              "id": "178867352155084", 
              "name": "Plumber"
            }
          ], 
          "location": {
            "city": "San Antonio", 
            "zip": "78257-9722", 
            "country": "United States", 
            "longitude": -98.607125999999994, 
            "state": "TX", 
            "street": "6335 Camp Bullis Rd Ste 27", 
            "latitude": 29.628133999999999
          }
        }, 
        {
          "category": "Local business", 
          "name": "Benjamin Franklin Plumbing", 
          "id": "151491171689361", 
          "category_list": [
            {
              "id": "108427109235243", 
              "name": "Home Improvement"
            }
          ], 
          "location": {
            "city": "Concord", 
            "zip": "", 
            "country": "United States", 
            "longitude": -122.024101, 
            "state": "CA", 
            "street": "2490 Arnold Industrial Way", 
            "latitude": 38.010852999999997
          }
        }, 
        {
          "category": "Local business", 
          "name": "Benjamin Franklin Plumbing", 
          "id": "153471934688052", 
          "category_list": [
            {
              "id": "178867352155084", 
              "name": "Plumber"
            }
          ], 
          "location": {
            "city": "Monrovia", 
            "zip": "91016-2015", 
            "country": "United States", 
            "longitude": -118.011765, 
            "state": "CA", 
            "street": "225 Highland Pl", 
            "latitude": 34.155009999999997
          }
        }, 
        {
          "category": "Local business", 
          "name": "Benjamin Franklin Plumbing", 
          "id": "153544418015215", 
          "category_list": [
            {
              "id": "178867352155084", 
              "name": "Plumber"
            }
          ], 
          "location": {
            "city": "Arlington", 
            "zip": "76001-6733", 
            "country": "United States", 
            "longitude": -97.146675000000002, 
            "state": "TX", 
            "street": "2215 W Harris Rd", 
            "latitude": 32.627274
          }
        }, 
        {
          "category": "Local business", 
          "name": "Benjamin Franklin Plumbing", 
          "id": "153911061313907", 
          "category_list": [
            {
              "id": "178867352155084", 
              "name": "Plumber"
            }, 
            {
              "id": "192308454131801", 
              "name": "Sewer Service"
            }
          ], 
          "location": {
            "city": "Port Saint Lucie", 
            "zip": "34984-3434", 
            "country": "United States", 
            "longitude": -80.367278999999996, 
            "state": "FL", 
            "street": "1631 SW South Macedo Blvd", 
            "latitude": 27.291074999999999
          }
        }, 
        {
          "category": "Local business", 
          "name": "Benjamin Franklin Plumbing", 
          "id": "155289954511173", 
          "category_list": [
            {
              "id": "178867352155084", 
              "name": "Plumber"
            }
          ], 
          "location": {
            "city": "Milwaukee", 
            "zip": "53220-4819", 
            "country": "United States", 
            "longitude": -87.971953999999997, 
            "state": "WI", 
            "street": "4510 W Loomis Rd", 
            "latitude": 42.956992999999997
          }
        }, 
        {
          "category": "Local business", 
          "name": "Benjamin Franklin Plumbing", 
          "id": "155535197817199", 
          "category_list": [
            {
              "id": "192308454131801", 
              "name": "Sewer Service"
            }, 
            {
              "id": "178867352155084", 
              "name": "Plumber"
            }
          ], 
          "location": {
            "city": "McKinney", 
            "zip": "75070-3863", 
            "country": "United States", 
            "longitude": -96.640534000000002, 
            "state": "TX", 
            "street": "1500 S Central Expy Ste 300", 
            "latitude": 33.187739999999998
          }
        }, 
        {
          "category": "Local business", 
          "name": "Benjamin Franklin Plumbing", 
          "id": "156146411092690", 
          "category_list": [
            {
              "id": "178867352155084", 
              "name": "Plumber"
            }, 
            {
              "id": "192308454131801", 
              "name": "Sewer Service"
            }
          ], 
          "location": {
            "city": "Rowlett", 
            "zip": "75089-7825", 
            "country": "United States", 
            "longitude": -96.534037999999995, 
            "state": "TX", 
            "street": "8313 Princeton Rd", 
            "latitude": 32.936309999999999
          }
        }, 
        {
          "category": "Local business", 
          "name": "Benjamin Franklin Plumbing", 
          "id": "156970067668925", 
          "category_list": [
            {
              "id": "178867352155084", 
              "name": "Plumber"
            }
          ], 
          "location": {
            "city": "Mountain Grove", 
            "zip": "65711-2172", 
            "country": "United States", 
            "longitude": -92.265047999999993, 
            "state": "MO", 
            "street": "223 S Main St", 
            "latitude": 37.127620999999998
          }
        }, 
        {
          "category": "Local business", 
          "name": "Benjamin Franklin Plumbing", 
          "id": "157340924305699", 
          "category_list": [
            {
              "id": "178867352155084", 
              "name": "Plumber"
            }, 
            {
              "id": "192308454131801", 
              "name": "Sewer Service"
            }
          ], 
          "location": {
            "city": "Plano", 
            "zip": "75074-5714", 
            "country": "United States", 
            "longitude": -96.708732999999995, 
            "state": "TX", 
            "street": "1500 N Central Expy", 
            "latitude": 33.020020000000002
          }
        }, 
        {
          "category": "Local business", 
          "name": "Benjamin Franklin Plumbing", 
          "id": "157894447578001", 
          "category_list": [
            {
              "id": "124617867610922", 
              "name": "Appliances"
            }, 
            {
              "id": "178867352155084", 
              "name": "Plumber"
            }, 
            {
              "id": "192308454131801", 
              "name": "Sewer Service"
            }
          ], 
          "location": {
            "city": "Richardson", 
            "zip": "75081-4012", 
            "country": "United States", 
            "longitude": -96.735412999999994, 
            "state": "TX", 
            "street": "401 S Sherman St Ste 121", 
            "latitude": 32.945630000000001
          }
        }, 
        {
          "category": "Local business", 
          "name": "Benjamin Franklin Plumbing", 
          "id": "158076307556143", 
          "category_list": [
            {
              "id": "178867352155084", 
              "name": "Plumber"
            }, 
            {
              "id": "144587185601777", 
              "name": "Water Filtration & Treatment"
            }, 
            {
              "id": "187133811318958", 
              "name": "Business Services"
            }
          ], 
          "location": {
            "city": "Sellersville", 
            "zip": "18960-3346", 
            "country": "United States", 
            "longitude": -75.272902999999999, 
            "state": "PA", 
            "street": "130 Highview Rd", 
            "latitude": 40.319961999999997
          }
        }, 
        {
          "category": "Local business", 
          "name": "Benjamin Franklin Plumbing", 
          "id": "158481827518304", 
          "category_list": [
            {
              "id": "178867352155084", 
              "name": "Plumber"
            }
          ], 
          "location": {
            "city": "Buchanan", 
            "zip": "49107-1049", 
            "country": "United States", 
            "longitude": -86.381027000000003, 
            "state": "MI", 
            "street": "317 Post Rd", 
            "latitude": 41.820442
          }
        }, 
        {
          "category": "Local business", 
          "name": "Benjamin Franklin Plumbing", 
          "id": "158711500829686", 
          "category_list": [
            {
              "id": "178867352155084", 
              "name": "Plumber"
            }
          ], 
          "location": {
            "city": "Greenville", 
            "zip": "29607-1113", 
            "country": "United States", 
            "longitude": -82.376823000000002, 
            "state": "SC", 
            "street": "40 Kirkwood Ln", 
            "latitude": 34.864994000000003
          }
        }, 
        {
          "category": "Local business", 
          "name": "Benjamin Franklin Plumbing", 
          "id": "159627617393802", 
          "category_list": [
            {
              "id": "178867352155084", 
              "name": "Plumber"
            }
          ], 
          "location": {
            "city": "New Church", 
            "zip": "23415", 
            "country": "United States", 
            "longitude": -75.537548000000001, 
            "state": "VA", 
            "street": "6299 Lankford Hwy", 
            "latitude": 37.950428000000002
          }
        }, 
        {
          "category": "Local business", 
          "name": "Benjamin Franklin Plumbing", 
          "id": "159957760703087", 
          "category_list": [
            {
              "id": "178867352155084", 
              "name": "Plumber"
            }
          ], 
          "location": {
            "city": "St. Charles", 
            "zip": "63304-4579", 
            "country": "United States", 
            "longitude": -90.669686999999996, 
            "state": "MO", 
            "street": "855 Westwood Industrial Park Dr", 
            "latitude": 38.724950999999997
          }
        }, 
        {
          "category": "Local business", 
          "name": "Benjamin Franklin Plumbing", 
          "id": "160038994018413", 
          "category_list": [
            {
              "id": "178867352155084", 
              "name": "Plumber"
            }
          ], 
          "location": {
            "city": "Hendersonville", 
            "zip": "28792-5212", 
            "country": "United States", 
            "longitude": -82.459686000000005, 
            "state": "NC", 
            "street": "440 S Church St", 
            "latitude": 35.310211000000002
          }
        }, 
        {
          "category": "Local business", 
          "name": "Benjamin Franklin Plumbing", 
          "id": "160092740679864", 
          "category_list": [
            {
              "id": "178867352155084", 
              "name": "Plumber"
            }, 
            {
              "id": "187133811318958", 
              "name": "Business Services"
            }, 
            {
              "id": "144587185601777", 
              "name": "Water Filtration & Treatment"
            }
          ], 
          "location": {
            "city": "Burlington", 
            "zip": "52601-4304", 
            "country": "United States", 
            "longitude": -91.114278999999996, 
            "state": "IA", 
            "street": "1110 Agency St", 
            "latitude": 40.814571999999998
          }
        }, 
        {
          "category": "Local business", 
          "name": "Benjamin Franklin Plumbing", 
          "id": "160620083958846", 
          "category_list": [
            {
              "id": "178867352155084", 
              "name": "Plumber"
            }, 
            {
              "id": "132219350176698", 
              "name": "Heating, Ventilating & Air Conditioning"
            }
          ], 
          "location": {
            "city": "Ithaca", 
            "zip": "14850-5229", 
            "country": "United States", 
            "longitude": -76.505058000000005, 
            "state": "NY", 
            "street": "428 N Titus Ave", 
            "latitude": 42.434891
          }
        }, 
        {
          "category": "Local business", 
          "name": "Benjamin Franklin Plumbing", 
          "id": "160819917281203", 
          "category_list": [
            {
              "id": "178867352155084", 
              "name": "Plumber"
            }
          ], 
          "location": {
            "city": "Cape Coral", 
            "zip": "33909-3151", 
            "country": "United States", 
            "longitude": -81.954521, 
            "state": "FL", 
            "street": "918 NE 7th Ter Unit 3", 
            "latitude": 26.665675
          }
        }, 
        {
          "category": "Local business", 
          "name": "Benjamin Franklin Plumbing", 
          "id": "161156250573383", 
          "category_list": [
            {
              "id": "192308454131801", 
              "name": "Sewer Service"
            }, 
            {
              "id": "178867352155084", 
              "name": "Plumber"
            }
          ], 
          "location": {
            "city": "San Rafael", 
            "zip": "94901-5367", 
            "country": "United States", 
            "longitude": -122.506142, 
            "state": "CA", 
            "street": "517 Jacoby St", 
            "latitude": 37.954712000000001
          }
        }, 
        {
          "category": "Local business", 
          "name": "Benjamin Franklin Plumbing", 
          "id": "161577907194687", 
          "category_list": [
            {
              "id": "178867352155084", 
              "name": "Plumber"
            }
          ], 
          "location": {
            "city": "Woodstock", 
            "zip": "30188-1671", 
            "country": "United States", 
            "longitude": -84.508842000000001, 
            "state": "GA", 
            "street": "205 Bell Pl", 
            "latitude": 34.120705000000001
          }
        }, 
        {
          "category": "Local business", 
          "name": "Benjamin Franklin Plumbing", 
          "id": "161902397162900", 
          "category_list": [
            {
              "id": "178867352155084", 
              "name": "Plumber"
            }
          ], 
          "location": {
            "city": "Groves", 
            "zip": "77619-4646", 
            "country": "United States", 
            "longitude": -93.919790000000006, 
            "state": "TX", 
            "street": "3944 Main Ave", 
            "latitude": 29.945124
          }
        }, 
        {
          "category": "Local business", 
          "name": "Benjamin Franklin Plumbing", 
          "id": "161924783832317", 
          "category_list": [
            {
              "id": "178867352155084", 
              "name": "Plumber"
            }
          ], 
          "location": {
            "city": "Terre Haute", 
            "zip": "47807-2645", 
            "country": "United States", 
            "longitude": -87.414321000000001, 
            "state": "IN", 
            "street": "514 N 3rd St", 
            "latitude": 39.472946999999998
          }
        }, 
        {
          "category": "Local business", 
          "name": "Benjamin Franklin Plumbing", 
          "id": "162428277117993", 
          "category_list": [
            {
              "id": "178867352155084", 
              "name": "Plumber"
            }
          ], 
          "location": {
            "city": "Derry", 
            "zip": "03038-2404", 
            "country": "United States", 
            "longitude": -71.323566, 
            "state": "NH", 
            "street": "52 E Broadway", 
            "latitude": 42.882921000000003
          }
        }, 
        {
          "category": "Local business", 
          "name": "Benjamin Franklin Plumbing", 
          "id": "162578260426737", 
          "category_list": [
            {
              "id": "193542570664339", 
              "name": "Well Water Drilling Service"
            }, 
            {
              "id": "178867352155084", 
              "name": "Plumber"
            }, 
            {
              "id": "124816677590074", 
              "name": "Contractor"
            }
          ], 
          "location": {
            "city": "North Branch", 
            "zip": "55056-5709", 
            "country": "United States", 
            "longitude": -92.923614999999998, 
            "state": "MN", 
            "street": "36605 Lincoln Trl", 
            "latitude": 45.477767999999998
          }
        }, 
        {
          "category": "Local business", 
          "name": "Benjamin Franklin Plumbing", 
          "id": "163242407026850", 
          "category_list": [
            {
              "id": "192308454131801", 
              "name": "Sewer Service"
            }, 
            {
              "id": "178867352155084", 
              "name": "Plumber"
            }
          ], 
          "location": {
            "city": "Jefferson City", 
            "zip": "65101-2141", 
            "country": "United States", 
            "longitude": -92.215187, 
            "state": "MO", 
            "street": "2912 Southwood Hills Rd", 
            "latitude": 38.531207999999999
          }
        }, 
        {
          "category": "Local business", 
          "name": "Benjamin Franklin Plumbing", 
          "id": "164444266914515", 
          "category_list": [
            {
              "id": "133137800086828", 
              "name": "Septic Tank Service"
            }, 
            {
              "id": "192308454131801", 
              "name": "Sewer Service"
            }, 
            {
              "id": "178867352155084", 
              "name": "Plumber"
            }
          ], 
          "location": {
            "city": "Charlottesville", 
            "zip": "22902-5399", 
            "country": "United States", 
            "longitude": -78.471892999999994, 
            "state": "VA", 
            "street": "1112 E Market St Ste A21", 
            "latitude": 38.028030000000001
          }
        }, 
        {
          "category": "Local business", 
          "name": "Benjamin Franklin Plumbing", 
          "id": "165560410136240", 
          "category_list": [
            {
              "id": "192308454131801", 
              "name": "Sewer Service"
            }, 
            {
              "id": "187133811318958", 
              "name": "Business Services"
            }, 
            {
              "id": "178867352155084", 
              "name": "Plumber"
            }
          ], 
          "location": {
            "city": "Silver Spring", 
            "zip": "20910-1100", 
            "country": "United States", 
            "longitude": -77.054314000000005, 
            "state": "MD", 
            "street": "2600 Forest Glen Rd", 
            "latitude": 39.014473000000002
          }
        }, 
        {
          "category": "Local business", 
          "name": "Benjamin Franklin Plumbing", 
          "id": "165679966777950", 
          "category_list": [
            {
              "id": "178867352155084", 
              "name": "Plumber"
            }
          ], 
          "location": {
            "city": "Columbia", 
            "zip": "29203-2057", 
            "country": "United States", 
            "longitude": -81.061734000000001, 
            "state": "SC", 
            "street": "6807 Monticello Rd", 
            "latitude": 34.073478999999999
          }
        }, 
        {
          "category": "Local business", 
          "name": "Benjamin Franklin Plumbing", 
          "id": "166036796742601", 
          "category_list": [
            {
              "id": "178867352155084", 
              "name": "Plumber"
            }
          ], 
          "location": {
            "city": "Venice", 
            "zip": "34292-1748", 
            "country": "United States", 
            "longitude": -82.376131999999998, 
            "state": "FL", 
            "street": "795 Commerce Dr Ste 14", 
            "latitude": 27.110596999999999
          }
        }, 
        {
          "category": "Local business", 
          "name": "Benjamin Franklin Plumbing", 
          "id": "166087980083435", 
          "category_list": [
            {
              "id": "178867352155084", 
              "name": "Plumber"
            }
          ], 
          "location": {
            "city": "Chesterfield", 
            "zip": "63017-6028", 
            "country": "United States", 
            "longitude": -90.556918999999994, 
            "state": "MO", 
            "street": "900 Roosevelt Pkwy", 
            "latitude": 38.655036000000003
          }
        }, 
        {
          "category": "Local business", 
          "name": "Benjamin Franklin Plumbing", 
          "id": "166401546706048", 
          "category_list": [
            {
              "id": "178867352155084", 
              "name": "Plumber"
            }
          ], 
          "location": {
            "city": "Stacy", 
            "zip": "55079-9272", 
            "country": "United States", 
            "longitude": -92.983296999999993, 
            "state": "MN", 
            "street": "31040 Forest Blvd Ste 100", 
            "latitude": 45.397390999999999
          }
        }, 
        {
          "category": "Local business", 
          "name": "Benjamin Franklin Plumbing", 
          "id": "167159833300439", 
          "category_list": [
            {
              "id": "178867352155084", 
              "name": "Plumber"
            }
          ], 
          "location": {
            "city": "Kelseyville", 
            "zip": "95451-9697", 
            "country": "United States", 
            "longitude": -122.73279599999999, 
            "state": "CA", 
            "street": "9447 Chippewa Trl", 
            "latitude": 38.954231
          }
        }, 
        {
          "category": "Local business", 
          "name": "Benjamin Franklin Plumbing", 
          "id": "167165099967165", 
          "category_list": [
            {
              "id": "178867352155084", 
              "name": "Plumber"
            }
          ], 
          "location": {
            "city": "Lexington", 
            "zip": "40503-2933", 
            "country": "United States", 
            "longitude": -84.528221000000002, 
            "state": "KY", 
            "street": "220 Big Run Rd", 
            "latitude": 37.999068999999999
          }
        }, 
        {
          "category": "Local business", 
          "name": "Benjamin Franklin Plumbing", 
          "id": "167737799907551", 
          "category_list": [
            {
              "id": "178867352155084", 
              "name": "Plumber"
            }
          ], 
          "location": {
            "city": "Clinton", 
            "zip": "29325-7278", 
            "country": "United States", 
            "longitude": -81.875331000000003, 
            "state": "SC", 
            "street": "215 Jacobs Hwy", 
            "latitude": 34.453181000000001
          }
        }, 
        {
          "category": "Local business", 
          "name": "Benjamin Franklin Plumbing", 
          "id": "167855759895543", 
          "category_list": [
            {
              "id": "178867352155084", 
              "name": "Plumber"
            }
          ], 
          "location": {
            "city": "Kansas City", 
            "zip": "64131-2074", 
            "country": "United States", 
            "longitude": -94.57611, 
            "state": "MO", 
            "street": "7748 Troost Ave", 
            "latitude": 38.986238999999998
          }
        }, 
        {
          "category": "Local business", 
          "name": "Benjamin Franklin Plumbing", 
          "id": "167978486551447", 
          "category_list": [
            {
              "id": "178867352155084", 
              "name": "Plumber"
            }
          ], 
          "location": {
            "city": "Charleston", 
            "zip": "25302-2327", 
            "country": "United States", 
            "longitude": -81.641801000000001, 
            "state": "WV", 
            "street": "613 Tennessee Ave", 
            "latitude": 38.360895999999997
          }
        }, 
        {
          "category": "Local business", 
          "name": "Benjamin Franklin Plumbing", 
          "id": "168063943207423", 
          "category_list": [
            {
              "id": "178867352155084", 
              "name": "Plumber"
            }
          ], 
          "location": {
            "city": "Bay Shore", 
            "zip": "11706-5232", 
            "country": "United States", 
            "longitude": -73.239402999999996, 
            "state": "NY", 
            "street": "1404 Ohio Ave", 
            "latitude": 40.746574000000003
          }
        }, 
        {
          "category": "Local business", 
          "name": "Benjamin Franklin Plumbing", 
          "id": "168068356542290", 
          "category_list": [
            {
              "id": "178867352155084", 
              "name": "Plumber"
            }
          ], 
          "location": {
            "city": "Bloomington", 
            "zip": "61701-6756", 
            "country": "United States", 
            "longitude": -88.992797999999993, 
            "state": "IL", 
            "street": "1210 S Main St", 
            "latitude": 40.467799999999997
          }
        }, 
        {
          "category": "Local business", 
          "name": "Benjamin Franklin Plumbing", 
          "id": "168099953206589", 
          "category_list": [
            {
              "id": "178867352155084", 
              "name": "Plumber"
            }
          ], 
          "location": {
            "city": "San Angelo", 
            "zip": "76903-2507", 
            "country": "United States", 
            "longitude": -100.452952, 
            "state": "TX", 
            "street": "2724 N Chadbourne St", 
            "latitude": 31.487468
          }
        }, 
        {
          "category": "Local business", 
          "name": "Benjamin Franklin Plumbing", 
          "id": "168192919860483", 
          "category_list": [
            {
              "id": "199182823425834", 
              "name": "Electrician"
            }, 
            {
              "id": "178867352155084", 
              "name": "Plumber"
            }
          ], 
          "location": {
            "city": "McMinnville", 
            "zip": "37110-1591", 
            "country": "United States", 
            "longitude": -85.752077, 
            "state": "TN", 
            "street": "58 Hillside Ln Ste 1", 
            "latitude": 35.705421999999999
          }
        }, 
        {
          "category": "Local business", 
          "name": "Benjamin Franklin Plumbing", 
          "id": "168316019851830", 
          "category_list": [
            {
              "id": "178867352155084", 
              "name": "Plumber"
            }
          ], 
          "location": {
            "city": "Lady Lake", 
            "zip": "32159-3834", 
            "country": "United States", 
            "longitude": -81.919990999999996, 
            "state": "FL", 
            "street": "121 E Lady Lake Blvd", 
            "latitude": 28.916398999999998
          }
        }, 
        {
          "category": "Local business", 
          "name": "Benjamin Franklin Plumbing", 
          "id": "168369436506522", 
          "category_list": [
            {
              "id": "192308454131801", 
              "name": "Sewer Service"
            }, 
            {
              "id": "178867352155084", 
              "name": "Plumber"
            }
          ], 
          "location": {
            "city": "Homestead", 
            "zip": "15120-2243", 
            "country": "United States", 
            "longitude": -79.889465000000001, 
            "state": "PA", 
            "street": "2100 Whitaker Way", 
            "latitude": 40.402293999999998
          }
        }, 
        {
          "category": "Local business", 
          "name": "Benjamin Franklin Plumbing", 
          "id": "168466919831399", 
          "category_list": [
            {
              "id": "178867352155084", 
              "name": "Plumber"
            }, 
            {
              "id": "193542570664339", 
              "name": "Well Water Drilling Service"
            }, 
            {
              "id": "148906328500868", 
              "name": "Hardware Store"
            }
          ], 
          "location": {
            "city": "Andover", 
            "zip": "06232-1340", 
            "country": "United States", 
            "longitude": -72.356819000000002, 
            "state": "CT", 
            "street": "580 Lake Rd", 
            "latitude": 41.731464000000003
          }
        }, 
        {
          "category": "Local business", 
          "name": "Benjamin Franklin Plumbing", 
          "id": "168544296495535", 
          "category_list": [
            {
              "id": "178867352155084", 
              "name": "Plumber"
            }
          ], 
          "location": {
            "city": "Duncanville", 
            "zip": "75137-3066", 
            "country": "United States", 
            "longitude": -96.923157000000003, 
            "state": "TX", 
            "street": "1019 Explorer St", 
            "latitude": 32.641494999999999
          }
        }, 
        {
          "category": "Local business", 
          "name": "Benjamin Franklin Plumbing", 
          "id": "168822353131917", 
          "category_list": [
            {
              "id": "178867352155084", 
              "name": "Plumber"
            }
          ], 
          "location": {
            "city": "Exeter", 
            "zip": "03833-2402", 
            "country": "United States", 
            "longitude": -70.948516999999995, 
            "state": "NH", 
            "street": "15 Center St", 
            "latitude": 42.980559999999997
          }
        }, 
        {
          "category": "Local business", 
          "name": "Benjamin Franklin Plumbing", 
          "id": "169065076441695", 
          "category_list": [
            {
              "id": "178867352155084", 
              "name": "Plumber"
            }
          ], 
          "location": {
            "city": "Baden", 
            "zip": "15005-2114", 
            "country": "United States", 
            "longitude": -80.226166000000006, 
            "state": "PA", 
            "street": "3742 Duss Ave", 
            "latitude": 40.624290000000002
          }
        }, 
        {
          "category": "Local business", 
          "name": "Benjamin Franklin Plumbing", 
          "id": "170090023049769", 
          "category_list": [
            {
              "id": "178867352155084", 
              "name": "Plumber"
            }
          ], 
          "location": {
            "city": "Loveland", 
            "zip": "80537", 
            "country": "United States", 
            "longitude": -105.046725869, 
            "state": "CO", 
            "street": "", 
            "latitude": 40.396637320499998
          }
        }, 
        {
          "category": "Local business", 
          "name": "Benjamin Franklin Plumbing", 
          "id": "173702106008290", 
          "category_list": [
            {
              "id": "178867352155084", 
              "name": "Plumber"
            }
          ], 
          "location": {
            "city": "Winter Garden", 
            "zip": "34787", 
            "country": "United States", 
            "longitude": -81.571540999999996, 
            "state": "FL", 
            "street": "647 Business Park Blvd", 
            "latitude": 28.557407000000001
          }
        }, 
        {
          "category": "Local business", 
          "name": "Benjamin Franklin Plumbing", 
          "id": "194652450559763", 
          "category_list": [
            {
              "id": "178867352155084", 
              "name": "Plumber"
            }
          ], 
          "location": {
            "city": "Chandler", 
            "zip": "85225", 
            "country": "United States", 
            "longitude": -111.835908379, 
            "state": "AZ", 
            "street": "", 
            "latitude": 33.3340312184
          }
        }, 
        {
          "category": "Home improvement", 
          "name": "Benjamin Franklin Plumbing- Pittsburgh", 
          "id": "139388691964", 
          "category_list": [
            {
              "id": "108427109235243", 
              "name": "Home Improvement"
            }
          ], 
          "location": {
            "city": "Pittsburgh", 
            "zip": "15237", 
            "country": "United States", 
            "longitude": -80.050207999999998, 
            "state": "PA", 
            "street": "451 Rochester Rd", 
            "latitude": 40.534185000000001
          }
        }, 
        {
          "category": "Local business", 
          "name": "Benjamin Franklin Plumbing Laguna Hills", 
          "id": "203564313004848", 
          "category_list": [
            {
              "id": "2500", 
              "name": "Local Business"
            }
          ], 
          "location": {
            "city": "Laguna Hills", 
            "zip": "92653", 
            "country": "United States", 
            "longitude": -117.72528, 
            "state": "CA", 
            "street": "23182 Alcade Suite C", 
            "latitude": 33.622058000000003
          }
        }, 
        {
          "category": "Home improvement", 
          "name": "Benjamin Franklin Plumbing-Bradenton", 
          "id": "571871102849577", 
          "category_list": [
            {
              "id": "108427109235243", 
              "name": "Home Improvement"
            }
          ], 
          "location": {
            "city": "Bradenton", 
            "zip": "34208", 
            "country": "United States", 
            "longitude": -82.537529000000006, 
            "state": "FL", 
            "street": "410 22nd St. E.", 
            "latitude": 27.496638999999998
          }
        }, 
        {
          "category": "Local business", 
          "name": "Benjamin Franklin Plumbing - North Jersey", 
          "id": "133823973347", 
          "category_list": [
            {
              "id": "192308454131801", 
              "name": "Sewer Service"
            }, 
            {
              "id": "178867352155084", 
              "name": "Plumber"
            }
          ], 
          "location": {
            "city": "Pompton Lakes", 
            "zip": "07442", 
            "country": "United States", 
            "longitude": -74.295724000000007, 
            "state": "NJ", 
            "street": "324 Ringwood Ave", 
            "latitude": 41.00882
          }
        }, 
        {
          "category": "Local business", 
          "name": "Benjamin Franklin Plumbing- Reno, NV", 
          "id": "431190823571099", 
          "category_list": [
            {
              "id": "178867352155084", 
              "name": "Plumber"
            }
          ], 
          "location": {
            "city": "Reno", 
            "zip": "89511", 
            "country": "United States", 
            "longitude": -119.767758, 
            "state": "NV", 
            "street": "5401 Longley Lane Ste.12", 
            "latitude": 39.470905000000002
          }
        }, 
        {
          "category": "Home improvement", 
          "name": "Benjamin Franklin Plumbing - New Britain", 
          "id": "164093091050", 
          "category_list": [
            {
              "id": "178867352155084", 
              "name": "Plumber"
            }
          ], 
          "location": {
            "city": "New Britain", 
            "zip": "18901", 
            "country": "United States", 
            "longitude": -75.187271139200007, 
            "state": "PA", 
            "street": "108 B Butler Ave", 
            "latitude": 40.296731148799999
          }
        }, 
        {
          "category": "Professional services", 
          "name": "Benjamin Franklin Plumbing 248", 
          "id": "111253295585920", 
          "category_list": [
            {
              "id": "176831012360626", 
              "name": "Professional Services"
            }
          ], 
          "location": {
            "city": "Salisbury", 
            "zip": "21804", 
            "country": "United States", 
            "longitude": -75.560552000000001, 
            "state": "MD", 
            "street": "2309 East Naylor Mill Road", 
            "latitude": 38.402180999999999
          }
        }, 
        {
          "category": "Professional services", 
          "name": "Benjamin Franklin Plumbing of Durham", 
          "id": "192916040744039", 
          "category_list": [
            {
              "id": "178867352155084", 
              "name": "Plumber"
            }
          ], 
          "location": {
            "city": "Durham", 
            "zip": "27701", 
            "country": "United States", 
            "longitude": -78.901244000000005, 
            "state": "NC", 
            "street": "636 Foster Street, Suite 200", 
            "latitude": 36.002692000000003
          }
        }, 
        {
          "category": "Home improvement", 
          "name": "Benjamin Franklin Plumbing Monterey, CA", 
          "id": "137844856255752", 
          "category_list": [
            {
              "id": "108427109235243", 
              "name": "Home Improvement"
            }
          ], 
          "location": {
            "city": "Sand City", 
            "zip": "93955", 
            "country": "United States", 
            "longitude": -121.852638, 
            "state": "CA", 
            "street": "449 Redwood Avenue", 
            "latitude": 36.612968000000002
          }
        }, 
        {
          "category": "Professional services", 
          "name": "Benjamin Franklin Plumbing of Charlotte", 
          "id": "218558658154915", 
          "category_list": [
            {
              "id": "178867352155084", 
              "name": "Plumber"
            }
          ], 
          "location": {
            "city": "Charlotte", 
            "zip": "28227", 
            "country": "United States", 
            "longitude": -80.728629999999995, 
            "state": "NC", 
            "street": "8635 Crown Crescent Court, Unit 3", 
            "latitude": 35.142223000000001
          }
        }, 
        {
          "category": "Professional services", 
          "name": "Ingram's Benjamin Franklin Plumbing", 
          "id": "125851877438386", 
          "category_list": [
            {
              "id": "176831012360626", 
              "name": "Professional Services"
            }
          ], 
          "location": {
            "city": "Shepherd", 
            "zip": "48883", 
            "country": "United States", 
            "longitude": -84.725014000000002, 
            "state": "MI", 
            "street": "6125 E. Millbrook Rd", 
            "latitude": 43.554039000000003
          }
        }, 
        {
          "category": "Local business", 
          "name": "Benjamin Franklin Plumbing Statesville, NC", 
          "id": "55359342892", 
          "category_list": [
            {
              "id": "178867352155084", 
              "name": "Plumber"
            }
          ], 
          "location": {
            "city": "Statesville", 
            "zip": "28677", 
            "country": "United States", 
            "longitude": -80.885589999999993, 
            "state": "NC", 
            "street": "1410 Shelton Avenue", 
            "latitude": 35.765289000000003
          }
        }, 
        {
          "category": "Home improvement", 
          "name": "Benjamin Franklin Plumbing of Chester County PA", 
          "id": "181793065196146", 
          "category_list": [
            {
              "id": "178867352155084", 
              "name": "Plumber"
            }
          ], 
          "location": {
            "city": "West Grove", 
            "zip": "19390", 
            "country": "United States", 
            "longitude": -75.878922000000003, 
            "state": "PA", 
            "street": "27 Commerce Blvd", 
            "latitude": 39.825969999999998
          }
        }, 
        {
          "category": "Local business", 
          "name": "Benjamin Franklin Plumbing of Freehold", 
          "id": "446968965646", 
          "category_list": [
            {
              "id": "108427109235243", 
              "name": "Home Improvement"
            }
          ], 
          "location": {
            "city": "Freehold", 
            "zip": "07728", 
            "country": "United States", 
            "longitude": -74.226157999999998, 
            "state": "NJ", 
            "street": "919 Highway 33", 
            "latitude": 40.237819999999999
          }
        }, 
        {
          "category": "Home improvement", 
          "name": "Benjamin Franklin Plumbing - Yorkville IL", 
          "id": "360775642783", 
          "category_list": [
            {
              "id": "178867352155084", 
              "name": "Plumber"
            }
          ], 
          "location": {
            "city": "Yorkville", 
            "zip": "60560", 
            "country": "United States", 
            "longitude": -88.443291000000002, 
            "state": "IL", 
            "street": "1203 Deer Street", 
            "latitude": 41.630470000000003
          }
        }, 
        {
          "category": "Local business", 
          "name": "Benjamin Franklin Plumbing West Florida", 
          "id": "130951620277373", 
          "category_list": [
            {
              "id": "178867352155084", 
              "name": "Plumber"
            }
          ], 
          "location": {
            "city": "Tampa", 
            "zip": "33610", 
            "country": "United States", 
            "longitude": -82.394226000000003, 
            "state": "FL", 
            "street": "5808 n.56th st", 
            "latitude": 28.001792999999999
          }
        }, 
        {
          "category": "Professional services", 
          "name": "Benjamin Franklin Plumbing Austin, TX", 
          "id": "165531890168754", 
          "category_list": [
            {
              "id": "178867352155084", 
              "name": "Plumber"
            }
          ], 
          "location": {
            "city": "Austin", 
            "zip": "78729", 
            "country": "United States", 
            "longitude": -97.781549999999996, 
            "state": "TX", 
            "street": "12224 Roxie Drive Suite C2", 
            "latitude": 30.445271000000002
          }
        }, 
        {
          "category": "Local business", 
          "name": "Benjamin Franklin Plumbing Omaha", 
          "id": "157976410899727", 
          "category_list": [
            {
              "id": "178867352155084", 
              "name": "Plumber"
            }
          ], 
          "location": {
            "city": "Omaha", 
            "zip": "68144-3348", 
            "country": "United States", 
            "longitude": -96.137642, 
            "state": "NE", 
            "street": "14302 C Cir", 
            "latitude": 41.222352999999998
          }
        }, 
        {
          "category": "Home improvement", 
          "name": "Benjamin Franklin Plumbing- Folsom, CA", 
          "id": "651744561526482", 
          "category_list": [
            {
              "id": "178867352155084", 
              "name": "Plumber"
            }
          ], 
          "location": {
            "city": "El Dorado Hills", 
            "zip": "95672", 
            "country": "United States", 
            "longitude": -121.070246, 
            "state": "CA", 
            "street": "1037 Suncast Lane Suite 102", 
            "latitude": 38.635415000000002
          }
        }, 
        {
          "category": "Professional services", 
          "name": "Benjamin Franklin Plumbing of Columbus", 
          "id": "109049489182134", 
          "category_list": [
            {
              "id": "178867352155084", 
              "name": "Plumber"
            }
          ], 
          "location": {
            "city": "Grove City", 
            "zip": "43123", 
            "country": "United States", 
            "longitude": -83.081458999999995, 
            "state": "OH", 
            "street": "5890 Pear Tree Way", 
            "latitude": 39.842590000000001
          }
        }, 
        {
          "category": "Home improvement", 
          "name": "Benjamin Franklin Plumbing & One Hour Heating & Air", 
          "id": "132662270248432", 
          "category_list": [
            {
              "id": "108427109235243", 
              "name": "Home Improvement"
            }
          ], 
          "location": {
            "city": "Gering", 
            "zip": "69341", 
            "country": "United States", 
            "longitude": -103.65998399999999, 
            "state": "NE", 
            "street": "1100 10th St.", 
            "latitude": 41.819696
          }
        }, 
        {
          "category": "Local business", 
          "name": "Benjamin Franklin Plumbing, Dillon, CO", 
          "id": "157735730935956", 
          "category_list": [
            {
              "id": "108427109235243", 
              "name": "Home Improvement"
            }
          ], 
          "location": {
            "city": "Dillon", 
            "zip": "80435", 
            "country": "United States", 
            "longitude": -106.04615, 
            "state": "CO", 
            "street": "325 Lake Dillon Drive", 
            "latitude": 39.629292
          }
        }, 
        {
          "category": "Local business", 
          "name": "Benjamin Franklin Plumbing of The Woodlands TX", 
          "id": "176280455773349", 
          "category_list": [
            {
              "id": "178867352155084", 
              "name": "Plumber"
            }
          ], 
          "location": {
            "city": "Houston", 
            "zip": "77092", 
            "country": "United States", 
            "longitude": -95.465913, 
            "state": "TX", 
            "street": "5200 Mitchelldale Dr Ste F-24", 
            "latitude": 29.814509000000001
          }
        }, 
        {
          "category": "Home improvement", 
          "name": "Benjamin Franklin Plumbing of Arlington", 
          "id": "190889780975030", 
          "category_list": [
            {
              "id": "108427109235243", 
              "name": "Home Improvement"
            }
          ], 
          "location": {
            "city": "Arlington", 
            "zip": "76001", 
            "country": "United States", 
            "longitude": -97.166171000000006, 
            "state": "TX", 
            "street": "7501 Highway 287 # B1", 
            "latitude": 32.622889999999998
          }
        }, 
        {
          "category": "Home improvement", 
          "name": "Benjamin Franklin Plumbing - Lincoln", 
          "id": "222341631127864", 
          "category_list": [
            {
              "id": "108427109235243", 
              "name": "Home Improvement"
            }
          ], 
          "location": {
            "city": "Lincoln", 
            "zip": "68504", 
            "country": "United States", 
            "longitude": -96.678055000000001, 
            "state": "NE", 
            "street": "2939 Cornhusker Hwy", 
            "latitude": 40.8414
          }
        }, 
        {
          "category": "Local business", 
          "name": "Benjamin Franklin Plumbing Milford De", 
          "id": "575813852472572", 
          "category_list": [
            {
              "id": "178867352155084", 
              "name": "Plumber"
            }
          ], 
          "location": {
            "city": "Milford", 
            "zip": "19963", 
            "country": "United States", 
            "longitude": -75.430794000000006, 
            "state": "DE", 
            "street": "1571 Bay Road ", 
            "latitude": 38.960709000000001
          }
        }, 
        {
          "category": "Local business", 
          "name": "Benjamin Franklin Plumbing The Punctual Plumber", 
          "id": "105888682811435", 
          "category_list": [
            {
              "id": "178867352155084", 
              "name": "Plumber"
            }
          ], 
          "location": {
            "city": "Richland", 
            "zip": "52585-9512", 
            "country": "United States", 
            "longitude": -91.994848000000005, 
            "state": "IA", 
            "street": "201 N Richland St", 
            "latitude": 41.185701000000002
          }
        }, 
        {
          "category": "Local business", 
          "name": "Benjamin Franklin Plumbing The Punctual Plumber", 
          "id": "109754689088358", 
          "category_list": [
            {
              "id": "178867352155084", 
              "name": "Plumber"
            }
          ], 
          "location": {
            "city": "Irvine", 
            "zip": "92606-1809", 
            "country": "United States", 
            "longitude": -117.786278, 
            "state": "CA", 
            "street": "14112 Chagall Ave", 
            "latitude": 33.711098
          }
        }, 
        {
          "category": "Local business", 
          "name": "Benjamin Franklin Plumbing The Punctual Plumber", 
          "id": "115720318488460", 
          "category_list": [
            {
              "id": "178867352155084", 
              "name": "Plumber"
            }
          ], 
          "location": {
            "city": "Columbus", 
            "zip": "31904-5953", 
            "country": "United States", 
            "longitude": -84.973448000000005, 
            "state": "GA", 
            "street": "4602 Holly Ave", 
            "latitude": 32.507998000000001
          }
        }, 
        {
          "category": "Local business", 
          "name": "Benjamin Franklin Plumbing The Punctual Plumber", 
          "id": "117036305023061", 
          "category_list": [
            {
              "id": "178867352155084", 
              "name": "Plumber"
            }
          ], 
          "location": {
            "city": "Hillsboro", 
            "zip": "97123-8516", 
            "country": "United States", 
            "longitude": -122.92147799999999, 
            "state": "OR", 
            "street": "5976 SE Alexander St Ste C", 
            "latitude": 45.497070000000001
          }
        }, 
        {
          "category": "Local business", 
          "name": "Benjamin Franklin Plumbing The Punctual Plumber", 
          "id": "120908351299885", 
          "category_list": [
            {
              "id": "178867352155084", 
              "name": "Plumber"
            }
          ], 
          "location": {
            "city": "Carrollton", 
            "zip": "75006-3773", 
            "country": "United States", 
            "longitude": -96.914214999999999, 
            "state": "TX", 
            "street": "1911 Old Denton Rd", 
            "latitude": 32.965533999999998
          }
        }, 
        {
          "category": "Local business", 
          "name": "Benjamin Franklin Plumbing The Punctual Plumber", 
          "id": "121312411260219", 
          "category_list": [
            {
              "id": "178867352155084", 
              "name": "Plumber"
            }
          ], 
          "location": {
            "city": "Owings Mills", 
            "zip": "21117-3519", 
            "country": "United States", 
            "longitude": -76.784081, 
            "state": "MD", 
            "street": "10331 S Dolfield Rd", 
            "latitude": 39.414119999999997
          }
        }, 
        {
          "category": "Local business", 
          "name": "Benjamin Franklin Plumbing The Punctual Plumber", 
          "id": "121511707906227", 
          "category_list": [
            {
              "id": "178867352155084", 
              "name": "Plumber"
            }
          ], 
          "location": {
            "city": "Youngtown", 
            "zip": "85363-1028", 
            "country": "United States", 
            "longitude": -112.30265300000001, 
            "state": "AZ", 
            "street": "13246 N 113th Ave Ste 1", 
            "latitude": 33.604058999999999
          }
        }, 
        {
          "category": "Local business", 
          "name": "Benjamin Franklin Plumbing The Punctual Plumber", 
          "id": "124438437610633", 
          "category_list": [
            {
              "id": "178867352155084", 
              "name": "Plumber"
            }
          ], 
          "location": {
            "city": "Madison", 
            "zip": "37115-2427", 
            "country": "United States", 
            "longitude": -86.691192999999998, 
            "state": "TN", 
            "street": "529 Myatt Dr", 
            "latitude": 36.281120000000001
          }
        }, 
        {
          "category": "Local business", 
          "name": "Benjamin Franklin Plumbing The Punctual Plumber", 
          "id": "125739517481938", 
          "category_list": [
            {
              "id": "178867352155084", 
              "name": "Plumber"
            }
          ], 
          "location": {
            "city": "Dayton", 
            "zip": "45415-1389", 
            "country": "United States", 
            "longitude": -84.268066000000005, 
            "state": "OH", 
            "street": "8600 N Main St", 
            "latitude": 39.849415
          }
        }, 
        {
          "category": "Local business", 
          "name": "Benjamin Franklin Plumbing The Punctual Plumber", 
          "id": "137984299583385", 
          "category_list": [
            {
              "id": "178867352155084", 
              "name": "Plumber"
            }
          ], 
          "location": {
            "city": "Port Saint Lucie", 
            "zip": "34984-3434", 
            "country": "United States", 
            "longitude": -80.367489000000006, 
            "state": "FL", 
            "street": "1651 SW South Macedo Blvd", 
            "latitude": 27.291208999999998
          }
        }, 
        {
          "category": "Local business", 
          "name": "Benjamin Franklin Plumbing The Punctual Plumber", 
          "id": "143498792363451", 
          "category_list": [
            {
              "id": "178867352155084", 
              "name": "Plumber"
            }
          ], 
          "location": {
            "city": "Winter Garden", 
            "zip": "34787-5702", 
            "country": "United States", 
            "longitude": -81.571540999999996, 
            "state": "FL", 
            "street": "647 Business Park Blvd", 
            "latitude": 28.557407000000001
          }
        }, 
        {
          "category": "Local business", 
          "name": "Benjamin Franklin Plumbing The Punctual Plumber", 
          "id": "150143541694860", 
          "category_list": [
            {
              "id": "178867352155084", 
              "name": "Plumber"
            }
          ], 
          "location": {
            "city": "Wichita", 
            "zip": "67211-1507", 
            "country": "United States", 
            "longitude": -97.325412999999998, 
            "state": "KS", 
            "street": "227 S Ida St", 
            "latitude": 37.683368000000002
          }
        }, 
        {
          "category": "Local business", 
          "name": "Benjamin Franklin Plumbing The Punctual Plumber", 
          "id": "155227577850997", 
          "category_list": [
            {
              "id": "178867352155084", 
              "name": "Plumber"
            }
          ], 
          "location": {
            "city": "Indianapolis", 
            "zip": "46220", 
            "country": "United States", 
            "longitude": -86.143148999999994, 
            "state": "IN", 
            "street": "888 Main St", 
            "latitude": 39.872219000000001
          }
        }, 
        {
          "category": "Local business", 
          "name": "Benjamin Franklin Plumbing The Punctual Plumber", 
          "id": "158571287506826", 
          "category_list": [
            {
              "id": "178867352155084", 
              "name": "Plumber"
            }
          ], 
          "location": {
            "city": "Austin", 
            "zip": "78729-7144", 
            "country": "United States", 
            "longitude": -97.781549999999996, 
            "state": "TX", 
            "street": "12224 Roxie Dr Ste C2", 
            "latitude": 30.445271000000002
          }
        }, 
        {
          "category": "Local business", 
          "name": "Benjamin Franklin Plumbing The Punctual Plumber", 
          "id": "159110047453680", 
          "category_list": [
            {
              "id": "178867352155084", 
              "name": "Plumber"
            }
          ], 
          "location": {
            "city": "McKinney", 
            "zip": "75070-3863", 
            "country": "United States", 
            "longitude": -96.640534000000002, 
            "state": "TX", 
            "street": "1500 S Central Expy Ste 300", 
            "latitude": 33.187739999999998
          }
        }, 
        {
          "category": "Local business", 
          "name": "Benjamin Franklin Plumbing The Punctual Plumber", 
          "id": "160525683975273", 
          "category_list": [
            {
              "id": "178867352155084", 
              "name": "Plumber"
            }
          ], 
          "location": {
            "city": "Cleveland", 
            "zip": "44134-2138", 
            "country": "United States", 
            "longitude": -81.711067, 
            "state": "OH", 
            "street": "3708 Walter Ave", 
            "latitude": 41.412609000000003
          }
        }, 
        {
          "category": "Local business", 
          "name": "Benjamin Franklin Plumbing The Punctual Plumber", 
          "id": "161440887219191", 
          "category_list": [
            {
              "id": "178867352155084", 
              "name": "Plumber"
            }
          ], 
          "location": {
            "city": "Durham", 
            "zip": "27701-2109", 
            "country": "United States", 
            "longitude": -78.901244000000005, 
            "state": "NC", 
            "street": "636 Foster St", 
            "latitude": 36.002692000000003
          }
        }, 
        {
          "category": "Local business", 
          "name": "Benjamin Franklin Plumbing The Punctual Plumber", 
          "id": "166350823381712", 
          "category_list": [
            {
              "id": "178867352155084", 
              "name": "Plumber"
            }
          ], 
          "location": {
            "city": "Queensbury", 
            "zip": "12804-3202", 
            "country": "United States", 
            "longitude": -73.619697000000002, 
            "state": "NY", 
            "street": "30 Progress Blvd", 
            "latitude": 43.315339000000002
          }
        }, 
        {
          "category": "Local business", 
          "name": "Benjamin Franklin Plumbing The Punctual Plumber", 
          "id": "166724053340812", 
          "category_list": [
            {
              "id": "178867352155084", 
              "name": "Plumber"
            }
          ], 
          "location": {
            "city": "Franklin", 
            "zip": "37064-3915", 
            "country": "United States", 
            "longitude": -86.881111000000004, 
            "state": "TN", 
            "street": "207 Century Ct", 
            "latitude": 35.897579
          }
        }, 
        {
          "category": "Local business", 
          "name": "Benjamin Franklin Plumbing The Punctual Plumber", 
          "id": "167206133292132", 
          "category_list": [
            {
              "id": "178867352155084", 
              "name": "Plumber"
            }
          ], 
          "location": {
            "city": "Minneapolis", 
            "zip": "55411-2730", 
            "country": "United States", 
            "longitude": -93.282454999999999, 
            "state": "MN", 
            "street": "1424 N 3rd St", 
            "latitude": 44.993476000000001
          }
        }, 
        {
          "category": "Home improvement", 
          "name": "Benjamin Franklin Plumbing Lakeport", 
          "id": "196200247173256", 
          "category_list": [
            {
              "id": "108427109235243", 
              "name": "Home Improvement"
            }
          ], 
          "location": {
            "city": "Lakeport", 
            "zip": "95453", 
            "country": "United States", 
            "longitude": -122.91772400000001, 
            "state": "CA", 
            "street": "371 Lakeport Blvd. #336", 
            "latitude": 39.034503000000001
          }
        }, 
        {
          "category": "Local business", 
          "name": "Plumbing Benjamin Franklin", 
          "id": "126096914110379", 
          "category_list": [
            {
              "id": "178867352155084", 
              "name": "Plumber"
            }
          ], 
          "location": {
            "city": "Buffalo", 
            "zip": "14224-4920", 
            "country": "United States", 
            "longitude": -78.725014000000002, 
            "state": "NY", 
            "street": "266 Pinewood Dr", 
            "latitude": 42.833328000000002
          }
        }, 
        {
          "category": "Local business", 
          "name": "Gering Valley Benjamin Franklin Plumbing", 
          "id": "127512693961266", 
          "category_list": [
            {
              "id": "178867352155084", 
              "name": "Plumber"
            }
          ], 
          "location": {
            "city": "Gering", 
            "zip": "69341", 
            "country": "United States", 
            "longitude": -103.65998399999999, 
            "state": "NE", 
            "street": "1100 10th St.", 
            "latitude": 41.819696
          }
        }, 
        {
          "category": "Local business", 
          "name": "Benjamin Franklins Plumbing", 
          "id": "169224383091896", 
          "category_list": [
            {
              "id": "178867352155084", 
              "name": "Plumber"
            }, 
            {
              "id": "132219350176698", 
              "name": "Heating, Ventilating & Air Conditioning"
            }
          ], 
          "location": {
            "city": "Traverse City", 
            "zip": "49684-4498", 
            "country": "United States", 
            "longitude": -85.625365000000002, 
            "state": "MI", 
            "street": "2282 Cass Rd Ste B", 
            "latitude": 44.719267000000002
          }
        }, 
        {
          "category": "Local business", 
          "name": "Benjamin Franklin Certified Plumbing", 
          "id": "160658887290967", 
          "category_list": [
            {
              "id": "178867352155084", 
              "name": "Plumber"
            }
          ], 
          "location": {
            "city": "Culver City", 
            "zip": "90232-2915", 
            "country": "United States", 
            "longitude": -118.386157, 
            "state": "CA", 
            "street": "9405 Jefferson Blvd", 
            "latitude": 34.019306
          }
        }
      ]
    }
  }, 
  {
    "business_name": "Los Reyes de la Torta", 
    "business_id": "-vaGR2CXNS4NZrMdctSkGA", 
    "fb_pages": {
      "paging": {
        "next": "https://graph.facebook.com/search?type=place&access_token=229546593895315|yPLlHqq6YvDLIH4nL0kjJtIFSlU&limit=5000&offset=5000&__after_id=290120087800147"
      }, 
      "data": [
        {
          "category": "Local business", 
          "name": "Los Reyes De La Torta", 
          "id": "120681217947881", 
          "category_list": [
            {
              "id": "2500", 
              "name": "Local Business"
            }
          ], 
          "location": {
            "city": "Phoenix", 
            "zip": "85020-2520", 
            "country": "United States", 
            "longitude": -112.06561623997, 
            "state": "AZ", 
            "street": "9230 N 7th St", 
            "latitude": 33.570848265113
          }
        }, 
        {
          "category": "Local business", 
          "name": "Los Reyes De La Torta", 
          "id": "120995997914099", 
          "category_list": [
            {
              "id": "137420212991446", 
              "name": "Peruvian Restaurant"
            }, 
            {
              "id": "199377230079198", 
              "name": "Mexican Restaurant"
            }
          ], 
          "location": {
            "city": "Phoenix", 
            "zip": "85031-2916", 
            "country": "United States", 
            "longitude": -112.15289757229, 
            "state": "AZ", 
            "street": "4333 W Indian School Rd", 
            "latitude": 33.494549149156001
          }
        }, 
        {
          "category": "Local business", 
          "name": "Los Reyes De La Torta", 
          "id": "128648277327221", 
          "category_list": [
            {
              "id": "199377230079198", 
              "name": "Mexican Restaurant"
            }
          ], 
          "location": {
            "city": "Tempe", 
            "zip": "85282", 
            "country": "United States", 
            "longitude": -111.91368387062001, 
            "state": "AZ", 
            "street": "Southern Ave", 
            "latitude": 33.393264900250998
          }
        }, 
        {
          "category": "Local business", 
          "name": "Los Reyes De La Torta", 
          "id": "290120087800147", 
          "category_list": [
            {
              "id": "165679780146824", 
              "name": "Food & Restaurant"
            }
          ], 
          "location": {
            "city": "Goodyear", 
            "zip": "", 
            "country": "United States", 
            "longitude": -112.3534329, 
            "state": "AZ", 
            "street": "", 
            "latitude": 33.461538330000003
          }
        }
      ]
    }
  }, 
  {
    "business_name": "William S Graves, PC", 
    "business_id": "YQeRBb7MwBONObhgVonk7g", 
    "fb_pages": {
      "data": []
    }
  }, 
  {
    "business_name": "Frank Lloyd Wright Foundation", 
    "business_id": "hkGenf8P-MAEV11XlXD7BQ", 
    "fb_pages": {
      "paging": {
        "next": "https://graph.facebook.com/search?type=place&access_token=229546593895315|yPLlHqq6YvDLIH4nL0kjJtIFSlU&limit=5000&offset=5000&__after_id=113915698638901"
      }, 
      "data": [
        {
          "category": "Non-profit organization", 
          "name": "Frank Lloyd Wright Foundation", 
          "id": "134202183362589", 
          "category_list": [
            {
              "id": "209889829023118", 
              "name": "Landmark"
            }, 
            {
              "id": "187751327923426", 
              "name": "Educational Organization"
            }, 
            {
              "id": "226326230802065", 
              "name": "Charity Organization"
            }
          ], 
          "location": {
            "city": "Scottsdale", 
            "zip": "85259", 
            "country": "United States", 
            "longitude": -111.84599533202, 
            "state": "AZ", 
            "street": "Taliesin West, 12621 N. Frank Lloyd Wright Blvd.", 
            "latitude": 33.607124711245
          }
        }, 
        {
          "category": "Non-profit organization", 
          "name": "Frank Lloyd Wright's Unity Temple Restoration Foundation", 
          "id": "64623616168", 
          "category_list": [
            {
              "id": "197817313562497", 
              "name": "Museum"
            }, 
            {
              "id": "197097220301977", 
              "name": "Historical Place"
            }, 
            {
              "id": "187301137968148", 
              "name": "Performing Arts Education"
            }
          ], 
          "location": {
            "city": "Oak Park", 
            "zip": "60301", 
            "country": "United States", 
            "longitude": -87.796775890692004, 
            "state": "IL", 
            "street": "875 Lake Street", 
            "latitude": 41.888433664708998
          }
        }, 
        {
          "category": "Local business", 
          "name": "Frank Lloyd Wright Foundation", 
          "id": "133737966677355", 
          "category_list": [
            {
              "id": "144835265576678", 
              "name": "Architect"
            }
          ], 
          "location": {
            "city": "Spring Green", 
            "zip": "53588-8922", 
            "country": "United States", 
            "longitude": -90.064678000000001, 
            "state": "WI", 
            "street": "5481 County Road C", 
            "latitude": 43.141297000000002
          }
        }, 
        {
          "category": "Local business", 
          "name": "Frank Lloyd Wright Foundation", 
          "id": "113915698638901", 
          "category_list": [
            {
              "id": "197817313562497", 
              "name": "Museum"
            }
          ], 
          "location": {
            "city": "Baraboo", 
            "zip": "53913-2578", 
            "country": "United States", 
            "longitude": -89.734897000000004, 
            "state": "WI", 
            "street": "550 Water St", 
            "latitude": 43.467199000000001
          }
        }
      ]
    }
  }, 
  {
    "business_name": "AA Barber Shop", 
    "business_id": "31a09a61NbC90FitPO9h5w", 
    "fb_pages": {
      "paging": {
        "next": "https://graph.facebook.com/search?type=place&access_token=229546593895315|yPLlHqq6YvDLIH4nL0kjJtIFSlU&limit=5000&offset=5000&__after_id=375327239208182"
      }, 
      "data": [
        {
          "category": "Spas/beauty/personal care", 
          "name": "A & A Touch of Class Beauty Salon & Barber Shop", 
          "id": "375327239208182", 
          "category_list": [
            {
              "id": "139225689474222", 
              "name": "Spa, Beauty & Personal Care"
            }
          ], 
          "location": {
            "city": "Humble", 
            "zip": "77338", 
            "country": "United States", 
            "longitude": -95.295328999999995, 
            "state": "TX", 
            "street": "8603 Humble Westfeild Rd (off of 59 north)", 
            "latitude": 30.001512999999999
          }
        }
      ]
    }
  }, 
  {
    "business_name": "Novocur", 
    "business_id": "NiPE9djTFF8mE0D-YrWtuw", 
    "fb_pages": {
      "paging": {
        "next": "https://graph.facebook.com/search?type=place&access_token=229546593895315|yPLlHqq6YvDLIH4nL0kjJtIFSlU&limit=5000&offset=5000&__after_id=158046484227450"
      }, 
      "data": [
        {
          "category": "Local business", 
          "name": "Novocur", 
          "id": "106665012774284", 
          "category_list": [
            {
              "id": "2500", 
              "name": "Local Business"
            }
          ], 
          "location": {
            "city": "Scottsdale", 
            "zip": "85262", 
            "country": "United States", 
            "longitude": -111.86561543800001, 
            "state": "AZ", 
            "street": "", 
            "latitude": 33.741616131299999
          }
        }, 
        {
          "category": "Local business", 
          "name": "Novocure", 
          "id": "133329796717119", 
          "category_list": [
            {
              "id": "2500", 
              "name": "Local Business"
            }
          ], 
          "location": {
            "city": "Newton", 
            "zip": "02458-1626", 
            "country": "United States", 
            "longitude": -71.186502000000004, 
            "state": "MA", 
            "street": "313 Washington St", 
            "latitude": 42.357073999999997
          }
        }, 
        {
          "category": "Local business", 
          "name": "Novocure", 
          "id": "133903749995610", 
          "category_list": [
            {
              "id": "2500", 
              "name": "Local Business"
            }
          ], 
          "location": {
            "city": "Pittsburgh", 
            "zip": "15220-3100", 
            "country": "United States", 
            "longitude": -80.045531999999994, 
            "state": "PA", 
            "street": "1016 Greentree Rd", 
            "latitude": 40.416164000000002
          }
        }, 
        {
          "category": "Local business", 
          "name": "Novocure", 
          "id": "158046484227450", 
          "category_list": [
            {
              "id": "2500", 
              "name": "Local Business"
            }
          ], 
          "location": {
            "city": "Chicago", 
            "zip": "60631-4262", 
            "country": "United States", 
            "longitude": -87.819558000000001, 
            "state": "IL", 
            "street": "7720 W Touhy Ave", 
            "latitude": 42.011651999999998
          }
        }
      ]
    }
  }, 
  {
    "business_name": "Romy's BBQ", 
    "business_id": "vJ_mfmsWhFJBVNztbk003g", 
    "fb_pages": {
      "paging": {
        "next": "https://graph.facebook.com/search?type=place&access_token=229546593895315|yPLlHqq6YvDLIH4nL0kjJtIFSlU&limit=5000&offset=5000&__after_id=191029824253887"
      }, 
      "data": [
        {
          "category": "Professional services", 
          "name": "Romy's BBQ", 
          "id": "244846075590800", 
          "category_list": [
            {
              "id": "176831012360626", 
              "name": "Professional Services"
            }
          ], 
          "location": {
            "city": "Newtown", 
            "zip": "06470", 
            "country": "United States", 
            "longitude": -73.272902999999999, 
            "state": "CT", 
            "street": "8 Washbrook Road", 
            "latitude": 41.364620000000002
          }
        }, 
        {
          "category": "Local business", 
          "name": "romi's BBQ!", 
          "id": "102649029828745", 
          "category_list": [
            {
              "id": "150534008338515", 
              "name": "Barbecue Restaurant"
            }
          ], 
          "location": {
            "city": "Ukiah", 
            "zip": "95482", 
            "country": "United States", 
            "longitude": -123.205655396, 
            "state": "CA", 
            "street": "", 
            "latitude": 39.150120058600002
          }
        }, 
        {
          "category": "Local business", 
          "name": "Romies BBQ", 
          "id": "191029824253887", 
          "category_list": [
            {
              "id": "150534008338515", 
              "name": "Barbecue Restaurant"
            }, 
            {
              "id": "176831012360626", 
              "name": "Professional Services"
            }
          ], 
          "location": {
            "city": "Tupelo", 
            "zip": "38804", 
            "country": "United States", 
            "longitude": -88.704793139800003, 
            "state": "MS", 
            "street": "", 
            "latitude": 34.256586269400003
          }
        }
      ]
    }
  }, 
  {
    "business_name": "Spa Avania", 
    "business_id": "ZXRcWs5SUCvSfb8I2aLOnA", 
    "fb_pages": {
      "paging": {
        "next": "https://graph.facebook.com/search?type=place&access_token=229546593895315|yPLlHqq6YvDLIH4nL0kjJtIFSlU&limit=5000&offset=5000&__after_id=106136297586"
      }, 
      "data": [
        {
          "category": "Spas/beauty/personal care", 
          "name": "Spa Avania", 
          "id": "106136297586", 
          "category_list": [
            {
              "id": "139225689474222", 
              "name": "Spa, Beauty & Personal Care"
            }
          ], 
          "location": {
            "city": "Scottsdale", 
            "zip": "85258", 
            "country": "United States", 
            "longitude": -111.91889738064999, 
            "state": "AZ", 
            "street": "7500 E. Doubletree Ranch Road", 
            "latitude": 33.566007776527996
          }
        }
      ]
    }
  }
]