[
  {
    "business_name": "Trampalina Boutique", 
    "business_id": "dr6sBxk1Eig5il2qsA4fGg", 
    "fb_pages": {
      "data": []
    }
  }, 
  {
    "business_name": "APS", 
    "business_id": "P9gLMNOPKI0JnJeuyCr-0g", 
    "fb_pages": {
      "paging": {
        "next": "https://graph.facebook.com/search?type=place&access_token=229546593895315|yPLlHqq6YvDLIH4nL0kjJtIFSlU&limit=5000&offset=5000&__after_id=139677389435956"
      }, 
      "data": [
        {
          "category": "Bar", 
          "name": "APSENDI", 
          "id": "239882110395", 
          "category_list": [
            {
              "id": "110290705711626", 
              "name": "Bar"
            }, 
            {
              "id": "156227661101293", 
              "name": "International Restaurant"
            }, 
            {
              "id": "191478144212980", 
              "name": "Night Club"
            }
          ], 
          "location": {
            "city": "Khal\u00e1ndrion", 
            "zip": "15231", 
            "country": "Greece", 
            "longitude": 23.786257479791999, 
            "state": "", 
            "street": "250-254 Kiffisias av. / opposite Filotheis", 
            "latitude": 38.016542805668998
          }
        }, 
        {
          "category": "Local business", 
          "name": "Taman Apsari", 
          "id": "504148819671219", 
          "category_list": [
            {
              "id": "115090141929327", 
              "name": "Park"
            }, 
            {
              "id": "187224924655149", 
              "name": "Theme Park"
            }
          ], 
          "location": {
            "city": "Surabaya", 
            "zip": "", 
            "country": "Indonesia", 
            "longitude": 112.74293657787, 
            "state": "", 
            "street": "", 
            "latitude": -7.2635852742070002
          }
        }, 
        {
          "category": "Local business", 
          "name": "TagGruppen ApS", 
          "id": "364717023558813", 
          "category_list": [
            {
              "id": "124816677590074", 
              "name": "Contractor"
            }
          ], 
          "location": {
            "city": "S\u00f8borg", 
            "zip": "2860", 
            "country": "Denmark", 
            "longitude": 12.475847712529999, 
            "state": "", 
            "street": "Gladsaxe M\u00f8llevej 21", 
            "latitude": 55.734279996776003
          }
        }, 
        {
          "category": "Computers/technology", 
          "name": "Apshop.vnfan", 
          "id": "1390791767835258", 
          "category_list": [
            {
              "id": "187937741228885", 
              "name": "Electronics Store"
            }
          ], 
          "location": {
            "city": "Ho Chi Minh City", 
            "zip": "08", 
            "country": "Vietnam", 
            "longitude": 106.682, 
            "street": "", 
            "latitude": 10.769399999999999
          }
        }, 
        {
          "category": "Health/medical/pharmaceuticals", 
          "name": "Apsen Farmac\u00eautica", 
          "id": "208749682549139", 
          "category_list": [
            {
              "id": "2243", 
              "name": "Health/Medical/Pharmaceuticals"
            }
          ], 
          "location": {
            "city": "S\u00e3o Paulo", 
            "zip": "04755020", 
            "country": "Brazil", 
            "longitude": -46.7103525518, 
            "state": "", 
            "street": "Rua La Paz, 37/67 - Santo Amaro", 
            "latitude": -23.647801175800002
          }
        }, 
        {
          "category": "Health/beauty", 
          "name": "apshora.com", 
          "id": "1434528640096048", 
          "category_list": [
            {
              "id": "144873802247220", 
              "name": "Cosmetics & Beauty Supply"
            }
          ], 
          "location": {
            "city": "Dhaka", 
            "zip": "1000", 
            "country": "Bangladesh", 
            "longitude": 90.370279312134002, 
            "street": "Nahar Plaza , 37 Biruttam CR Dutta Road, Hatirpool", 
            "latitude": 23.698899708051002
          }
        }, 
        {
          "category": "Local business", 
          "name": "Apson", 
          "id": "180881568625448", 
          "category_list": [
            {
              "id": "188662441155211", 
              "name": "Community & Government"
            }, 
            {
              "id": "115725465228008", 
              "name": "Region"
            }
          ], 
          "location": {
            "city": "Agua Prieta", 
            "zip": "84200", 
            "country": "Mexico", 
            "longitude": -109.54287228624, 
            "state": "", 
            "street": "agua prieta sonora", 
            "latitude": 31.319848376062001
          }
        }, 
        {
          "category": "Food/grocery", 
          "name": "Apsara Bakery", 
          "id": "600558049996570", 
          "category_list": [
            {
              "id": "187827497907070", 
              "name": "Bakery"
            }
          ], 
          "location": {
            "city": "Phnom Penh", 
            "zip": "12000", 
            "country": "Cambodia", 
            "longitude": 104.912256724, 
            "state": "", 
            "street": "#146,148Eo, St 182, Sang kat Boeung Prolit, Khan 7 Makara", 
            "latitude": 11.546895444800001
          }
        }, 
        {
          "category": "Non-profit organization", 
          "name": "APSL Cavalo Lusitano", 
          "id": "155925591233946", 
          "category_list": [
            {
              "id": "2603", 
              "name": "Non-Profit Organization"
            }
          ], 
          "location": {
            "city": "S\u00e3o Jo\u00e3o do Estoril", 
            "zip": "2765-337 Cascais", 
            "country": "Portugal", 
            "longitude": -9.3874927883910999, 
            "state": "", 
            "street": "Av. Mem Ramires n\u00ba 94", 
            "latitude": 38.703919516741998
          }
        }, 
        {
          "category": "Sports/recreation/activities", 
          "name": "Spil ApS", 
          "id": "277694998921274", 
          "category_list": [
            {
              "id": "186982054657561", 
              "name": "Sports & Recreation"
            }
          ], 
          "location": {
            "city": "R\u00f8dovre", 
            "zip": "2610", 
            "country": "Denmark", 
            "longitude": 12.431742814, 
            "state": "", 
            "street": "T\u00f8rringvej 3", 
            "latitude": 55.695270014899997
          }
        }, 
        {
          "category": "Company", 
          "name": "APS GLASS & BAR SUPPLY", 
          "id": "239129706102705", 
          "category_list": [
            {
              "id": "2200", 
              "name": "Company"
            }
          ], 
          "location": {
            "city": "Prague", 
            "zip": "110 00", 
            "country": "Czech Republic", 
            "longitude": 14.418009748599999, 
            "state": "", 
            "street": "Kaprova 14/13 ", 
            "latitude": 50.087820617399998
          }
        }, 
        {
          "category": "Local business", 
          "name": "ipfon ApS", 
          "id": "558706494207029", 
          "category_list": [
            {
              "id": "187133811318958", 
              "name": "Business Services"
            }
          ], 
          "location": {
            "city": "H\u00f8jer", 
            "zip": "6280", 
            "country": "Denmark", 
            "longitude": 8.6565512380078005, 
            "state": "", 
            "street": "Byvej 16", 
            "latitude": 55.025578372058
          }
        }, 
        {
          "category": "Transport/freight", 
          "name": "APS Brokers", 
          "id": "206119232857702", 
          "category_list": [
            {
              "id": "2242", 
              "name": "Transport/Freight"
            }
          ], 
          "location": {
            "city": "Lima", 
            "zip": "", 
            "country": "Peru", 
            "longitude": -77.028300000000002, 
            "state": "", 
            "street": "", 
            "latitude": -12.0433
          }
        }, 
        {
          "category": "Computers/technology", 
          "name": "APS Technology", 
          "id": "285404531515304", 
          "category_list": [
            {
              "id": "108472109230615", 
              "name": "Computer Services"
            }, 
            {
              "id": "193198380699462", 
              "name": "Repair Service"
            }
          ], 
          "location": {
            "city": "Kamayut", 
            "zip": "+95", 
            "country": "Myanmar", 
            "longitude": 96.114400000000003, 
            "state": "", 
            "street": "NO.40(B), 3rd Floor, Yangon-Insein Road, Hledan", 
            "latitude": 16.834399999999999
          }
        }, 
        {
          "category": "Club", 
          "name": "Queens Club ApS", 
          "id": "141813859207602", 
          "category_list": [
            {
              "id": "191478144212980", 
              "name": "Night Club"
            }
          ], 
          "location": {
            "city": "T\u00f8nder", 
            "zip": "6270", 
            "country": "Denmark", 
            "longitude": 8.8696421564660994, 
            "state": "", 
            "street": "Storegade 9", 
            "latitude": 54.935680060323001
          }
        }, 
        {
          "category": "Local business", 
          "name": "Apsara Theatre , Calicut", 
          "id": "278294828849565", 
          "category_list": [
            {
              "id": "192511100766680", 
              "name": "Movie Theatre"
            }
          ], 
          "location": {
            "city": "Kozhikode (Calicut)", 
            "zip": "673001", 
            "country": "India", 
            "longitude": 75.783696048970995, 
            "state": "", 
            "street": "Link Road", 
            "latitude": 11.247080806241
          }
        }, 
        {
          "category": "Telecommunication", 
          "name": "Avita ApS - N\u00e6stved", 
          "id": "140989355957198", 
          "category_list": [
            {
              "id": "197557456921449", 
              "name": "Telemarketing Service"
            }
          ], 
          "location": {
            "city": "N\u00e6stved", 
            "zip": "4700", 
            "country": "Denmark", 
            "longitude": 11.760046942602999, 
            "state": "", 
            "street": "Riddergade 1 A, 2. sal", 
            "latitude": 55.229365677562001
          }
        }, 
        {
          "category": "Local business", 
          "name": "Greenbike Aps", 
          "id": "223007777760663", 
          "category_list": [
            {
              "id": "2500", 
              "name": "Local Business"
            }
          ], 
          "location": {
            "city": "Roskilde", 
            "zip": "4000", 
            "country": "Denmark", 
            "longitude": 12.0833101, 
            "state": "", 
            "street": "Sankt Ols Gade 22 B", 
            "latitude": 55.642860400000004
          }
        }, 
        {
          "category": "School", 
          "name": "APS Askari 14 Official", 
          "id": "613875068652475", 
          "category_list": [
            {
              "id": "365182493518892", 
              "name": "School"
            }
          ], 
          "location": {
            "city": "Rawalpindi", 
            "zip": "46000", 
            "country": "Pakistan", 
            "longitude": 73.061708135700002, 
            "state": "", 
            "street": "", 
            "latitude": 33.568088688800003, 
            "located_in": 139017132943183
          }
        }, 
        {
          "category": "School", 
          "name": "APS Westridge Buddies", 
          "id": "1377790072452478", 
          "category_list": [
            {
              "id": "365182493518892", 
              "name": "School"
            }
          ], 
          "location": {
            "city": "Rawalpindi Cantonment", 
            "zip": "46000", 
            "country": "Pakistan", 
            "longitude": 73.103612807000005, 
            "state": "", 
            "street": "", 
            "latitude": 33.590529442700003
          }
        }, 
        {
          "category": "Local business", 
          "name": "APS Glass & Bar Supply", 
          "id": "366305676518", 
          "category_list": [
            {
              "id": "176831012360626", 
              "name": "Professional Services"
            }, 
            {
              "id": "191334337551378", 
              "name": "Restaurant Wholesale"
            }
          ], 
          "location": {
            "city": "Warsaw", 
            "zip": "00-453", 
            "country": "Poland", 
            "longitude": 21.045832236500001, 
            "state": "", 
            "street": "ul.Czerniakowska 161", 
            "latitude": 52.218131171800003
          }
        }, 
        {
          "category": "Internet/software", 
          "name": "APS Developers", 
          "id": "426661080687551", 
          "category_list": [
            {
              "id": "200154933429705", 
              "name": "Web Development"
            }, 
            {
              "id": "187393124625179", 
              "name": "Web Design"
            }
          ], 
          "location": {
            "city": "New Delhi", 
            "zip": "110005", 
            "country": "India", 
            "longitude": 77.2089, 
            "state": "", 
            "street": "", 
            "latitude": 28.613900000000001
          }
        }, 
        {
          "category": "Bar", 
          "name": "Buddy Holly Hobro ApS", 
          "id": "141181965935137", 
          "category_list": [
            {
              "id": "110290705711626", 
              "name": "Bar"
            }, 
            {
              "id": "191478144212980", 
              "name": "Night Club"
            }
          ], 
          "location": {
            "city": "Hobro", 
            "zip": "9500", 
            "country": "Denmark", 
            "longitude": 9.7932329162137997, 
            "state": "", 
            "street": "Adelgade 26 A", 
            "latitude": 56.638598444437001
          }
        }, 
        {
          "category": "Automotive", 
          "name": "APS - Brackley", 
          "id": "113303602087768", 
          "category_list": [
            {
              "id": "180410821995109", 
              "name": "Automotive"
            }
          ], 
          "location": {
            "city": "Brackley", 
            "zip": "NN137LE", 
            "country": "United Kingdom", 
            "longitude": -1.14173220216, 
            "state": "", 
            "street": "Unit 8 Barrington Court", 
            "latitude": 52.022502699
          }
        }, 
        {
          "category": "Computers/technology", 
          "name": "Provisionmedia ApS", 
          "id": "443472745758717", 
          "category_list": [
            {
              "id": "176831012360626", 
              "name": "Professional Services"
            }
          ], 
          "location": {
            "city": "Odense", 
            "zip": "5000", 
            "country": "Denmark", 
            "longitude": 10.389017181248001, 
            "state": "", 
            "street": "N\u00f8rregade 71, 1 TH", 
            "latitude": 55.400369835825003
          }
        }, 
        {
          "category": "Non-profit organization", 
          "name": "APS Samoa", 
          "id": "280447382096842", 
          "category_list": [
            {
              "id": "2603", 
              "name": "Non-Profit Organization"
            }
          ], 
          "location": {
            "city": "Vailima", 
            "zip": "", 
            "country": "Samoa", 
            "longitude": -171.73298927115999, 
            "street": "Avele", 
            "latitude": -13.86665833538
          }
        }, 
        {
          "category": "Professional services", 
          "name": "Tommytelt Aps", 
          "id": "380588318754125", 
          "category_list": [
            {
              "id": "124402857692349", 
              "name": "Rental Company"
            }
          ], 
          "location": {
            "city": "Tylstrup", 
            "zip": "9382", 
            "country": "Denmark", 
            "longitude": 9.9573586124526994, 
            "state": "", 
            "street": "Bilg\u00e5rdsvej 23", 
            "latitude": 57.196562952542003
          }
        }, 
        {
          "category": "Real estate", 
          "name": "APS Properties", 
          "id": "559487780771160", 
          "category_list": [
            {
              "id": "192625037432720", 
              "name": "Real Estate Service"
            }
          ], 
          "location": {
            "city": "Bangi", 
            "zip": "43650", 
            "country": "Malaysia", 
            "longitude": 101.7723, 
            "state": "", 
            "street": "25-2, Jalan 9/9C, Seksyen 9", 
            "latitude": 2.989255
          }
        }, 
        {
          "category": "Company", 
          "name": "Icanbike ApS", 
          "id": "338325629594343", 
          "category_list": [
            {
              "id": "2200", 
              "name": "Company"
            }
          ], 
          "location": {
            "city": "Middelfart", 
            "zip": "5500", 
            "country": "Denmark", 
            "longitude": 9.7540953666518, 
            "state": "", 
            "street": "Storeb\u00e6ltsv\u00e6nget 26", 
            "latitude": 55.493394248923998
          }
        }, 
        {
          "category": "Lawyer", 
          "name": "APS advocacia.", 
          "id": "707386149272920", 
          "category_list": [
            {
              "id": "189541204423829", 
              "name": "Employment Lawyer"
            }, 
            {
              "id": "198532213496709", 
              "name": "Labor & Employment Law"
            }
          ], 
          "location": {
            "city": "Goi\u00e2nia", 
            "zip": "74005-010", 
            "country": "Brazil", 
            "longitude": -49.298483293061999, 
            "state": "", 
            "street": "Av Goi\u00e1s ", 
            "latitude": -16.605381661633
          }
        }, 
        {
          "category": "Education", 
          "name": "APS Sport", 
          "id": "218410264837996", 
          "category_list": [
            {
              "id": "151676848220295", 
              "name": "Education"
            }
          ], 
          "location": {
            "city": "Malvern", 
            "zip": "3146", 
            "country": "Australia", 
            "longitude": 145.04653509482, 
            "state": "VIC", 
            "street": "APS House, G2 / 774 Toorak Road, Glen Iris Vic", 
            "latitude": -37.845978066424998
          }
        }, 
        {
          "category": "Book store", 
          "name": "APS LibroLab", 
          "id": "451555154958380", 
          "category_list": [
            {
              "id": "1305", 
              "name": "Book Store"
            }
          ], 
          "location": {
            "city": "Bari", 
            "zip": "70125", 
            "country": "Italy", 
            "longitude": 16.883088713441001, 
            "state": "", 
            "street": "", 
            "latitude": 41.094260400000003, 
            "located_in": 159715344148155
          }
        }, 
        {
          "category": "Local business", 
          "name": "StiLia ApS", 
          "id": "136773516365144", 
          "category_list": [
            {
              "id": "2500", 
              "name": "Local Business"
            }
          ], 
          "location": {
            "city": "Odense", 
            "zip": "5000", 
            "country": "Denmark", 
            "longitude": 10.3932643359, 
            "state": "", 
            "street": "Skibhusvej 78", 
            "latitude": 55.4078994662
          }
        }, 
        {
          "category": "Company", 
          "name": "APS Meerut Confessions", 
          "id": "186334248228174", 
          "category_list": [
            {
              "id": "2200", 
              "name": "Company"
            }
          ], 
          "location": {
            "city": "Meerut City", 
            "zip": "250001", 
            "country": "India", 
            "longitude": 77.712800000000001, 
            "state": "", 
            "street": "Aps Meerut, Meerut cantt", 
            "latitude": 28.99259
          }
        }, 
        {
          "category": "Sports/recreation/activities", 
          "name": "APS Universal", 
          "id": "265037983618001", 
          "category_list": [
            {
              "id": "186982054657561", 
              "name": "Sports & Recreation"
            }
          ], 
          "location": {
            "city": "Ciampino", 
            "zip": "00043", 
            "country": "Italy", 
            "longitude": 12.6082815186, 
            "state": "", 
            "street": "VIA PALERMO 2", 
            "latitude": 41.795083386100004
          }
        }, 
        {
          "category": "Local business", 
          "name": "Tordenskiold, Grindsted ApS", 
          "id": "181631695189047", 
          "category_list": [
            {
              "id": "110290705711626", 
              "name": "Bar"
            }
          ], 
          "location": {
            "city": "Grindsted", 
            "zip": "7200", 
            "country": "Denmark", 
            "longitude": 8.9297872866107006, 
            "state": "", 
            "street": "Borgergade 19", 
            "latitude": 55.756629129699
          }
        }, 
        {
          "category": "Local business", 
          "name": "Texas Poolhouse ApS", 
          "id": "176323705731805", 
          "category_list": [
            {
              "id": "197750126917541", 
              "name": "Pool & Billiards"
            }, 
            {
              "id": "110290705711626", 
              "name": "Bar"
            }
          ], 
          "location": {
            "city": "Kolding", 
            "zip": "6000", 
            "country": "Denmark", 
            "longitude": 9.4759811095174005, 
            "state": "", 
            "street": "Jernbanegade 13", 
            "latitude": 55.490290957969002
          }
        }, 
        {
          "category": "Local business", 
          "name": "Club Foam ApS", 
          "id": "172349902805613", 
          "category_list": [
            {
              "id": "218693881483234", 
              "name": "Pub"
            }, 
            {
              "id": "110290705711626", 
              "name": "Bar"
            }, 
            {
              "id": "166419966738430", 
              "name": "DJ"
            }
          ], 
          "location": {
            "city": "Vejle", 
            "zip": "7100", 
            "country": "Denmark", 
            "longitude": 9.5364954427257, 
            "state": "", 
            "street": "D\u00e6mningen 38", 
            "latitude": 55.708215360833002
          }
        }, 
        {
          "category": "Local business", 
          "name": "Kaffesalonen ApS", 
          "id": "116131335123006", 
          "category_list": [
            {
              "id": "197871390225897", 
              "name": "Cafe"
            }, 
            {
              "id": "128673187201735", 
              "name": "Coffee Shop"
            }
          ], 
          "location": {
            "city": "Copenhagen", 
            "zip": "2200", 
            "country": "Denmark", 
            "longitude": 12.562031761349999, 
            "state": "", 
            "street": "Peblinge Dossering 6", 
            "latitude": 55.686295016115999
          }
        }, 
        {
          "category": "Local business", 
          "name": "Hollywood Boulevard ApS", 
          "id": "127697607293577", 
          "category_list": [
            {
              "id": "191478144212980", 
              "name": "Night Club"
            }, 
            {
              "id": "110290705711626", 
              "name": "Bar"
            }, 
            {
              "id": "273819889375819", 
              "name": "Restaurant"
            }
          ], 
          "location": {
            "city": "Aalborg", 
            "zip": "9000", 
            "country": "Denmark", 
            "longitude": 9.9192053922519996, 
            "state": "", 
            "street": "Jomfru Ane Gade 16", 
            "latitude": 57.050561883208999
          }
        }, 
        {
          "category": "Local business", 
          "name": "Pigen og Trompeten Skive ApS", 
          "id": "188627434485899", 
          "category_list": [
            {
              "id": "110290705711626", 
              "name": "Bar"
            }
          ], 
          "location": {
            "city": "Skive", 
            "zip": "7800", 
            "country": "Denmark", 
            "longitude": 9.0332491118736993, 
            "state": "", 
            "street": "Nordbanevej 23", 
            "latitude": 56.568216722088003
          }
        }, 
        {
          "category": "Local business", 
          "name": "Caf\u00e9 Claudio ApS", 
          "id": "180003792027484", 
          "category_list": [
            {
              "id": "197871390225897", 
              "name": "Cafe"
            }
          ], 
          "location": {
            "city": "Hvidovre", 
            "zip": "2650", 
            "country": "Denmark", 
            "longitude": 12.474644840086, 
            "state": "", 
            "street": "Hvidovrevej 137", 
            "latitude": 55.653580126949997
          }
        }, 
        {
          "category": "Shopping/retail", 
          "name": "WaxiLight ApS.", 
          "id": "205619149463421", 
          "category_list": [
            {
              "id": "162264673824073", 
              "name": "Specialty Grocery Store"
            }
          ], 
          "location": {
            "city": "Holstebro", 
            "zip": "7500", 
            "country": "Denmark", 
            "longitude": 8.6079012425299997, 
            "state": "", 
            "street": "Skjernvej 142 G", 
            "latitude": 56.330946888200003
          }
        }, 
        {
          "category": "Restaurant/cafe", 
          "name": "SOUPerbe ApS", 
          "id": "124586514303129", 
          "category_list": [
            {
              "id": "176831012360626", 
              "name": "Professional Services"
            }, 
            {
              "id": "135468489860087", 
              "name": "Soup Restaurant"
            }
          ], 
          "location": {
            "latitude": 55.671181014699997, 
            "street": "", 
            "zip": "", 
            "longitude": 12.5459629296
          }
        }, 
        {
          "category": "Professional services", 
          "name": "AP's Aerial Cinematography & Photography Service", 
          "id": "222078407952218", 
          "category_list": [
            {
              "id": "181475575221097", 
              "name": "Photographer"
            }
          ], 
          "location": {
            "city": "Cary", 
            "zip": "27519", 
            "country": "United States", 
            "longitude": -78.781047999999998, 
            "state": "NC", 
            "street": "205 South Academy Street, Suite 4183", 
            "latitude": 35.786222000000002
          }
        }, 
        {
          "category": "Local business", 
          "name": "Apsara Angkor Hotel And Resort", 
          "id": "192463374130136", 
          "category_list": [
            {
              "id": "164243073639257", 
              "name": "Hotel"
            }, 
            {
              "id": "187686707929197", 
              "name": "Resort"
            }
          ], 
          "location": {
            "city": "Siem Reap", 
            "zip": "", 
            "country": "Cambodia", 
            "longitude": 103.84149054498999, 
            "state": "", 
            "street": "National Route 6, Airport Road", 
            "latitude": 13.372871772710999
          }
        }, 
        {
          "category": "Professional services", 
          "name": "APshop Accesory&Perfomance", 
          "id": "243343525781970", 
          "category_list": [
            {
              "id": "176831012360626", 
              "name": "Professional Services"
            }
          ], 
          "location": {
            "city": "Bangkok", 
            "zip": "10230", 
            "country": "Thailand", 
            "longitude": 100.59834865952, 
            "state": "", 
            "street": "17/696 \u0e2b\u0e21\u0e39\u0e4811 \u0e42\u0e04\u0e23\u0e07\u0e01\u0e32\u0e23 \u0e40\u0e2a\u0e19\u0e32\u0e41\u0e25\u0e19\u0e14\u0e4c \u0e25\u0e32\u0e14\u0e1e\u0e23\u0e49\u0e32\u0e27", 
            "latitude": 13.831815372196999
          }
        }, 
        {
          "category": "Shopping/retail", 
          "name": "Webhallen Danmark Aps", 
          "id": "491697384247981", 
          "category_list": [
            {
              "id": "187937741228885", 
              "name": "Electronics Store"
            }
          ], 
          "location": {
            "city": "Copenhagen", 
            "zip": "1456", 
            "country": "Denmark", 
            "longitude": 12.571202057500001, 
            "state": "", 
            "street": "Vestergade 6", 
            "latitude": 55.678054849299997
          }
        }, 
        {
          "category": "Company", 
          "name": "P. Clausens Fiskehandel ApS", 
          "id": "310467795715986", 
          "category_list": [
            {
              "id": "2200", 
              "name": "Company"
            }
          ], 
          "location": {
            "city": "Aarhus", 
            "zip": "8000", 
            "country": "Denmark", 
            "longitude": 10.2186969884, 
            "state": "", 
            "street": "Fiskerivej 4A", 
            "latitude": 56.164736170600001
          }
        }, 
        {
          "category": "Local business", 
          "name": "Kahytten Svendborg ApS", 
          "id": "179212205431902", 
          "category_list": [
            {
              "id": "110290705711626", 
              "name": "Bar"
            }
          ], 
          "location": {
            "city": "Svendborg", 
            "zip": "5700", 
            "country": "Denmark", 
            "longitude": 10.612786626847001, 
            "state": "", 
            "street": "Frederiksgade 15", 
            "latitude": 55.059078112597
          }
        }, 
        {
          "category": "Company", 
          "name": "Malerfirmaet Tendens ApS", 
          "id": "482673281806740", 
          "category_list": [
            {
              "id": "2200", 
              "name": "Company"
            }
          ], 
          "location": {
            "city": "Eg\u00e5", 
            "zip": "8250", 
            "country": "Denmark", 
            "longitude": 10.264829440151001, 
            "state": "", 
            "street": "Kringelled 6", 
            "latitude": 56.213327072871003
          }
        }, 
        {
          "category": "Local business", 
          "name": "Pasha Kebab ApS", 
          "id": "184205588257337", 
          "category_list": [
            {
              "id": "192803624072087", 
              "name": "Fast Food Restaurant"
            }, 
            {
              "id": "180256082015845", 
              "name": "Pizza Place"
            }, 
            {
              "id": "167885889930008", 
              "name": "Middle Eastern Restaurant"
            }
          ], 
          "location": {
            "city": "K\u00f8benhavn", 
            "zip": "1674", 
            "country": "Denmark", 
            "longitude": 12.544414875484, 
            "state": "", 
            "street": "Enghavevej 57", 
            "latitude": 55.667755302220002
          }
        }, 
        {
          "category": "School", 
          "name": "Apsacs Confessions & Vines", 
          "id": "658798054165371", 
          "category_list": [
            {
              "id": "365182493518892", 
              "name": "School"
            }
          ], 
          "location": {
            "city": "Rahimyar Khan", 
            "zip": "", 
            "country": "Pakistan", 
            "longitude": 70.299999999999997, 
            "state": "", 
            "street": "", 
            "latitude": 28.416699999999999
          }
        }, 
        {
          "category": "Automobiles and parts", 
          "name": "APS SERVICE CENTRE FRANKSTON", 
          "id": "251043408669", 
          "category_list": [
            {
              "id": "186712678028215", 
              "name": "Automotive Customizing"
            }
          ], 
          "location": {
            "city": "Frankston", 
            "zip": "3199", 
            "country": "Australia", 
            "longitude": 145.12816951299999, 
            "state": "VIC", 
            "street": "33 New street", 
            "latitude": -38.130576813099999
          }
        }, 
        {
          "category": "Travel/leisure", 
          "name": "Check Point Travel ApS", 
          "id": "178867878807894", 
          "category_list": [
            {
              "id": "162914327091136", 
              "name": "Travel Agency"
            }
          ], 
          "location": {
            "city": "\u00c5byh\u00f8j", 
            "zip": "8230", 
            "country": "Denmark", 
            "longitude": 10.174899261593, 
            "state": "", 
            "street": "S\u00f8ren Frichs Vej 42 M", 
            "latitude": 56.153055027252002
          }
        }, 
        {
          "category": "Local business", 
          "name": "APS Electric Light Parade", 
          "id": "145641785484535", 
          "category_list": [
            {
              "id": "192119584190796", 
              "name": "Event"
            }, 
            {
              "id": "199182823425834", 
              "name": "Electrician"
            }
          ], 
          "location": {
            "city": "Phoenix", 
            "zip": "85012", 
            "country": "United States", 
            "longitude": -112.06511858515, 
            "state": "AZ", 
            "street": "", 
            "latitude": 33.505390750970001
          }
        }, 
        {
          "category": "Engineering/construction", 
          "name": "Weiss Machines ApS", 
          "id": "223369127814656", 
          "category_list": [
            {
              "id": "400062273344681", 
              "name": "Engineering Service"
            }
          ], 
          "location": {
            "city": "Vejle", 
            "zip": "7100", 
            "country": "Denmark", 
            "longitude": 9.5048251957600005, 
            "state": "", 
            "street": "Koldingvej 446", 
            "latitude": 55.655418153233001
          }
        }, 
        {
          "category": "Company", 
          "name": "Isabella Smith ApS", 
          "id": "226730187354548", 
          "category_list": [
            {
              "id": "2200", 
              "name": "Company"
            }
          ], 
          "location": {
            "city": "Haslev", 
            "zip": "4690", 
            "country": "Denmark", 
            "longitude": 11.947269540000001, 
            "state": "", 
            "street": "Hesede Hovedg\u00e5rd 3", 
            "latitude": 55.2833539648
          }
        }, 
        {
          "category": "Local business", 
          "name": "APS Four Corners Power Plant", 
          "id": "239952729396956", 
          "category_list": [
            {
              "id": "2500", 
              "name": "Local Business"
            }
          ], 
          "location": {
            "city": "Nenahnezad", 
            "zip": "87421", 
            "country": "United States", 
            "longitude": -108.48459538231, 
            "state": "NM", 
            "street": "", 
            "latitude": 36.686761989959003
          }
        }, 
        {
          "category": "Computers/technology", 
          "name": "Copenhagen Creators ApS", 
          "id": "130944923743436", 
          "category_list": [
            {
              "id": "2255", 
              "name": "Computers/Technology"
            }
          ], 
          "location": {
            "city": "Copenhagen", 
            "zip": "2200", 
            "country": "Denmark", 
            "longitude": 12.5616011169, 
            "state": "", 
            "street": "Ravnsborg Tv\u00e6rgade 1B, 4. sal", 
            "latitude": 55.688132012399997
          }
        }, 
        {
          "category": "Local business", 
          "name": "MDC DATA Greenland ApS", 
          "id": "221654334666676", 
          "category_list": [
            {
              "id": "210979565595898", 
              "name": "Mobile Phone Shop"
            }, 
            {
              "id": "199512783398620", 
              "name": "Computer Store"
            }
          ], 
          "location": {
            "city": "Nuuk", 
            "zip": "3900", 
            "country": "Greenland", 
            "longitude": -51.75, 
            "state": "", 
            "street": "Imaneq 1", 
            "latitude": 64.183300000000003
          }
        }, 
        {
          "category": "Local business", 
          "name": "Bjarne's P\u00f8lser ApS", 
          "id": "122093187858006", 
          "category_list": [
            {
              "id": "207101895984270", 
              "name": "Hot Dog Stand"
            }, 
            {
              "id": "110290705711626", 
              "name": "Bar"
            }, 
            {
              "id": "167954166588517", 
              "name": "Diner"
            }
          ], 
          "location": {
            "city": "Ballerup", 
            "zip": "2750", 
            "country": "Denmark", 
            "longitude": 12.363115102541, 
            "state": "", 
            "street": "Hold-An Vej 3", 
            "latitude": 55.734650816615002
          }
        }, 
        {
          "category": "Retail and consumer merchandise", 
          "name": "Brand Collection Aps", 
          "id": "445802365537171", 
          "category_list": [
            {
              "id": "186230924744328", 
              "name": "Clothing Store"
            }
          ], 
          "location": {
            "city": "Aalborg", 
            "zip": "9000", 
            "country": "Denmark", 
            "longitude": 9.9167994169673008, 
            "state": "", 
            "street": "Prinsensgade 14-16 ", 
            "latitude": 57.044243358720998
          }
        }, 
        {
          "category": "Restaurant/cafe", 
          "name": "Tortilla Flats ApS", 
          "id": "183361991689972", 
          "category_list": [
            {
              "id": "199377230079198", 
              "name": "Mexican Restaurant"
            }
          ], 
          "location": {
            "city": "Vejle", 
            "zip": "7100", 
            "country": "Denmark", 
            "longitude": 9.5359780727608001, 
            "state": "", 
            "street": "D\u00e6mningen 44", 
            "latitude": 55.708372402397003
          }
        }, 
        {
          "category": "Travel/leisure", 
          "name": "Enjoy Skitours ApS", 
          "id": "509018909108273", 
          "category_list": [
            {
              "id": "128232937246338", 
              "name": "Travel & Transportation"
            }
          ], 
          "location": {
            "city": "K\u00f8benhavn", 
            "zip": "2300", 
            "country": "Denmark", 
            "longitude": 12.612788737420001, 
            "state": "", 
            "street": "Rum\u00e6niensgade 14", 
            "latitude": 55.659637559933003
          }
        }, 
        {
          "category": "Outdoor gear/sporting goods", 
          "name": "APS - Annapolis Performance Sailing", 
          "id": "90821312819", 
          "category_list": [
            {
              "id": "2231", 
              "name": "Outdoor Gear/Sporting Goods"
            }
          ], 
          "location": {
            "city": "Annapolis", 
            "zip": "21403", 
            "country": "United States", 
            "longitude": -76.479416000000001, 
            "state": "MD", 
            "street": "104 Severn Avenue", 
            "latitude": 38.973678
          }
        }, 
        {
          "category": "Automotive", 
          "name": "APS \u5175\u5de5\u5ee0\u5305\u819c\u5de5\u4f5c\u5ba4", 
          "id": "370063179787623", 
          "category_list": [
            {
              "id": "186712678028215", 
              "name": "Automotive Customizing"
            }
          ], 
          "location": {
            "city": "Changhua", 
            "zip": "", 
            "country": "Taiwan", 
            "longitude": 120.54300000000001, 
            "state": "", 
            "street": "\u5f70\u5316\u7e23\u82b1\u58c7\u9109\u91d1\u58a9\u6751\u4e2d\u5c71\u8def\u4e00\u6bb5203\u865f", 
            "latitude": 24.079999999999998
          }
        }, 
        {
          "category": "Aerospace/defense", 
          "name": "Inuk Media Aps", 
          "id": "352096448246056", 
          "category_list": [
            {
              "id": "2244", 
              "name": "Aerospace/Defense"
            }
          ], 
          "location": {
            "city": "Nuuk", 
            "zip": "3900 Nuuk", 
            "country": "Greenland", 
            "longitude": -51.75, 
            "state": "", 
            "street": "Innannguaq 40", 
            "latitude": 64.183300000000003
          }
        }, 
        {
          "category": "Food/grocery", 
          "name": "Bodenhoffs Bageri Aps", 
          "id": "161137650734643", 
          "category_list": [
            {
              "id": "187827497907070", 
              "name": "Bakery"
            }, 
            {
              "id": "197871390225897", 
              "name": "Cafe"
            }
          ], 
          "location": {
            "latitude": 55.681859001699998, 
            "street": "www.bodenhoffs.dk", 
            "zip": "", 
            "longitude": 12.5107656954
          }
        }, 
        {
          "category": "Local business", 
          "name": "Kafe Kapers ApS", 
          "id": "187105457971536", 
          "category_list": [
            {
              "id": "197871390225897", 
              "name": "Cafe"
            }
          ], 
          "location": {
            "city": "Copenhagen", 
            "zip": "2100 K\u00f8benhavn \u00d8", 
            "country": "Denmark", 
            "longitude": 12.576911862929, 
            "state": "", 
            "street": "Gunnar Nu Hansens Plads 2", 
            "latitude": 55.705016817008001
          }
        }, 
        {
          "category": "Non-profit organization", 
          "name": "A.P.S. \"Fondazione Taras 706 a.C.\"", 
          "id": "426054204088322", 
          "category_list": [
            {
              "id": "186982054657561", 
              "name": "Sports & Recreation"
            }
          ], 
          "location": {
            "city": "Taranto", 
            "zip": "74123", 
            "country": "Italy", 
            "longitude": 17.259551057700001, 
            "state": "", 
            "street": "Via Principe Amedeo, 32", 
            "latitude": 40.458017693000002
          }
        }, 
        {
          "category": "Retail and consumer merchandise", 
          "name": "Miss Etoile Aps", 
          "id": "261357864000721", 
          "category_list": [
            {
              "id": "2239", 
              "name": "Retail and Consumer Merchandise"
            }
          ], 
          "location": {
            "city": "K\u00f8benhavn", 
            "zip": "1560", 
            "country": "Denmark", 
            "longitude": 12.559089760699999, 
            "state": "", 
            "street": "Kalvebod Brygge 59", 
            "latitude": 55.661244674800002
          }
        }, 
        {
          "category": "Company", 
          "name": "BHC Anl\u00e6g & Milj\u00f8 Aps", 
          "id": "350823345059276", 
          "category_list": [
            {
              "id": "124816677590074", 
              "name": "Contractor"
            }
          ], 
          "location": {
            "city": "S\u00f8nderborg", 
            "zip": "6400", 
            "country": "Denmark", 
            "longitude": 9.8644263647858992, 
            "state": "", 
            "street": "Foldager 5", 
            "latitude": 54.93257138717
          }
        }, 
        {
          "category": "Automotive", 
          "name": "Martins Biler Aps", 
          "id": "521735631258471", 
          "category_list": [
            {
              "id": "2509", 
              "name": "Automotive"
            }
          ], 
          "location": {
            "city": "Pandrup", 
            "zip": "9490", 
            "country": "Denmark", 
            "longitude": 9.6775272511357002, 
            "state": "", 
            "street": "G\u00f8rtlervej 6", 
            "latitude": 57.212575431482001
          }
        }, 
        {
          "category": "Local business", 
          "name": "Blue Hors Aps", 
          "id": "230717066993100", 
          "category_list": [
            {
              "id": "2500", 
              "name": "Local Business"
            }
          ], 
          "location": {
            "city": "Randb\u00f8ldal", 
            "zip": "7183", 
            "country": "Denmark", 
            "longitude": 9.3001480811599997, 
            "state": "", 
            "street": "T\u00f8rskindvej 70", 
            "latitude": 55.674190653899998
          }
        }, 
        {
          "category": "Local business", 
          "name": "Restaurant Flammen ApS", 
          "id": "167700853271651", 
          "category_list": [
            {
              "id": "176007949109829", 
              "name": "Buffet Restaurant"
            }, 
            {
              "id": "198367566846946", 
              "name": "Steakhouse"
            }
          ], 
          "location": {
            "city": "Kolding", 
            "zip": "6000", 
            "country": "Denmark", 
            "longitude": 9.4700186914275992, 
            "state": "", 
            "street": "Haderslevvej 145", 
            "latitude": 55.475101239407003
          }
        }, 
        {
          "category": "Small business", 
          "name": "Esbjerg Scooter Service ApS", 
          "id": "414330108697221", 
          "category_list": [
            {
              "id": "193198380699462", 
              "name": "Repair Service"
            }
          ], 
          "location": {
            "city": "Esbjerg", 
            "zip": "6710", 
            "country": "Denmark", 
            "longitude": 8.4121123887699998, 
            "state": "", 
            "street": "Brol\u00e6ggervej 8", 
            "latitude": 55.508285975100002
          }
        }, 
        {
          "category": "Company", 
          "name": "K\u00f8rvel Byg Aps", 
          "id": "1434896293390886", 
          "category_list": [
            {
              "id": "2200", 
              "name": "Company"
            }
          ], 
          "location": {
            "city": "Esbjerg", 
            "zip": "6700", 
            "country": "Denmark", 
            "longitude": 8.4593314744103001, 
            "state": "", 
            "street": "Baldursgade 86", 
            "latitude": 55.485142524080999
          }
        }, 
        {
          "category": "Community organization", 
          "name": "APS Pithoragarh Confessions", 
          "id": "121561938033641", 
          "category_list": [
            {
              "id": "152880021441864", 
              "name": "Community Organization"
            }
          ], 
          "location": {
            "latitude": 29.579941067509001, 
            "street": "", 
            "zip": "", 
            "longitude": 80.214382571410994
          }
        }, 
        {
          "category": "Automobiles and parts", 
          "name": "Autohuset Valby ApS", 
          "id": "572724419420490", 
          "category_list": [
            {
              "id": "2240", 
              "name": "Automobiles and Parts"
            }
          ], 
          "location": {
            "city": "Valby", 
            "zip": "2500", 
            "country": "Denmark", 
            "longitude": 12.5316262452, 
            "state": "", 
            "street": "Gammel k\u00f8ge landevej 80", 
            "latitude": 55.714866172900003
          }
        }, 
        {
          "category": "Restaurant/cafe", 
          "name": "D Sushi APS", 
          "id": "225063820940118", 
          "category_list": [
            {
              "id": "273819889375819", 
              "name": "Restaurant"
            }
          ], 
          "location": {
            "city": "Vejle", 
            "zip": "7100", 
            "country": "Denmark", 
            "longitude": 9.5339542771994008, 
            "state": "", 
            "street": "Foldegade 31", 
            "latitude": 55.705913893919998
          }
        }, 
        {
          "category": "Non-profit organization", 
          "name": "Oscar Romero APS", 
          "id": "130973943741726", 
          "category_list": [
            {
              "id": "2603", 
              "name": "Non-Profit Organization"
            }
          ], 
          "location": {
            "city": "Cagliari", 
            "zip": "09100", 
            "country": "Italy", 
            "longitude": 9.1201358233829009, 
            "state": "", 
            "street": "via Einaudi 26", 
            "latitude": 39.216813139612
          }
        }, 
        {
          "category": "Automotive", 
          "name": "HLT Service ApS", 
          "id": "418011878264062", 
          "category_list": [
            {
              "id": "188462984509706", 
              "name": "Auto Body Shop"
            }, 
            {
              "id": "149998721725634", 
              "name": "Automotive Repair"
            }
          ], 
          "location": {
            "city": "Aabenraa", 
            "zip": "6200", 
            "country": "Denmark", 
            "longitude": 9.4258425326600008, 
            "state": "", 
            "street": "Kathale 36", 
            "latitude": 55.047551325900002
          }
        }, 
        {
          "category": "Local business", 
          "name": "Fast Eddies Poolhall ApS", 
          "id": "169121946458098", 
          "category_list": [
            {
              "id": "197750126917541", 
              "name": "Pool & Billiards"
            }, 
            {
              "id": "218693881483234", 
              "name": "Pub"
            }
          ], 
          "location": {
            "city": "Aalborg", 
            "zip": "9000", 
            "country": "Denmark", 
            "longitude": 9.9213985845555008, 
            "state": "", 
            "street": "Maren Turis Gade 9", 
            "latitude": 57.050255627105003
          }
        }, 
        {
          "category": "Local business", 
          "name": "Mega Bowl, Holb\u00e6k 2007 ApS", 
          "id": "121913777875492", 
          "category_list": [
            {
              "id": "182582091788254", 
              "name": "Bowling Alley"
            }
          ], 
          "location": {
            "city": "Holb\u00e6k", 
            "zip": "4300", 
            "country": "Denmark", 
            "longitude": 11.726370469525, 
            "state": "", 
            "street": "Mellemvang 5", 
            "latitude": 55.701074453529998
          }
        }, 
        {
          "category": "Non-profit organization", 
          "name": "Suono 3D Studio APS", 
          "id": "477611648936712", 
          "category_list": [
            {
              "id": "2603", 
              "name": "Non-Profit Organization"
            }
          ], 
          "location": {
            "city": "Latina", 
            "zip": "04100", 
            "country": "Italy", 
            "longitude": 12.896317087690001, 
            "state": "", 
            "street": "Via Calatafimi 46", 
            "latitude": 41.463195077321998
          }
        }, 
        {
          "category": "Automobiles and parts", 
          "name": "Prestige Bilpleje & Solfilm Aps.", 
          "id": "1382258475329942", 
          "category_list": [
            {
              "id": "176831012360626", 
              "name": "Professional Services"
            }
          ], 
          "location": {
            "city": "Aalborg", 
            "zip": "9000", 
            "country": "Denmark", 
            "longitude": 9.8987202861399997, 
            "state": "", 
            "street": "H\u00e5ndv\u00e6rkervej 11", 
            "latitude": 57.016627750200001
          }
        }, 
        {
          "category": "Company", 
          "name": "Decamin Trading Aps", 
          "id": "462004170579779", 
          "category_list": [
            {
              "id": "145118935550090", 
              "name": "Medical & Health"
            }
          ], 
          "location": {
            "city": "St\u00f8vring", 
            "zip": "9530", 
            "country": "Denmark", 
            "longitude": 9.8380552148398994, 
            "state": "", 
            "street": "\u00d8stre All\u00e9 6", 
            "latitude": 56.880115863474003
          }
        }, 
        {
          "category": "Company", 
          "name": "BYG 10 Gruppen Aps", 
          "id": "167596766774277", 
          "category_list": [
            {
              "id": "124816677590074", 
              "name": "Contractor"
            }
          ], 
          "location": {
            "city": "Odense", 
            "zip": "5200", 
            "country": "Denmark", 
            "longitude": 10.352034817199, 
            "state": "", 
            "street": "Middelfartvej 80", 
            "latitude": 55.393877445801003
          }
        }, 
        {
          "category": "Shopping/retail", 
          "name": "Slagter Jacob Aps", 
          "id": "416278105149043", 
          "category_list": [
            {
              "id": "182190828486727", 
              "name": "Meat Shop"
            }
          ], 
          "location": {
            "city": "Kalundborg", 
            "zip": "4400", 
            "country": "Denmark", 
            "longitude": 11.0884454749, 
            "state": "", 
            "street": "Kordilgade 10", 
            "latitude": 55.680333853999997
          }
        }, 
        {
          "category": "Automotive", 
          "name": "Kim Alminde Automobiler Aps", 
          "id": "330637363742408", 
          "category_list": [
            {
              "id": "131962450204676", 
              "name": "Car Dealership"
            }
          ], 
          "location": {
            "city": "Hedensted", 
            "zip": "8722", 
            "country": "Denmark", 
            "longitude": 9.7264664713400002, 
            "state": "", 
            "street": "Ndr Fabriksvej 8", 
            "latitude": 55.7824409288
          }
        }, 
        {
          "category": "Non-profit organization", 
          "name": "APS Foundation of America, Inc.", 
          "id": "41248276562", 
          "category_list": [
            {
              "id": "226326230802065", 
              "name": "Charity Organization"
            }, 
            {
              "id": "180931928610132", 
              "name": "Medical Research"
            }, 
            {
              "id": "134091706658568", 
              "name": "Health Agency"
            }
          ], 
          "location": {
            "city": "La Crosse", 
            "zip": "54602-0801", 
            "country": "United States", 
            "longitude": -91.249499999999998, 
            "state": "WI", 
            "street": "Post Office Box 801", 
            "latitude": 43.813099999999999
          }
        }, 
        {
          "category": "Shopping/retail", 
          "name": "Funny Shop Modet\u00f8j ApS", 
          "id": "200328470076381", 
          "category_list": [
            {
              "id": "200600219953504", 
              "name": "Shopping & Retail"
            }
          ], 
          "location": {
            "city": "Brabrand", 
            "zip": "8820", 
            "country": "Denmark", 
            "longitude": 10.144005529583, 
            "state": "", 
            "street": "Gudrunsvej 7, City Vest ", 
            "latitude": 56.152976620941999
          }
        }, 
        {
          "category": "Home improvement", 
          "name": "House of Persia aps", 
          "id": "511072108915764", 
          "category_list": [
            {
              "id": "197289820310880", 
              "name": "Home"
            }
          ], 
          "location": {
            "city": "Aarhus", 
            "zip": "8000", 
            "country": "Denmark", 
            "longitude": 10.194572693841, 
            "state": "", 
            "street": "margrethepladsen 3", 
            "latitude": 56.152117620318997
          }
        }, 
        {
          "category": "Local business", 
          "name": "Ap's Night Club 1711 S. Central Ave.", 
          "id": "294506084021848", 
          "category_list": [
            {
              "id": "354275401259620", 
              "name": "Nightlife"
            }
          ], 
          "location": {
            "city": "Phoenix", 
            "zip": "85004", 
            "country": "United States", 
            "longitude": -112.118877447, 
            "state": "AZ", 
            "street": "Central Ave", 
            "latitude": 33.591136247900003
          }
        }, 
        {
          "category": "Engineering/construction", 
          "name": "LSC Isopartner Aps", 
          "id": "152084461637615", 
          "category_list": [
            {
              "id": "2251", 
              "name": "Engineering/Construction"
            }
          ], 
          "location": {
            "city": "Horsens", 
            "zip": "8700", 
            "country": "Denmark", 
            "longitude": 9.8429234577254991, 
            "state": "", 
            "street": "Cikorievej 30", 
            "latitude": 55.832126716946
          }
        }, 
        {
          "category": "Shopping/retail", 
          "name": "Borgstr\u00f8m Vinhandel Aps", 
          "id": "398265893607986", 
          "category_list": [
            {
              "id": "162264673824073", 
              "name": "Specialty Grocery Store"
            }
          ], 
          "location": {
            "city": "Greve Strand", 
            "zip": "2670", 
            "country": "Denmark", 
            "longitude": 12.293971881799999, 
            "state": "", 
            "street": "Centerholmen 8 A", 
            "latitude": 55.581662098000002
          }
        }, 
        {
          "category": "Sports/recreation/activities", 
          "name": "Ritter Cykler APS", 
          "id": "506714576090999", 
          "category_list": [
            {
              "id": "186982054657561", 
              "name": "Sports & Recreation"
            }, 
            {
              "id": "128003127270269", 
              "name": "Bike Shop"
            }
          ], 
          "location": {
            "city": "Kongens Lyngby", 
            "zip": "2800", 
            "country": "Denmark", 
            "longitude": 12.5844855448, 
            "state": "", 
            "street": "Lyngby Storcenter 88", 
            "latitude": 55.709092959300001
          }
        }, 
        {
          "category": "Local business", 
          "name": "Juhl Andersen ApS", 
          "id": "642217669154165", 
          "category_list": [
            {
              "id": "180833545285725", 
              "name": "Carpenter"
            }, 
            {
              "id": "162532913805106", 
              "name": "Real Estate Developer"
            }, 
            {
              "id": "188569091163640", 
              "name": "Construction Service & Supply"
            }
          ], 
          "location": {
            "city": "Pr\u00e6st\u00f8", 
            "zip": "4720", 
            "country": "Denmark", 
            "longitude": 12.042484862448999, 
            "state": "", 
            "street": "Adelgade 71A", 
            "latitude": 55.122321753011001
          }
        }, 
        {
          "category": "Company", 
          "name": "Dyrenes L\u00e6gehus Aps", 
          "id": "692453534098504", 
          "category_list": [
            {
              "id": "162068413843305", 
              "name": "Veterinarian"
            }
          ], 
          "location": {
            "city": "Herning", 
            "zip": "7400", 
            "country": "Denmark", 
            "longitude": 8.9356366731300003, 
            "state": "", 
            "street": "Tjelevej 2", 
            "latitude": 56.147880088599997
          }
        }, 
        {
          "category": "Company", 
          "name": "Michaels Automobiler Aps", 
          "id": "553232388059411", 
          "category_list": [
            {
              "id": "131962450204676", 
              "name": "Car Dealership"
            }
          ], 
          "location": {
            "city": "Varde", 
            "zip": "6800", 
            "country": "Denmark", 
            "longitude": 8.4960580584500001, 
            "state": "", 
            "street": "Jeppe skovgaards vej 2", 
            "latitude": 55.604370115099996
          }
        }, 
        {
          "category": "Local business", 
          "name": "Jin Shing Grill ApS", 
          "id": "150303675021214", 
          "category_list": [
            {
              "id": "174483852595760", 
              "name": "Chinese Restaurant"
            }, 
            {
              "id": "187425207958280", 
              "name": "Burger Restaurant"
            }, 
            {
              "id": "192803624072087", 
              "name": "Fast Food Restaurant"
            }
          ], 
          "location": {
            "city": "Aalborg", 
            "zip": "9400", 
            "country": "Denmark", 
            "longitude": 9.9437372163086, 
            "state": "", 
            "street": "Hj\u00f8rringvej 40", 
            "latitude": 57.067481119927997
          }
        }, 
        {
          "category": "Company", 
          "name": "Murerfirmaet Lodahl Aps", 
          "id": "579165332152663", 
          "category_list": [
            {
              "id": "2200", 
              "name": "Company"
            }
          ], 
          "location": {
            "city": "Herning", 
            "zip": "7400", 
            "country": "Denmark", 
            "longitude": 8.9570639543922006, 
            "state": "", 
            "street": "Solv\u00e6nget 26", 
            "latitude": 56.141548071058999
          }
        }, 
        {
          "category": "Local business", 
          "name": "\u00d8stjysk Auktion ApS", 
          "id": "184225208287420", 
          "category_list": [
            {
              "id": "192422584121096", 
              "name": "Auction House"
            }
          ], 
          "location": {
            "latitude": 56.213871521500003, 
            "street": "Kringelled 10", 
            "zip": "8250", 
            "longitude": 10.2635800693
          }
        }, 
        {
          "category": "Company", 
          "name": "Skive Dyrehospital Aps", 
          "id": "356492641114376", 
          "category_list": [
            {
              "id": "2200", 
              "name": "Company"
            }
          ], 
          "location": {
            "city": "Skive", 
            "zip": "7800", 
            "country": "Denmark", 
            "longitude": 9.0009528981399995, 
            "state": "", 
            "street": "Elskj\u00e6rbakken 5B", 
            "latitude": 56.570828730700001
          }
        }, 
        {
          "category": "Local business", 
          "name": "Gonzales Cantina ApS", 
          "id": "175726495795545", 
          "category_list": [
            {
              "id": "2500", 
              "name": "Local Business"
            }
          ], 
          "location": {
            "city": "Hiller\u00f8d", 
            "zip": "3400", 
            "country": "Denmark", 
            "longitude": 12.299039291395999, 
            "state": "", 
            "street": "Slotsgade 27D", 
            "latitude": 55.930360963059002
          }
        }, 
        {
          "category": "Real estate", 
          "name": "Danbolig Laugmann, L\u00f8gstrup & Bloch Aps", 
          "id": "193518240851509", 
          "category_list": [
            {
              "id": "187716201260376", 
              "name": "Real Estate Lawyer"
            }
          ], 
          "location": {
            "latitude": 55.890315268233998, 
            "street": "", 
            "zip": "", 
            "longitude": 12.496468907283001
          }
        }, 
        {
          "category": "Local business", 
          "name": "Cafe Victoria Hvidovre ApS", 
          "id": "183057665054341", 
          "category_list": [
            {
              "id": "197871390225897", 
              "name": "Cafe"
            }
          ], 
          "location": {
            "city": "Hvidovre", 
            "zip": "2650", 
            "country": "Denmark", 
            "longitude": 12.479473611218999, 
            "state": "", 
            "street": "Hvidovrevej 261C", 
            "latitude": 55.639160009883
          }
        }, 
        {
          "category": "Small business", 
          "name": "Dyrl\u00e6gegruppen Laug\u00f8 Aps", 
          "id": "141755559318403", 
          "category_list": [
            {
              "id": "162068413843305", 
              "name": "Veterinarian"
            }
          ], 
          "location": {
            "city": "Helsinge", 
            "zip": "3200", 
            "country": "Denmark", 
            "longitude": 12.18229861809, 
            "state": "", 
            "street": "Laug\u00f8vej 11", 
            "latitude": 56.036832268079998
          }
        }, 
        {
          "category": "Bar", 
          "name": "Det lille Apotek aps", 
          "id": "162364193913388", 
          "category_list": [
            {
              "id": "110290705711626", 
              "name": "Bar"
            }
          ], 
          "location": {
            "city": "Varde", 
            "zip": "6800", 
            "country": "Denmark", 
            "longitude": 8.4831382500999997, 
            "state": "", 
            "street": "Storegade 20", 
            "latitude": 55.619814030999997
          }
        }, 
        {
          "category": "Non-profit organization", 
          "name": "Asd e Aps Latinoamericando", 
          "id": "1436219813259850", 
          "category_list": [
            {
              "id": "109976259083543", 
              "name": "Sports Venue & Stadium"
            }
          ], 
          "location": {
            "city": "Pisa", 
            "zip": "", 
            "country": "Italy", 
            "longitude": 10.3991863, 
            "state": "", 
            "street": "via Galiani n.1", 
            "latitude": 43.729346499999998
          }
        }, 
        {
          "category": "Business services", 
          "name": "APSL  Qualit\u00e4tskontrolle & Logistik", 
          "id": "261834193910813", 
          "category_list": [
            {
              "id": "187133811318958", 
              "name": "Business Services"
            }, 
            {
              "id": "188620891159326", 
              "name": "Automotive Manufacturing"
            }
          ], 
          "location": {
            "city": "Leonberg", 
            "zip": "71229", 
            "country": "Germany", 
            "longitude": 9.0029020000000006, 
            "state": "", 
            "street": "Mollenbachstr 14", 
            "latitude": 48.785159
          }
        }, 
        {
          "category": "Local business", 
          "name": "Hoppes Caf\u00e9 & Bar ApS", 
          "id": "120387298029063", 
          "category_list": [
            {
              "id": "110290705711626", 
              "name": "Bar"
            }, 
            {
              "id": "197871390225897", 
              "name": "Cafe"
            }
          ], 
          "location": {
            "city": "K\u00f8benhavn", 
            "zip": "1609", 
            "country": "Denmark", 
            "longitude": 12.578197294519001, 
            "state": "", 
            "street": "Axeltorv 6", 
            "latitude": 55.678121688860003
          }
        }, 
        {
          "category": "Local business", 
          "name": "Cafe Salto ApS", 
          "id": "132584590134678", 
          "category_list": [
            {
              "id": "197871390225897", 
              "name": "Cafe"
            }
          ], 
          "location": {
            "city": "Thisted", 
            "zip": "7700", 
            "country": "Denmark", 
            "longitude": 8.6953225211175003, 
            "state": "", 
            "street": "Havnetorv 3B", 
            "latitude": 56.954672492204999
          }
        }, 
        {
          "category": "Local business", 
          "name": "Bo-bi Bar ApS", 
          "id": "169624183074139", 
          "category_list": [
            {
              "id": "110290705711626", 
              "name": "Bar"
            }
          ], 
          "location": {
            "city": "Copenhagen", 
            "zip": "1115", 
            "country": "Denmark", 
            "longitude": 12.578767474199999, 
            "state": "", 
            "street": "Klareboderne 14", 
            "latitude": 55.68111655413
          }
        }, 
        {
          "category": "Company", 
          "name": "Atlantic Music Aps - Atlantic Studio", 
          "id": "359197927719", 
          "category_list": [
            {
              "id": "2200", 
              "name": "Company"
            }
          ], 
          "location": {
            "city": "Nuuk", 
            "zip": "3900", 
            "country": "Greenland", 
            "longitude": 12.4814579791, 
            "state": "", 
            "street": "H J Rinksvej 7", 
            "latitude": 55.6198881714
          }
        }, 
        {
          "category": "Local business", 
          "name": "Cafe Risico ApS", 
          "id": "185121581498681", 
          "category_list": [
            {
              "id": "197871390225897", 
              "name": "Cafe"
            }
          ], 
          "location": {
            "city": "Herlev", 
            "zip": "2730", 
            "country": "Denmark", 
            "longitude": 12.43987289114, 
            "state": "", 
            "street": "Herlev Hovedgade 123", 
            "latitude": 55.722888862657001
          }
        }, 
        {
          "category": "Restaurant/cafe", 
          "name": "Skolegades Bageri Herning Aps", 
          "id": "682671885099190", 
          "category_list": [
            {
              "id": "187827497907070", 
              "name": "Bakery"
            }
          ], 
          "location": {
            "city": "Herning", 
            "zip": "7400", 
            "country": "Denmark", 
            "longitude": 8.4298410776794999, 
            "state": "", 
            "street": "Skolegaden 3", 
            "latitude": 56.083353032978998
          }
        }, 
        {
          "category": "Professional services", 
          "name": "APS Investigations Northern Ireland", 
          "id": "1377622442451843", 
          "category_list": [
            {
              "id": "151931054869702", 
              "name": "Document Service"
            }
          ], 
          "location": {
            "city": "Sion Mill", 
            "zip": "BT82 9EU", 
            "country": "United Kingdom", 
            "longitude": -7.5, 
            "street": "122 Melmount Road", 
            "latitude": 54.783299999999997
          }
        }, 
        {
          "category": "Food/beverages", 
          "name": "Timm Vladimirs K\u00f8kken ApS", 
          "id": "357952650941390", 
          "category_list": [
            {
              "id": "2252", 
              "name": "Food/Beverages"
            }
          ], 
          "location": {
            "city": "Valby", 
            "zip": "2500", 
            "country": "Denmark", 
            "longitude": 12.513033201318001, 
            "state": "", 
            "street": "Skolegade 19 Byg. 5", 
            "latitude": 55.663989797486003
          }
        }, 
        {
          "category": "Restaurant/cafe", 
          "name": "Sct. Oluf Restaurant og Bar ApS", 
          "id": "120875061312618", 
          "category_list": [
            {
              "id": "168976549819329", 
              "name": "French Restaurant"
            }
          ], 
          "location": {
            "city": "Aarhus", 
            "zip": "8000", 
            "country": "Denmark", 
            "longitude": 10.212150959593, 
            "state": "", 
            "street": "Mejlgade 33", 
            "latitude": 56.158871089672999
          }
        }, 
        {
          "category": "Energy/utility", 
          "name": "Arizona Public Service - APS", 
          "id": "229479577179126", 
          "category_list": [
            {
              "id": "2238", 
              "name": "Energy/Utility"
            }
          ], 
          "location": {
            "city": "Phoenix", 
            "zip": "", 
            "country": "United States", 
            "longitude": -112.06820974599999, 
            "state": "AZ", 
            "street": "", 
            "latitude": 33.452451315099999
          }
        }, 
        {
          "category": "Local business", 
          "name": "Det Ukendtes Boghandel Anno 1995 ApS", 
          "id": "141612705892147", 
          "category_list": [
            {
              "id": "2500", 
              "name": "Local Business"
            }
          ], 
          "location": {
            "city": "K\u00f8benhavn", 
            "zip": "1152", 
            "country": "Denmark", 
            "longitude": 12.576475179899999, 
            "state": "", 
            "street": "L\u00f8vstr\u00e6de 8", 
            "latitude": 55.680479553600001
          }
        }, 
        {
          "category": "Local business", 
          "name": "Sam's Barbeque ApS", 
          "id": "128488527214528", 
          "category_list": [
            {
              "id": "150534008338515", 
              "name": "Barbecue Restaurant"
            }, 
            {
              "id": "180256082015845", 
              "name": "Pizza Place"
            }
          ], 
          "location": {
            "city": "Aalborg", 
            "zip": "9000", 
            "country": "Denmark", 
            "longitude": 9.9189854515714995, 
            "state": "", 
            "street": "Bispensgade 18", 
            "latitude": 57.049418609188997
          }
        }, 
        {
          "category": "Company", 
          "name": "Davinci Cykler ApS", 
          "id": "110538259040217", 
          "category_list": [
            {
              "id": "2200", 
              "name": "Company"
            }
          ], 
          "location": {
            "city": "K\u00f8benhavn", 
            "zip": "2200", 
            "country": "Denmark", 
            "longitude": 12.5515643124, 
            "state": "", 
            "street": "N\u00f8rrebrogade 94, 2200 K\u00f8benhavn, Denmark", 
            "latitude": 55.692696096900001
          }
        }, 
        {
          "category": "Local business", 
          "name": "Kino - Den Bl\u00e5 Engel ApS", 
          "id": "127516197312444", 
          "category_list": [
            {
              "id": "192511100766680", 
              "name": "Movie Theatre"
            }
          ], 
          "location": {
            "city": "Kalundborg", 
            "zip": "4400", 
            "country": "Denmark", 
            "longitude": 11.088825654571, 
            "state": "", 
            "street": "V\u00e6nget 4", 
            "latitude": 55.678957038934001
          }
        }, 
        {
          "category": "Local business", 
          "name": "Kok Amok ApS", 
          "id": "184197441591582", 
          "category_list": [
            {
              "id": "165679780146824", 
              "name": "Food & Restaurant"
            }, 
            {
              "id": "139433292785470", 
              "name": "Caterer"
            }
          ], 
          "location": {
            "city": "Vallensb\u00e6k", 
            "zip": "4200", 
            "country": "Denmark", 
            "longitude": 11.354300812876, 
            "state": "", 
            "street": "Jernbanegade 10", 
            "latitude": 55.405764368321002
          }
        }, 
        {
          "category": "Local business", 
          "name": "Donkey Scooter Shop Aps", 
          "id": "307794419277259", 
          "category_list": [
            {
              "id": "186982054657561", 
              "name": "Sports & Recreation"
            }, 
            {
              "id": "165823830131654", 
              "name": "Sporting Goods Store"
            }
          ], 
          "location": {
            "city": "Frederiksberg", 
            "zip": "2000", 
            "country": "Denmark", 
            "longitude": 12.5127067772, 
            "street": "Roskildevej 46", 
            "latitude": 55.672206908
          }
        }, 
        {
          "category": "Retail and consumer merchandise", 
          "name": "Stereo Studio", 
          "id": "105916689474340", 
          "category_list": [
            {
              "id": "396255327112122", 
              "name": "Music Store"
            }, 
            {
              "id": "150432221681325", 
              "name": "DVD & Video Store"
            }, 
            {
              "id": "186230924744328", 
              "name": "Clothing Store"
            }
          ], 
          "location": {
            "city": "Aalborg", 
            "zip": "9000", 
            "country": "Denmark", 
            "longitude": 9.8967322903653994, 
            "state": "", 
            "street": "Lyngvej 7", 
            "latitude": 57.024769877301999
          }
        }, 
        {
          "category": "Local business", 
          "name": "Caf\u00e9 Kaffka ApS", 
          "id": "121854697882513", 
          "category_list": [
            {
              "id": "197871390225897", 
              "name": "Cafe"
            }
          ], 
          "location": {
            "city": "Vallensb\u00e6k", 
            "zip": "2665", 
            "country": "Denmark", 
            "longitude": 12.389287602755999, 
            "state": "", 
            "street": "Vallensb\u00e6k Stationstorv 56", 
            "latitude": 55.623099567716999
          }
        }, 
        {
          "category": "Local business", 
          "name": "Showagent ApS entertainment", 
          "id": "235721863142641", 
          "category_list": [
            {
              "id": "169925186386431", 
              "name": "Entertainment Service"
            }, 
            {
              "id": "133436743388217", 
              "name": "Arts & Entertainment"
            }
          ], 
          "location": {
            "city": "Vanl\u00f8se", 
            "zip": "2720", 
            "country": "Denmark", 
            "longitude": 12.527358401200001, 
            "state": "", 
            "street": "Bogholder Alle 40", 
            "latitude": 55.708036438699999
          }
        }, 
        {
          "category": "Local business", 
          "name": "Uhrskov Vinhandel ApS / Uhrskov-Vine.dk", 
          "id": "198167790284169", 
          "category_list": [
            {
              "id": "2500", 
              "name": "Local Business"
            }
          ], 
          "location": {
            "city": "Herning", 
            "zip": "7400", 
            "country": "Denmark", 
            "longitude": 8.9671945116200007, 
            "state": "", 
            "street": "Bredgade 56", 
            "latitude": 56.136691258399999
          }
        }, 
        {
          "category": "Sports venue", 
          "name": "dit Studie ApS", 
          "id": "360258527382991", 
          "category_list": [
            {
              "id": "109976259083543", 
              "name": "Sports Venue & Stadium"
            }
          ], 
          "location": {
            "city": "Viborg", 
            "zip": "8800", 
            "country": "Denmark", 
            "longitude": 9.4019778932809004, 
            "state": "", 
            "street": "Tingvej 7, 1 sal", 
            "latitude": 56.455183934029002
          }
        }, 
        {
          "category": "Local business", 
          "name": "Slagtermester Peter Avlund Aps", 
          "id": "190444040966303", 
          "category_list": [
            {
              "id": "2500", 
              "name": "Local Business"
            }
          ], 
          "location": {
            "city": "Hiller\u00f8d", 
            "zip": "3400", 
            "country": "Denmark", 
            "longitude": 12.2677252343, 
            "state": "", 
            "street": "Kirseb\u00e6ralle 8", 
            "latitude": 55.943165683300002
          }
        }, 
        {
          "category": "Local business", 
          "name": "Bernstorff Slot ApS", 
          "id": "174273202607687", 
          "category_list": [
            {
              "id": "2500", 
              "name": "Local Business"
            }
          ], 
          "location": {
            "city": "Gentofte", 
            "zip": "2820", 
            "country": "Denmark", 
            "longitude": 12.552398432003001, 
            "state": "", 
            "street": "J\u00e6gersborg All\u00e9 93", 
            "latitude": 55.758492138530002
          }
        }, 
        {
          "category": "Local business", 
          "name": "APS College Grounds.. Ganesh Utsav", 
          "id": "174055306004059", 
          "category_list": [
            {
              "id": "2500", 
              "name": "Local Business"
            }
          ], 
          "location": {
            "latitude": 12.9403722394, 
            "street": "", 
            "zip": "", 
            "longitude": 77.568841479400007
          }
        }, 
        {
          "category": "Non-profit organization", 
          "name": "Kallipolis", 
          "id": "648747695183846", 
          "category_list": [
            {
              "id": "2603", 
              "name": "Non-Profit Organization"
            }
          ], 
          "location": {
            "city": "Trieste", 
            "zip": "34100", 
            "country": "Italy", 
            "longitude": 13.775632391666999, 
            "state": "", 
            "street": "via San Lazzaro 15", 
            "latitude": 45.650969558028002
          }
        }, 
        {
          "category": "Community/government", 
          "name": "\u0627\u0644\u0645\u062c\u0644\u0633 \u0627\u0644\u0634\u0639\u0628\u064a \u0627\u0644\u0628\u0644\u062f\u064a \u0644\u0628\u0644\u062f\u064a\u0629 \u0627\u0644\u062c\u0644\u0641\u0629 - \u0644\u062c\u0646\u0629 \u0627\u0644\u0625\u0639\u0644\u0627\u0645 \u0648\u0627\u0644\u0627\u062a\u0635\u0627\u0644", 
          "id": "452705884802332", 
          "category_list": [
            {
              "id": "197289820310880", 
              "name": "Home"
            }
          ], 
          "location": {
            "city": "Djelfa", 
            "zip": "17000", 
            "country": "Algeria", 
            "longitude": 2.63368524299, 
            "state": "", 
            "street": " Djelfa", 
            "latitude": 36.468855026500002
          }
        }, 
        {
          "category": "Movie theater", 
          "name": "Tan sexy que se cree la HDP y ni pacman se la come \u00ac\u00ac", 
          "id": "379615628791250", 
          "category_list": [
            {
              "id": "192511100766680", 
              "name": "Movie Theatre"
            }
          ], 
          "location": {
            "city": "Lima", 
            "zip": "025", 
            "country": "Peru", 
            "longitude": -77.028300000000002, 
            "state": "", 
            "street": "", 
            "latitude": -12.0433
          }
        }, 
        {
          "category": "School", 
          "name": "Army Public School  R K Puram Secunderabad", 
          "id": "293926913963324", 
          "category_list": [
            {
              "id": "365182493518892", 
              "name": "School"
            }
          ], 
          "location": {
            "city": "Secunderabad", 
            "zip": "500056", 
            "country": "India", 
            "longitude": 78.523850202559998, 
            "state": "", 
            "street": "RK  Puram,", 
            "latitude": 17.477458661728001
          }
        }, 
        {
          "category": "Non-profit organization", 
          "name": "Animal Protection Society of Caswell County", 
          "id": "125225627508282", 
          "category_list": [
            {
              "id": "170810676298376", 
              "name": "Animal Shelter"
            }
          ], 
          "location": {
            "city": "Yanceyville", 
            "zip": "27379", 
            "country": "United States", 
            "longitude": -79.337728999999996, 
            "state": "NC", 
            "street": "836 County Home Road", 
            "latitude": 36.420639999999999
          }
        }, 
        {
          "category": "Health/medical/pharmaceuticals", 
          "name": "Academia de Psicologia da Crian\u00e7a e da Fam\u00edlia - Apsicf", 
          "id": "651913888161853", 
          "category_list": [
            {
              "id": "132328993501399", 
              "name": "Counseling & Mental Health"
            }
          ], 
          "location": {
            "city": "Lisbon", 
            "zip": "", 
            "country": "Portugal", 
            "longitude": -9.1333300000000008, 
            "state": "", 
            "street": "Rua Professor Sousa da C\u00e2mara, 138 - 1\u00ba Esq", 
            "latitude": 38.716700000000003
          }
        }, 
        {
          "category": "Local business", 
          "name": "Led Ap\u0161vietimas", 
          "id": "221126408065765", 
          "category_list": [
            {
              "id": "196820813663200", 
              "name": "Lighting Fixtures"
            }
          ], 
          "location": {
            "city": "\u0160iauliai", 
            "zip": "LT-76302", 
            "country": "Lithuania", 
            "longitude": 23.316700000000001, 
            "state": "", 
            "street": "\u0160iauliai", 
            "latitude": 55.933300000000003
          }
        }, 
        {
          "category": "Sports/recreation/activities", 
          "name": "Old School Gym - Vejle", 
          "id": "441837729246128", 
          "category_list": [
            {
              "id": "184405378265823", 
              "name": "Gym"
            }, 
            {
              "id": "181045748599578", 
              "name": "Personal Trainer"
            }
          ], 
          "location": {
            "city": "Vejle", 
            "zip": "7100", 
            "country": "Denmark", 
            "longitude": 9.5239660464300009, 
            "state": "", 
            "street": "Boulevarden 11G", 
            "latitude": 55.710646427699999
          }
        }, 
        {
          "category": "Automotive", 
          "name": "Auto Posto Santana", 
          "id": "162798283913051", 
          "category_list": [
            {
              "id": "139272729470823", 
              "name": "Gas Station"
            }
          ], 
          "location": {
            "city": "Santana da Vargem", 
            "zip": "37195000", 
            "country": "Brazil", 
            "longitude": -45.506667975355001, 
            "state": "", 
            "street": "Pra\u00e7a Teomara Maise Correa, n\u00ba 308 - Centro ", 
            "latitude": -21.246140403264
          }
        }, 
        {
          "category": "Local business", 
          "name": "The Paper Mill Apsley lock", 
          "id": "158705734176129", 
          "category_list": [
            {
              "id": "218693881483234", 
              "name": "Pub"
            }
          ], 
          "location": {
            "city": "Hemel Hempstead", 
            "zip": "HP3 9RH", 
            "country": "United Kingdom", 
            "longitude": -0.46149777562160998, 
            "state": "", 
            "street": "Stationers Place, Hemel Hempstead, Hertfordshire ", 
            "latitude": 51.733695705552996
          }
        }, 
        {
          "category": "Bank/financial institution", 
          "name": "Atlantic Pacific Securities (APSEC)", 
          "id": "139677389435956", 
          "category_list": [
            {
              "id": "213577718658733", 
              "name": "Investing Service"
            }, 
            {
              "id": "211381282212118", 
              "name": "Financial Planning"
            }
          ], 
          "location": {
            "city": "Sydney", 
            "zip": "2000", 
            "country": "Australia", 
            "longitude": 151.22502299300001, 
            "state": "NSW", 
            "street": "Level 4 / 151 Castlereagh Street", 
            "latitude": -33.866274875800002
          }
        }
      ]
    }
  }, 
  {
    "business_name": "Cafe Zupas", 
    "business_id": "0rbT0Nf-A56t4DnYIIvy-Q", 
    "fb_pages": {
      "paging": {
        "next": "https://graph.facebook.com/search?type=place&access_token=229546593895315|yPLlHqq6YvDLIH4nL0kjJtIFSlU&limit=5000&offset=5000&__after_id=155563257842192"
      }, 
      "data": [
        {
          "category": "Local business", 
          "name": "Cafe Zupas", 
          "id": "113870402147653", 
          "category_list": [
            {
              "id": "197871390225897", 
              "name": "Cafe"
            }
          ], 
          "location": {
            "city": "Las Vegas", 
            "zip": "89123", 
            "country": "United States", 
            "longitude": -115.11841317422, 
            "state": "NV", 
            "street": "9454 S Eastern Ave", 
            "latitude": 36.017601215364003
          }
        }, 
        {
          "category": "Local business", 
          "name": "Cafe Zupas", 
          "id": "168018460051646", 
          "category_list": [
            {
              "id": "165679780146824", 
              "name": "Food & Restaurant"
            }
          ], 
          "location": {
            "city": "Las Vegas", 
            "zip": "89128", 
            "country": "United States", 
            "longitude": -115.25799961481999, 
            "state": "NV", 
            "street": "Lake Mead Blvd", 
            "latitude": 36.195599224269998
          }
        }, 
        {
          "category": "Local business", 
          "name": "Cafe Zupas", 
          "id": "516875291670436", 
          "category_list": [
            {
              "id": "197871390225897", 
              "name": "Cafe"
            }
          ], 
          "location": {
            "city": "Mesa", 
            "zip": "85204", 
            "country": "United States", 
            "longitude": -111.75689252641, 
            "state": "AZ", 
            "street": "3420 E. Baseline Rd. #107 ", 
            "latitude": 33.379639808436004
          }
        }, 
        {
          "category": "Local business", 
          "name": "Cafe Zupas", 
          "id": "268786623208217", 
          "category_list": [
            {
              "id": "273819889375819", 
              "name": "Restaurant"
            }
          ], 
          "location": {
            "city": "Salt Lake City", 
            "zip": "84119", 
            "country": "United States", 
            "longitude": -111.95711220355, 
            "state": "UT", 
            "street": "", 
            "latitude": 40.694199893175004
          }
        }, 
        {
          "category": "Local business", 
          "name": "Cafe Zupas", 
          "id": "291935894173852", 
          "category_list": [
            {
              "id": "273819889375819", 
              "name": "Restaurant"
            }
          ], 
          "location": {
            "city": "Salt Lake City", 
            "zip": "84102", 
            "country": "United States", 
            "longitude": -111.87357699163999, 
            "state": "UT", 
            "street": "", 
            "latitude": 40.761482130094997
          }
        }, 
        {
          "category": "Local business", 
          "name": "Cafe Zupas", 
          "id": "115874755108374", 
          "category_list": [
            {
              "id": "197871390225897", 
              "name": "Cafe"
            }, 
            {
              "id": "188296324525457", 
              "name": "Sandwich Shop"
            }
          ], 
          "location": {
            "city": "Layton", 
            "zip": "84041-1637", 
            "country": "United States", 
            "longitude": -111.9800198893, 
            "state": "UT", 
            "street": "748 W Antelope Dr", 
            "latitude": 41.089493474884002
          }
        }, 
        {
          "category": "Local business", 
          "name": "Cafe Zupas", 
          "id": "220623454718490", 
          "category_list": [
            {
              "id": "197871390225897", 
              "name": "Cafe"
            }
          ], 
          "location": {
            "city": "Farmington", 
            "zip": "84025", 
            "country": "United States", 
            "longitude": -111.90629053681, 
            "state": "UT", 
            "street": "", 
            "latitude": 40.985288641354003
          }
        }, 
        {
          "category": "Local business", 
          "name": "Cafe Zupas", 
          "id": "245766822219687", 
          "category_list": [
            {
              "id": "197871390225897", 
              "name": "Cafe"
            }
          ], 
          "location": {
            "city": "Salt Lake City", 
            "zip": "84106", 
            "country": "United States", 
            "longitude": -111.85650494115001, 
            "state": "UT", 
            "street": "2236 S 1300 E", 
            "latitude": 40.722166756269999
          }
        }, 
        {
          "category": "Local business", 
          "name": "Caf\u00e9 Zupas", 
          "id": "354944531214192", 
          "category_list": [
            {
              "id": "197871390225897", 
              "name": "Cafe"
            }
          ], 
          "location": {
            "city": "Phoenix", 
            "zip": "85016", 
            "country": "United States", 
            "longitude": -112.04144318505, 
            "state": "AZ", 
            "street": "1935 E Camelback Rd  ", 
            "latitude": 33.508697603820998
          }
        }, 
        {
          "category": "Local business", 
          "name": "Caf\u00e9 Zupas", 
          "id": "247177105383753", 
          "category_list": [
            {
              "id": "197871390225897", 
              "name": "Cafe"
            }
          ], 
          "location": {
            "city": "Phoenix", 
            "zip": "85050", 
            "country": "United States", 
            "longitude": -111.97170773755001, 
            "state": "AZ", 
            "street": "21001 N. Tatum Blvd.", 
            "latitude": 33.675388976783999, 
            "located_in": 140151526004823
          }
        }, 
        {
          "category": "Local business", 
          "name": "Zupas Cafe", 
          "id": "102873299787067", 
          "category_list": [
            {
              "id": "197871390225897", 
              "name": "Cafe"
            }
          ], 
          "location": {
            "city": "American Fork", 
            "zip": "84003", 
            "country": "United States", 
            "longitude": -111.81451632117, 
            "state": "UT", 
            "street": "599 West Main Street", 
            "latitude": 40.376650454673999
          }
        }, 
        {
          "category": "Local business", 
          "name": "Cafe Zupas", 
          "id": "612487165457189", 
          "category_list": [
            {
              "id": "165679780146824", 
              "name": "Food & Restaurant"
            }
          ], 
          "location": {
            "city": "Phoenix", 
            "zip": "85027", 
            "country": "United States", 
            "longitude": -112.11408724931, 
            "state": "AZ", 
            "street": "", 
            "latitude": 33.715099245387002
          }
        }, 
        {
          "category": "Local business", 
          "name": "Cafe Zupas", 
          "id": "518281208191460", 
          "category_list": [
            {
              "id": "197871390225897", 
              "name": "Cafe"
            }
          ], 
          "location": {
            "city": "Sandy", 
            "zip": "84094", 
            "country": "United States", 
            "longitude": -111.863167899, 
            "state": "UT", 
            "street": "", 
            "latitude": 40.583522822799999
          }
        }, 
        {
          "category": "Local business", 
          "name": "Cafe Zupas", 
          "id": "219975421373767", 
          "category_list": [
            {
              "id": "273819889375819", 
              "name": "Restaurant"
            }
          ], 
          "location": {
            "city": "Riverdale", 
            "zip": "84405", 
            "country": "United States", 
            "longitude": -111.98716473243999, 
            "state": "UT", 
            "street": "4245 Riverdale Road", 
            "latitude": 41.185519614580002
          }
        }, 
        {
          "category": "Local business", 
          "name": "Cafe Zupas", 
          "id": "205183392874726", 
          "category_list": [
            {
              "id": "197871390225897", 
              "name": "Cafe"
            }
          ], 
          "location": {
            "city": "West Jordan", 
            "zip": "84088", 
            "country": "United States", 
            "longitude": -111.980554801, 
            "state": "UT", 
            "street": "", 
            "latitude": 40.6121261897
          }
        }, 
        {
          "category": "Local business", 
          "name": "Cafe Zupas", 
          "id": "252421118239530", 
          "category_list": [
            {
              "id": "127892053948220", 
              "name": "Cafeteria"
            }
          ], 
          "location": {
            "city": "Park City", 
            "zip": "84098", 
            "country": "United States", 
            "longitude": -111.541427, 
            "state": "UT", 
            "street": "1626 Uinta Way (Kimball Jnct.)", 
            "latitude": 40.721874999999997
          }
        }, 
        {
          "category": "Local business", 
          "name": "Cafe Zupas", 
          "id": "115697405126725", 
          "category_list": [
            {
              "id": "197871390225897", 
              "name": "Cafe"
            }
          ], 
          "location": {
            "city": "West Jordan", 
            "zip": "84088-9277", 
            "country": "United States", 
            "longitude": -111.93757600000001, 
            "state": "UT", 
            "street": "8819 Redwood Rd", 
            "latitude": 40.591090999999999
          }
        }, 
        {
          "category": "Local business", 
          "name": "Cafe Zupas", 
          "id": "172000179514727", 
          "category_list": [
            {
              "id": "197871390225897", 
              "name": "Cafe"
            }
          ], 
          "location": {
            "city": "Bountiful", 
            "zip": "84010", 
            "country": "United States", 
            "longitude": -111.868665017, 
            "state": "UT", 
            "street": "", 
            "latitude": 40.860783166700003
          }
        }, 
        {
          "category": "Local business", 
          "name": "Zupas Cafe", 
          "id": "155563257842192", 
          "category_list": [
            {
              "id": "273819889375819", 
              "name": "Restaurant"
            }
          ], 
          "location": {
            "city": "Provo", 
            "zip": "", 
            "country": "United States", 
            "longitude": -111.647761199, 
            "state": "UT", 
            "street": "", 
            "latitude": 40.248747468399998
          }
        }
      ]
    }
  }, 
  {
    "business_name": "Nostalgi'a Cancione E Vino", 
    "business_id": "UuBlHg1Mk0jonBSQPHfD0w", 
    "fb_pages": {
      "paging": {
        "next": "https://graph.facebook.com/search?type=place&access_token=229546593895315|yPLlHqq6YvDLIH4nL0kjJtIFSlU&limit=5000&offset=5000&__after_id=160742800628458"
      }, 
      "data": [
        {
          "category": "Local business", 
          "name": "Nostalgi'a Cancione e Vino", 
          "id": "160742800628458", 
          "category_list": [
            {
              "id": "193831710644458", 
              "name": "Italian Restaurant"
            }
          ], 
          "location": {
            "city": "Glendale", 
            "zip": "85301", 
            "country": "United States", 
            "longitude": -112.167059177, 
            "state": "AZ", 
            "street": "", 
            "latitude": 33.537991967700002
          }
        }
      ]
    }
  }, 
  {
    "business_name": "Lovato's Hair Styling Salon", 
    "business_id": "qurW9PjV90saHESwsGAwdQ", 
    "fb_pages": {
      "data": []
    }
  }, 
  {
    "business_name": "Kim's Barber Shop", 
    "business_id": "k5beMbSAM6xjrNiaRTcE8A", 
    "fb_pages": {
      "paging": {
        "next": "https://graph.facebook.com/search?type=place&access_token=229546593895315|yPLlHqq6YvDLIH4nL0kjJtIFSlU&limit=5000&offset=5000&__after_id=207376119296900"
      }, 
      "data": [
        {
          "category": "Local business", 
          "name": "Kim's Top Barber Shop", 
          "id": "154145947929912", 
          "category_list": [
            {
              "id": "169758603141095", 
              "name": "Barber Shop"
            }, 
            {
              "id": "174177802634376", 
              "name": "Hair Salon"
            }
          ], 
          "location": {
            "city": "Lakewood", 
            "zip": "98499", 
            "country": "United States", 
            "longitude": -122.482279478, 
            "state": "WA", 
            "street": "", 
            "latitude": 47.168849866999999
          }
        }, 
        {
          "category": "Professional services", 
          "name": "Kim's Barber Shop", 
          "id": "509524659073271", 
          "category_list": [
            {
              "id": "176831012360626", 
              "name": "Professional Services"
            }
          ], 
          "location": {
            "city": "Shamrock", 
            "zip": "79079", 
            "country": "United States", 
            "longitude": -100.248502, 
            "state": "TX", 
            "street": "East Railroad Ave.", 
            "latitude": 35.213949999999997
          }
        }, 
        {
          "category": "Local business", 
          "name": "Kim's Barber Shop", 
          "id": "131647110212800", 
          "category_list": [
            {
              "id": "174177802634376", 
              "name": "Hair Salon"
            }, 
            {
              "id": "169758603141095", 
              "name": "Barber Shop"
            }
          ], 
          "location": {
            "city": "Beloit", 
            "zip": "53511-4412", 
            "country": "United States", 
            "longitude": -89.038059000000004, 
            "state": "WI", 
            "street": "922 4th St", 
            "latitude": 42.507942
          }
        }, 
        {
          "category": "Local business", 
          "name": "Kim's Barber Shop", 
          "id": "145500672180557", 
          "category_list": [
            {
              "id": "169758603141095", 
              "name": "Barber Shop"
            }
          ], 
          "location": {
            "city": "Lynn", 
            "zip": "01904", 
            "country": "United States", 
            "longitude": -70.950024879099999, 
            "state": "MA", 
            "street": "546 Chestnut Street", 
            "latitude": 42.477664837699997
          }
        }, 
        {
          "category": "Local business", 
          "name": "Kim'S Barber Shop", 
          "id": "176959338993639", 
          "category_list": [
            {
              "id": "2500", 
              "name": "Local Business"
            }
          ], 
          "location": {
            "city": "Stranraer", 
            "zip": "", 
            "country": "United Kingdom", 
            "longitude": -5.0238750082700001, 
            "state": "", 
            "street": "11b St John Street", 
            "latitude": 54.904485340699999
          }
        }, 
        {
          "category": "Local business", 
          "name": "Kim's Barber Shop", 
          "id": "137341209642127", 
          "category_list": [
            {
              "id": "169758603141095", 
              "name": "Barber Shop"
            }, 
            {
              "id": "174177802634376", 
              "name": "Hair Salon"
            }
          ], 
          "location": {
            "city": "Stafford", 
            "zip": "22554", 
            "country": "United States", 
            "longitude": -77.429214000000002, 
            "state": "VA", 
            "street": "432 Garrisonville Road", 
            "latitude": 38.475333999999997
          }
        }, 
        {
          "category": "Local business", 
          "name": "Kim's Barber Shop", 
          "id": "140270886008960", 
          "category_list": [
            {
              "id": "174177802634376", 
              "name": "Hair Salon"
            }
          ], 
          "location": {
            "city": "Tacoma", 
            "zip": "98404-4126", 
            "country": "United States", 
            "longitude": -122.40022999999999, 
            "state": "WA", 
            "street": "2043 E 72nd St", 
            "latitude": 47.192019999999999
          }
        }, 
        {
          "category": "Local business", 
          "name": "Kim's Barber Shop", 
          "id": "111869858866257", 
          "category_list": [
            {
              "id": "174177802634376", 
              "name": "Hair Salon"
            }, 
            {
              "id": "169758603141095", 
              "name": "Barber Shop"
            }
          ], 
          "location": {
            "city": "Lawton", 
            "zip": "73505-5241", 
            "country": "United States", 
            "longitude": -98.422865000000002, 
            "state": "OK", 
            "street": "2317 NW Erwin Ln", 
            "latitude": 34.621242000000002
          }
        }, 
        {
          "category": "Local business", 
          "name": "Kim's Barber Shop", 
          "id": "107193016006306", 
          "category_list": [
            {
              "id": "174177802634376", 
              "name": "Hair Salon"
            }
          ], 
          "location": {
            "city": "Los Angeles", 
            "zip": "90004-2719", 
            "country": "United States", 
            "longitude": -118.308156, 
            "state": "CA", 
            "street": "4558 Beverly Blvd", 
            "latitude": 34.076127999999997
          }
        }, 
        {
          "category": "Local business", 
          "name": "Kim's Barber Shop", 
          "id": "111781618875581", 
          "category_list": [
            {
              "id": "174177802634376", 
              "name": "Hair Salon"
            }, 
            {
              "id": "169758603141095", 
              "name": "Barber Shop"
            }
          ], 
          "location": {
            "city": "Suwanee", 
            "zip": "30024-2200", 
            "country": "United States", 
            "longitude": -84.066619000000003, 
            "state": "GA", 
            "street": "333 Main St Ste 400", 
            "latitude": 34.058210000000003
          }
        }, 
        {
          "category": "Local business", 
          "name": "Kim's Barber Shop", 
          "id": "134524919923453", 
          "category_list": [
            {
              "id": "174177802634376", 
              "name": "Hair Salon"
            }
          ], 
          "location": {
            "city": "Tomah", 
            "zip": "54660-1129", 
            "country": "United States", 
            "longitude": -90.504135000000005, 
            "state": "WI", 
            "street": "1331 N Superior Ave", 
            "latitude": 44.007258999999998
          }
        }, 
        {
          "category": "Local business", 
          "name": "Kim's Barber Shop", 
          "id": "140748772630722", 
          "category_list": [
            {
              "id": "174177802634376", 
              "name": "Hair Salon"
            }
          ], 
          "location": {
            "city": "Topeka", 
            "zip": "66605-1360", 
            "country": "United States", 
            "longitude": -95.665115, 
            "state": "KS", 
            "street": "2417 SE Virginia Ave", 
            "latitude": 39.023738999999999
          }
        }, 
        {
          "category": "Local business", 
          "name": "Kim's Barber Shop", 
          "id": "143503012351080", 
          "category_list": [
            {
              "id": "174177802634376", 
              "name": "Hair Salon"
            }
          ], 
          "location": {
            "city": "Flint", 
            "zip": "48506-4208", 
            "country": "United States", 
            "longitude": -83.636764999999997, 
            "state": "MI", 
            "street": "3828 Davison Rd", 
            "latitude": 43.032927999999998
          }
        }, 
        {
          "category": "Local business", 
          "name": "Kim's Barber Shop", 
          "id": "143995018964252", 
          "category_list": [
            {
              "id": "174177802634376", 
              "name": "Hair Salon"
            }
          ], 
          "location": {
            "city": "Clarksville", 
            "zip": "37042-3116", 
            "country": "United States", 
            "longitude": -87.429916000000006, 
            "state": "TN", 
            "street": "2481 Fort Campbell Blvd", 
            "latitude": 36.612560000000002
          }
        }, 
        {
          "category": "Local business", 
          "name": "Kim's Barber Shop", 
          "id": "145230018830720", 
          "category_list": [
            {
              "id": "174177802634376", 
              "name": "Hair Salon"
            }, 
            {
              "id": "169758603141095", 
              "name": "Barber Shop"
            }
          ], 
          "location": {
            "city": "Dumfries", 
            "zip": "22026-2327", 
            "country": "United States", 
            "longitude": -77.328074999999998, 
            "state": "VA", 
            "street": "17991 Dumfries Shopping Plz", 
            "latitude": 38.562134999999998
          }
        }, 
        {
          "category": "Local business", 
          "name": "Kim's Barber Shop", 
          "id": "145312542157216", 
          "category_list": [
            {
              "id": "174177802634376", 
              "name": "Hair Salon"
            }
          ], 
          "location": {
            "city": "Centralia", 
            "zip": "62801-3714", 
            "country": "United States", 
            "longitude": -89.113107999999997, 
            "state": "IL", 
            "street": "10 Parkview Dr", 
            "latitude": 38.526716999999998
          }
        }, 
        {
          "category": "Local business", 
          "name": "Kim's Barber Shop", 
          "id": "152077664808513", 
          "category_list": [
            {
              "id": "174177802634376", 
              "name": "Hair Salon"
            }, 
            {
              "id": "199236533423806", 
              "name": "Beauty Salon"
            }
          ], 
          "location": {
            "city": "Bellingham", 
            "zip": "98225-4414", 
            "country": "United States", 
            "longitude": -122.479748, 
            "state": "WA", 
            "street": "103 Grand Ave", 
            "latitude": 48.752040999999998
          }
        }, 
        {
          "category": "Local business", 
          "name": "Kim's Barber Shop", 
          "id": "152722581409908", 
          "category_list": [
            {
              "id": "174177802634376", 
              "name": "Hair Salon"
            }
          ], 
          "location": {
            "city": "Gadsden", 
            "zip": "35903-1709", 
            "country": "United States", 
            "longitude": -85.978172000000001, 
            "state": "AL", 
            "street": "404 Hoke St", 
            "latitude": 34.002701000000002
          }
        }, 
        {
          "category": "Local business", 
          "name": "Kim's Barber Shop", 
          "id": "226145947417081", 
          "category_list": [
            {
              "id": "2500", 
              "name": "Local Business"
            }
          ], 
          "location": {
            "city": "Olney", 
            "zip": "20853", 
            "country": "United States", 
            "longitude": -77.076871702099993, 
            "state": "MD", 
            "street": "", 
            "latitude": 39.109628356000002
          }
        }, 
        {
          "category": "Local business", 
          "name": "Kim's 1 Barber Shop", 
          "id": "137826936259027", 
          "category_list": [
            {
              "id": "174177802634376", 
              "name": "Hair Salon"
            }
          ], 
          "location": {
            "city": "Fayetteville", 
            "zip": "28303-2652", 
            "country": "United States", 
            "longitude": -78.988380000000006, 
            "state": "NC", 
            "street": "6023 Yadkin Rd", 
            "latitude": 35.096249
          }
        }, 
        {
          "category": "Local business", 
          "name": "Kim's Barber Shop", 
          "id": "132387113473073", 
          "category_list": [
            {
              "id": "174177802634376", 
              "name": "Hair Salon"
            }, 
            {
              "id": "169758603141095", 
              "name": "Barber Shop"
            }
          ], 
          "location": {
            "city": "Fayetteville", 
            "zip": "28306-8307", 
            "country": "United States", 
            "longitude": -78.967136485699996, 
            "state": "NC", 
            "street": "2609 Hope Mills Rd", 
            "latitude": 34.998898687000001
          }
        }, 
        {
          "category": "Local business", 
          "name": "Mr Kim's Barber Shop", 
          "id": "141157732591291", 
          "category_list": [
            {
              "id": "174177802634376", 
              "name": "Hair Salon"
            }, 
            {
              "id": "169758603141095", 
              "name": "Barber Shop"
            }
          ], 
          "location": {
            "city": "Alexandria", 
            "zip": "22303-2018", 
            "country": "United States", 
            "longitude": -77.076949999999997, 
            "state": "VA", 
            "street": "5904 N Kings Hwy", 
            "latitude": 38.789921
          }
        }, 
        {
          "category": "Local business", 
          "name": "Mr. Kim's Barber Shop", 
          "id": "166617383425523", 
          "category_list": [
            {
              "id": "2500", 
              "name": "Local Business"
            }
          ], 
          "location": {
            "city": "Fairborn", 
            "zip": "45324", 
            "country": "United States", 
            "longitude": -84.054290391999999, 
            "state": "OH", 
            "street": "", 
            "latitude": 39.7782674312
          }
        }, 
        {
          "category": "Professional services", 
          "name": "Kim's Barber Shop & Salon", 
          "id": "581268681913918", 
          "category_list": [
            {
              "id": "174177802634376", 
              "name": "Hair Salon"
            }
          ], 
          "location": {
            "city": "Fowlerville", 
            "zip": "48836", 
            "country": "United States", 
            "longitude": -84.072846999999996, 
            "state": "MI", 
            "street": "146 N. Grand Ave.", 
            "latitude": 42.661602999999999
          }
        }, 
        {
          "category": "Local business", 
          "name": "Kim's Nail Design", 
          "id": "154272617971515", 
          "category_list": [
            {
              "id": "169758603141095", 
              "name": "Barber Shop"
            }, 
            {
              "id": "198516863494646", 
              "name": "Nail Salon"
            }, 
            {
              "id": "199236533423806", 
              "name": "Beauty Salon"
            }
          ], 
          "location": {
            "latitude": 43.212491719829004, 
            "street": "", 
            "zip": "", 
            "longitude": -77.718448450202004
          }
        }, 
        {
          "category": "Local business", 
          "name": "Kim's Barber Shop", 
          "id": "100496830011261", 
          "category_list": [
            {
              "id": "174177802634376", 
              "name": "Hair Salon"
            }, 
            {
              "id": "169758603141095", 
              "name": "Barber Shop"
            }
          ], 
          "location": {
            "city": "Killeen", 
            "zip": "76541-3423", 
            "country": "United States", 
            "longitude": -97.728256000000002, 
            "state": "TX", 
            "street": "100 E Rancier Ave", 
            "latitude": 31.126456999999998
          }
        }, 
        {
          "category": "Health/beauty", 
          "name": "Kim's Cuts", 
          "id": "471642509573037", 
          "category_list": [
            {
              "id": "169758603141095", 
              "name": "Barber Shop"
            }
          ], 
          "location": {
            "city": "Tring", 
            "zip": "HP23 5AG", 
            "country": "United Kingdom", 
            "longitude": -0.65859062428299997, 
            "state": "", 
            "street": "58 High Street", 
            "latitude": 51.794533975900002
          }
        }, 
        {
          "category": "Local business", 
          "name": "Kim's Barbers Shop", 
          "id": "107435299313362", 
          "category_list": [
            {
              "id": "174177802634376", 
              "name": "Hair Salon"
            }, 
            {
              "id": "169758603141095", 
              "name": "Barber Shop"
            }
          ], 
          "location": {
            "city": "Goodyear", 
            "zip": "85338-1116", 
            "country": "United States", 
            "longitude": -112.342738113, 
            "state": "AZ", 
            "street": "330 N Dysart Rd", 
            "latitude": 33.450265804200001
          }
        }, 
        {
          "category": "Local business", 
          "name": "Kim's Barber & Style Shop", 
          "id": "152630518081260", 
          "category_list": [
            {
              "id": "174177802634376", 
              "name": "Hair Salon"
            }
          ], 
          "location": {
            "city": "Erwin", 
            "zip": "28339-9623", 
            "country": "United States", 
            "longitude": -78.672325000000001, 
            "state": "NC", 
            "street": "204 E Jackson Blvd", 
            "latitude": 35.335006
          }
        }, 
        {
          "category": "Local business", 
          "name": "Kim Nails", 
          "id": "126817157368142", 
          "category_list": [
            {
              "id": "169758603141095", 
              "name": "Barber Shop"
            }, 
            {
              "id": "198516863494646", 
              "name": "Nail Salon"
            }
          ], 
          "location": {
            "city": "Anaheim", 
            "zip": "92801", 
            "country": "United States", 
            "longitude": -117.97985448077, 
            "state": "CA", 
            "street": "2703 W Lincoln Ave", 
            "latitude": 33.832581097747997
          }
        }, 
        {
          "category": "Health/beauty", 
          "name": "Kim's Hairextensions & Spray tanning", 
          "id": "224917124258653", 
          "category_list": [
            {
              "id": "169758603141095", 
              "name": "Barber Shop"
            }, 
            {
              "id": "199236533423806", 
              "name": "Beauty Salon"
            }, 
            {
              "id": "200814353265561", 
              "name": "Spa"
            }
          ], 
          "location": {
            "city": "Doesburg", 
            "zip": "6981DN", 
            "country": "Netherlands", 
            "longitude": 6.1375024762399999, 
            "state": "", 
            "street": "Zandbergstraat 1", 
            "latitude": 52.013827473399999
          }
        }, 
        {
          "category": "Local business", 
          "name": "Torrance Kim's Barber Shop", 
          "id": "107132172677841", 
          "category_list": [
            {
              "id": "174177802634376", 
              "name": "Hair Salon"
            }
          ], 
          "location": {
            "city": "Torrance", 
            "zip": "90505-2705", 
            "country": "United States", 
            "longitude": -118.33972900000001, 
            "state": "CA", 
            "street": "22510 Maple Ave", 
            "latitude": 33.823867
          }
        }, 
        {
          "category": "Spas/beauty/personal care", 
          "name": "Kim's hairstyle molenhoek", 
          "id": "162238753974822", 
          "category_list": [
            {
              "id": "169758603141095", 
              "name": "Barber Shop"
            }, 
            {
              "id": "174177802634376", 
              "name": "Hair Salon"
            }
          ], 
          "location": {
            "city": "Molenhoek", 
            "zip": "6584GG", 
            "country": "Netherlands", 
            "longitude": 5.8766741864399998, 
            "state": "", 
            "street": "Hoeveveld 46", 
            "latitude": 51.7648419366
          }
        }, 
        {
          "category": "Spas/beauty/personal care", 
          "name": "Kim at King Arthur's Barber Shop", 
          "id": "189432944511740", 
          "category_list": [
            {
              "id": "139225689474222", 
              "name": "Spa, Beauty & Personal Care"
            }
          ], 
          "location": {
            "city": "Jacksonville", 
            "zip": "32225", 
            "country": "United States", 
            "longitude": -81.535127000000003, 
            "state": "FL", 
            "street": "10230 Atlantic Blv. #4", 
            "latitude": 30.322517000000001
          }
        }, 
        {
          "category": "Local business", 
          "name": "J Kim Barber Shop", 
          "id": "147728815246756", 
          "category_list": [
            {
              "id": "174177802634376", 
              "name": "Hair Salon"
            }
          ], 
          "location": {
            "city": "Los Angeles", 
            "zip": "90005-1901", 
            "country": "United States", 
            "longitude": -118.294713, 
            "state": "CA", 
            "street": "3116 W 8th St", 
            "latitude": 34.057588000000003
          }
        }, 
        {
          "category": "Local business", 
          "name": "Kim C Barber Shop", 
          "id": "152907614761553", 
          "category_list": [
            {
              "id": "174177802634376", 
              "name": "Hair Salon"
            }
          ], 
          "location": {
            "city": "Fredericksburg", 
            "zip": "22406", 
            "country": "United States", 
            "longitude": -77.506564988199997, 
            "state": "VA", 
            "street": "", 
            "latitude": 38.353853965100001
          }
        }, 
        {
          "category": "Professional services", 
          "name": "Kim's Styling Corner", 
          "id": "432162636873634", 
          "category_list": [
            {
              "id": "169758603141095", 
              "name": "Barber Shop"
            }, 
            {
              "id": "199236533423806", 
              "name": "Beauty Salon"
            }
          ], 
          "location": {
            "city": "Diessenhofen", 
            "zip": "8253", 
            "country": "Switzerland", 
            "longitude": 8.7502799135741007, 
            "state": "", 
            "street": "Basadingerstrasse 17", 
            "latitude": 47.687223914108003
          }
        }, 
        {
          "category": "Local business", 
          "name": "Kim's Clipper", 
          "id": "149784825046167", 
          "category_list": [
            {
              "id": "169758603141095", 
              "name": "Barber Shop"
            }
          ], 
          "location": {
            "city": "Lakewood", 
            "zip": "98499", 
            "country": "United States", 
            "longitude": -122.483602185, 
            "state": "WA", 
            "street": "", 
            "latitude": 47.161683511
          }
        }, 
        {
          "category": "Local business", 
          "name": "Kim's Beauty Co", 
          "id": "115563705140149", 
          "category_list": [
            {
              "id": "169758603141095", 
              "name": "Barber Shop"
            }, 
            {
              "id": "199236533423806", 
              "name": "Beauty Salon"
            }, 
            {
              "id": "187133811318958", 
              "name": "Business Services"
            }
          ], 
          "location": {
            "city": "Philadelphia", 
            "zip": "19125-1322", 
            "country": "United States", 
            "longitude": -75.128196935600002, 
            "state": "PA", 
            "street": "2552 Kensington Ave", 
            "latitude": 39.988422394300002
          }
        }, 
        {
          "category": "Local business", 
          "name": "Kim's Nail Salon", 
          "id": "192889127409213", 
          "category_list": [
            {
              "id": "169758603141095", 
              "name": "Barber Shop"
            }, 
            {
              "id": "199236533423806", 
              "name": "Beauty Salon"
            }, 
            {
              "id": "198516863494646", 
              "name": "Nail Salon"
            }
          ], 
          "location": {
            "city": "Brooklyn", 
            "zip": "11208", 
            "country": "United States", 
            "longitude": -73.876597094600001, 
            "state": "NY", 
            "street": "", 
            "latitude": 40.674644235800002
          }
        }, 
        {
          "category": "Local business", 
          "name": "Vo Kim", 
          "id": "158561600842400", 
          "category_list": [
            {
              "id": "169758603141095", 
              "name": "Barber Shop"
            }
          ], 
          "location": {
            "city": "Beverly Hills", 
            "zip": "90210-4701", 
            "country": "United States", 
            "longitude": -118.398912827, 
            "state": "CA", 
            "street": "348 N Beverly Dr", 
            "latitude": 34.067835513699997
          }
        }, 
        {
          "category": "Local business", 
          "name": "Kim Vo Salon", 
          "id": "434462719982704", 
          "category_list": [
            {
              "id": "169758603141095", 
              "name": "Barber Shop"
            }
          ], 
          "location": {
            "city": "Las Vegas", 
            "zip": "", 
            "country": "United States", 
            "longitude": -115.193918231, 
            "state": "NV", 
            "street": "", 
            "latitude": 36.114487527100003
          }
        }, 
        {
          "category": "Spas/beauty/personal care", 
          "name": "Magic Hair by Kim", 
          "id": "1440284796184012", 
          "category_list": [
            {
              "id": "169758603141095", 
              "name": "Barber Shop"
            }
          ], 
          "location": {
            "city": "Lostau", 
            "zip": "", 
            "country": "Germany", 
            "longitude": 11.752192000000001, 
            "state": "", 
            "street": "", 
            "latitude": 52.207557999999999
          }
        }, 
        {
          "category": "Business services", 
          "name": "Coiffeur Kim", 
          "id": "660454157303910", 
          "category_list": [
            {
              "id": "169758603141095", 
              "name": "Barber Shop"
            }
          ], 
          "location": {
            "city": "M\u00f6nchengladbach", 
            "zip": "41061", 
            "country": "Germany", 
            "longitude": 6.4527489999999998, 
            "state": "", 
            "street": "Hindenburgstra\u00dfe 357", 
            "latitude": 51.202311000000002
          }
        }, 
        {
          "category": "Local business", 
          "name": "Mobile Unisex Barber KIM", 
          "id": "400891640012344", 
          "category_list": [
            {
              "id": "169758603141095", 
              "name": "Barber Shop"
            }
          ], 
          "location": {
            "city": "Wythenshawe", 
            "zip": "BL31ST", 
            "country": "United Kingdom", 
            "longitude": -2.26667, 
            "street": "BOLTON,BURY,ROCHDALE,FARNWORTH,HORWICH ", 
            "latitude": 53.399999999999999
          }
        }, 
        {
          "category": "Spas/beauty/personal care", 
          "name": "Salon Kim Gerling  \"bis in die Spitzen\"", 
          "id": "117198635075616", 
          "category_list": [
            {
              "id": "169758603141095", 
              "name": "Barber Shop"
            }, 
            {
              "id": "181550638549454", 
              "name": "Hairpieces & Extensions"
            }, 
            {
              "id": "191693100854505", 
              "name": "Hair & Beauty Supply"
            }
          ], 
          "location": {
            "city": "Ettringen", 
            "zip": "56729", 
            "country": "Germany", 
            "longitude": 7.2187081334099998, 
            "state": "", 
            "street": "Bauersweg 28a", 
            "latitude": 50.356779916199997
          }
        }, 
        {
          "category": "Spas/beauty/personal care", 
          "name": "Kim Schiltz at Authentic You Salon & Studio", 
          "id": "121310384556343", 
          "category_list": [
            {
              "id": "139225689474222", 
              "name": "Spa, Beauty & Personal Care"
            }
          ], 
          "location": {
            "city": "Omaha", 
            "zip": "68144", 
            "country": "United States", 
            "longitude": -96.120885999999999, 
            "state": "NE", 
            "street": "2514 S 132nd Ct", 
            "latitude": 41.236007999999998
          }
        }, 
        {
          "category": "Local business", 
          "name": "Kim Nail & Spa", 
          "id": "175612512461217", 
          "category_list": [
            {
              "id": "169758603141095", 
              "name": "Barber Shop"
            }, 
            {
              "id": "198516863494646", 
              "name": "Nail Salon"
            }
          ], 
          "location": {
            "city": "Savannah", 
            "zip": "31419", 
            "country": "United States", 
            "longitude": -81.222894307600001, 
            "state": "GA", 
            "street": "", 
            "latitude": 31.983875694799998
          }
        }, 
        {
          "category": "Company", 
          "name": "Kim, uw kapster at home", 
          "id": "192724380931218", 
          "category_list": [
            {
              "id": "169758603141095", 
              "name": "Barber Shop"
            }
          ], 
          "location": {
            "city": "Dordrecht", 
            "zip": "3317ra", 
            "country": "Netherlands", 
            "longitude": 4.664495011044, 
            "state": "", 
            "street": "kranenburgstraat 24", 
            "latitude": 51.792258492681
          }
        }, 
        {
          "category": "Local business", 
          "name": "Kims Barber Shop", 
          "id": "143013182399394", 
          "category_list": [
            {
              "id": "174177802634376", 
              "name": "Hair Salon"
            }
          ], 
          "location": {
            "city": "Bakersfield", 
            "zip": "93313-9510", 
            "country": "United States", 
            "longitude": -119.034988, 
            "state": "CA", 
            "street": "2900 Taft Hwy", 
            "latitude": 35.267082000000002
          }
        }, 
        {
          "category": "Spas/beauty/personal care", 
          "name": "Kim at Cal-Pine on the Avenue Barbershop", 
          "id": "200254216790206", 
          "category_list": [
            {
              "id": "169758603141095", 
              "name": "Barber Shop"
            }
          ], 
          "location": {
            "city": "Stockton", 
            "zip": "95204", 
            "country": "United States", 
            "longitude": -121.299532, 
            "state": "CA", 
            "street": "2008 Pacific Ave.", 
            "latitude": 37.970702000000003
          }
        }, 
        {
          "category": "Local business", 
          "name": "kims+nails", 
          "id": "207376119296900", 
          "category_list": [
            {
              "id": "169758603141095", 
              "name": "Barber Shop"
            }, 
            {
              "id": "144873802247220", 
              "name": "Cosmetics & Beauty Supply"
            }, 
            {
              "id": "198516863494646", 
              "name": "Nail Salon"
            }
          ], 
          "location": {
            "city": "Caldwell", 
            "zip": "07006", 
            "country": "United States", 
            "longitude": -74.277381906100004, 
            "state": "NJ", 
            "street": "", 
            "latitude": 40.840439249699998
          }
        }
      ]
    }
  }, 
  {
    "business_name": "Lucky Lou's", 
    "business_id": "eqdEOyNbEvl-Gne_w3_0jw", 
    "fb_pages": {
      "paging": {
        "next": "https://graph.facebook.com/search?type=place&access_token=229546593895315|yPLlHqq6YvDLIH4nL0kjJtIFSlU&limit=5000&offset=5000&__after_id=161890300495831"
      }, 
      "data": [
        {
          "category": "Restaurant/cafe", 
          "name": "Lucky Lou's Bar & Grill", 
          "id": "317005795195", 
          "category_list": [
            {
              "id": "273819889375819", 
              "name": "Restaurant"
            }
          ], 
          "location": {
            "city": "Wethersfield", 
            "zip": "06109", 
            "country": "United States", 
            "longitude": -72.652552875981996, 
            "state": "CT", 
            "street": "222 Main Street", 
            "latitude": 41.712363554500001
          }
        }, 
        {
          "category": "Local business", 
          "name": "Lucky Lou's", 
          "id": "414800405226463", 
          "category_list": [
            {
              "id": "2500", 
              "name": "Local Business"
            }
          ], 
          "location": {
            "city": "Mesa", 
            "zip": "85207", 
            "country": "United States", 
            "longitude": -111.682411715, 
            "state": "AZ", 
            "street": "", 
            "latitude": 33.451105386199998
          }
        }, 
        {
          "category": "Local business", 
          "name": "Lucky Lou's Bar And Grill", 
          "id": "233442076710855", 
          "category_list": [
            {
              "id": "273819889375819", 
              "name": "Restaurant"
            }, 
            {
              "id": "110290705711626", 
              "name": "Bar"
            }
          ], 
          "location": {
            "city": "Berlin", 
            "zip": "08009", 
            "country": "United States", 
            "longitude": -74.922117778924999, 
            "state": "NJ", 
            "street": "White Horse Pike", 
            "latitude": 39.785949121982
          }
        }, 
        {
          "category": "Shopping/retail", 
          "name": "Lucky Lou's", 
          "id": "334401499927533", 
          "category_list": [
            {
              "id": "200600219953504", 
              "name": "Shopping & Retail"
            }
          ], 
          "location": {
            "city": "Annapolis Royal", 
            "zip": "B0S 1A0", 
            "country": "Canada", 
            "longitude": -65.506961000000004, 
            "state": "NS", 
            "street": "286 St. George St.", 
            "latitude": 44.725561200000001
          }
        }, 
        {
          "category": "Restaurant/cafe", 
          "name": "Lucky Lous", 
          "id": "315267184645", 
          "category_list": [
            {
              "id": "149803325077018", 
              "name": "American Restaurant"
            }
          ], 
          "location": {
            "city": "Chandler", 
            "zip": "85226", 
            "country": "United States", 
            "longitude": -111.89756199161, 
            "state": "AZ", 
            "street": "3245 W. Ray Rd", 
            "latitude": 33.319847540247999
          }
        }, 
        {
          "category": "Restaurant/cafe", 
          "name": "Lou's Lucky 7", 
          "id": "476102579084632", 
          "category_list": [
            {
              "id": "197871390225897", 
              "name": "Cafe"
            }, 
            {
              "id": "135930436481618", 
              "name": "Lounge"
            }
          ], 
          "location": {
            "city": "Brooklyn", 
            "zip": "11215", 
            "country": "United States", 
            "longitude": -73.982882000000004, 
            "state": "NY", 
            "street": "396 6th Ave", 
            "latitude": 40.669552000000003
          }
        }, 
        {
          "category": "Local business", 
          "name": "Lucky Lou \u5e78\u8fd0\u697c", 
          "id": "487846227936760", 
          "category_list": [
            {
              "id": "174483852595760", 
              "name": "Chinese Restaurant"
            }
          ], 
          "location": {
            "city": "Indianapolis", 
            "zip": "46222", 
            "country": "United States", 
            "longitude": -86.227685197, 
            "state": "IN", 
            "street": "", 
            "latitude": 39.818994525699999
          }
        }, 
        {
          "category": "Local business", 
          "name": "Lucky Lou", 
          "id": "437698289680040", 
          "category_list": [
            {
              "id": "165679780146824", 
              "name": "Food & Restaurant"
            }
          ], 
          "location": {
            "city": "Indianapolis", 
            "zip": "46254", 
            "country": "United States", 
            "longitude": -86.228285999999997, 
            "state": "IN", 
            "street": "3623 Commercial Drivr ", 
            "latitude": 39.819541999999998
          }
        }, 
        {
          "category": "Local business", 
          "name": "Lucky Lou's Tattoos", 
          "id": "169297479756864", 
          "category_list": [
            {
              "id": "196188420407122", 
              "name": "Tattoo & Piercing"
            }
          ], 
          "location": {
            "city": "Atlantic City", 
            "zip": "08401", 
            "country": "United States", 
            "longitude": -74.427763858199995, 
            "state": "NJ", 
            "street": "1543 Kentucky and Boardwalk", 
            "latitude": 39.356854171599998
          }
        }, 
        {
          "category": "Local business", 
          "name": "Lou's Lucky Stop", 
          "id": "117501431600921", 
          "category_list": [
            {
              "id": "150534008338515", 
              "name": "Barbecue Restaurant"
            }, 
            {
              "id": "110290705711626", 
              "name": "Bar"
            }, 
            {
              "id": "200600219953504", 
              "name": "Shopping & Retail"
            }
          ], 
          "location": {
            "city": "Blue Island", 
            "zip": "60406-2215", 
            "country": "United States", 
            "longitude": -87.667738, 
            "state": "IL", 
            "street": "12801 Lincoln St", 
            "latitude": 41.660874
          }
        }, 
        {
          "category": "Local business", 
          "name": "Lucky Lou's Deli", 
          "id": "113697225331597", 
          "category_list": [
            {
              "id": "273819889375819", 
              "name": "Restaurant"
            }
          ], 
          "location": {
            "city": "Springfield", 
            "zip": "97478-6223", 
            "country": "United States", 
            "longitude": -122.962898, 
            "state": "OR", 
            "street": "4215 Main St", 
            "latitude": 44.045634999999997
          }
        }, 
        {
          "category": "Food/grocery", 
          "name": "Lucky Nickel Ranch Inc.", 
          "id": "116838575032297", 
          "category_list": [
            {
              "id": "176831012360626", 
              "name": "Professional Services"
            }, 
            {
              "id": "176527262444235", 
              "name": "Farmers Market"
            }
          ], 
          "location": {
            "city": "Eloy", 
            "zip": "85131", 
            "country": "United States", 
            "longitude": -111.56076, 
            "state": "AZ", 
            "street": "7361 S. Linda Lou Rd", 
            "latitude": 32.812921000000003
          }
        }, 
        {
          "category": "Local business", 
          "name": "Lucky Lou's Bistro", 
          "id": "104311662953647", 
          "category_list": [
            {
              "id": "273819889375819", 
              "name": "Restaurant"
            }
          ], 
          "location": {
            "city": "Vernon", 
            "zip": "V1T2B9", 
            "country": "Canada", 
            "longitude": -119.271, 
            "state": "BC", 
            "street": "3024 30 Ave", 
            "latitude": 50.263599999999997
          }
        }, 
        {
          "category": "Sports/recreation/activities", 
          "name": "Lucky Lou's Fishing Charters", 
          "id": "129158033950263", 
          "category_list": [
            {
              "id": "175333089178368", 
              "name": "Hunting and Fishing"
            }
          ], 
          "location": {
            "city": "Guilford", 
            "zip": "06437", 
            "country": "United States", 
            "longitude": -72.666381999999999, 
            "state": "CT", 
            "street": "505 Whitfield st", 
            "latitude": 41.271740000000001
          }
        }, 
        {
          "category": "Local business", 
          "name": "Lucky Lou's Backyard BBQ's", 
          "id": "166646306028", 
          "category_list": [
            {
              "id": "273819889375819", 
              "name": "Restaurant"
            }
          ], 
          "location": {
            "city": "Lake Zurich", 
            "zip": "60047", 
            "country": "United States", 
            "longitude": -88.093890999999999, 
            "state": "IL", 
            "street": "870 June Terrace #210", 
            "latitude": 42.191040000000001
          }
        }, 
        {
          "category": "Local business", 
          "name": "Lucky Lou Thrift", 
          "id": "161890300495831", 
          "category_list": [
            {
              "id": "183205338384747", 
              "name": "Discount Store"
            }
          ], 
          "location": {
            "city": "Paradise", 
            "zip": "95969-4544", 
            "country": "United States", 
            "longitude": -121.62618999999999, 
            "state": "CA", 
            "street": "6202 Skyway", 
            "latitude": 39.755718000000002
          }
        }
      ]
    }
  }, 
  {
    "business_name": "Queen's Bowl Chinese Food", 
    "business_id": "Unk6ToZjPfHBPWiGOwqVeA", 
    "fb_pages": {
      "paging": {
        "next": "https://graph.facebook.com/search?type=place&access_token=229546593895315|yPLlHqq6YvDLIH4nL0kjJtIFSlU&limit=5000&offset=5000&__after_id=121995801144532"
      }, 
      "data": [
        {
          "category": "Local business", 
          "name": "Queen's Bowl Chinese Food", 
          "id": "121995801144532", 
          "category_list": [
            {
              "id": "174483852595760", 
              "name": "Chinese Restaurant"
            }
          ], 
          "location": {
            "city": "Chandler", 
            "zip": "85226-3443", 
            "country": "United States", 
            "longitude": -111.950186, 
            "state": "AZ", 
            "street": "6245 W Chandler Blvd", 
            "latitude": 33.305115999999998
          }
        }
      ]
    }
  }, 
  {
    "business_name": "Rainbow Donuts", 
    "business_id": "2DmNeO4CwPWj27QBbq_mfg", 
    "fb_pages": {
      "paging": {
        "next": "https://graph.facebook.com/search?type=place&access_token=229546593895315|yPLlHqq6YvDLIH4nL0kjJtIFSlU&limit=5000&offset=5000&__after_id=217358194996513"
      }, 
      "data": [
        {
          "category": "Local business", 
          "name": "Rainbow Donuts", 
          "id": "115640938465491", 
          "category_list": [
            {
              "id": "124818864257882", 
              "name": "Donuts & Bagels"
            }, 
            {
              "id": "273819889375819", 
              "name": "Restaurant"
            }
          ], 
          "location": {
            "city": "Gardena", 
            "zip": "90247-3400", 
            "country": "United States", 
            "longitude": -118.29712354076, 
            "state": "CA", 
            "street": "1242 W Redondo Beach Blvd", 
            "latitude": 33.892022794443001
          }
        }, 
        {
          "category": "Local business", 
          "name": "Rainbow Donuts", 
          "id": "109626019072954", 
          "category_list": [
            {
              "id": "273819889375819", 
              "name": "Restaurant"
            }, 
            {
              "id": "124818864257882", 
              "name": "Donuts & Bagels"
            }
          ], 
          "location": {
            "city": "Phoenix", 
            "zip": "85031-2714", 
            "country": "United States", 
            "longitude": -112.167146155, 
            "state": "AZ", 
            "street": "5001 W Indian School Rd", 
            "latitude": 33.494693418099999
          }
        }, 
        {
          "category": "Local business", 
          "name": "Rainbow Donuts", 
          "id": "104935102883268", 
          "category_list": [
            {
              "id": "273819889375819", 
              "name": "Restaurant"
            }, 
            {
              "id": "124818864257882", 
              "name": "Donuts & Bagels"
            }
          ], 
          "location": {
            "city": "Garden Grove", 
            "zip": "92843-3121", 
            "country": "United States", 
            "longitude": -117.95474283999999, 
            "state": "CA", 
            "street": "13812 Brookhurst St", 
            "latitude": 33.761771464299997
          }
        }, 
        {
          "category": "Local business", 
          "name": "Rainbow Donuts and Ice Cream", 
          "id": "192403730772860", 
          "category_list": [
            {
              "id": "273819889375819", 
              "name": "Restaurant"
            }, 
            {
              "id": "200863816597800", 
              "name": "Ice Cream Parlor"
            }, 
            {
              "id": "150108431712141", 
              "name": "Food & Grocery"
            }
          ], 
          "location": {
            "city": "Lake Isabella", 
            "zip": "93240", 
            "country": "United States", 
            "longitude": -118.476672491, 
            "state": "CA", 
            "street": "", 
            "latitude": 35.618658064400002
          }
        }, 
        {
          "category": "Local business", 
          "name": "Rainbow Donuts", 
          "id": "121044507911053", 
          "category_list": [
            {
              "id": "124818864257882", 
              "name": "Donuts & Bagels"
            }, 
            {
              "id": "273819889375819", 
              "name": "Restaurant"
            }
          ], 
          "location": {
            "city": "Westminster", 
            "zip": "92683-3622", 
            "country": "United States", 
            "longitude": -118.01607804, 
            "state": "CA", 
            "street": "6486 Westminster Blvd", 
            "latitude": 33.758375132799998
          }
        }, 
        {
          "category": "Restaurant/cafe", 
          "name": "Rainbow Donuts", 
          "id": "248984579856", 
          "category_list": [
            {
              "id": "188334264523313", 
              "name": "Deli"
            }, 
            {
              "id": "124818864257882", 
              "name": "Donuts & Bagels"
            }
          ], 
          "location": {
            "city": "Cerritos", 
            "zip": "90703", 
            "country": "United States", 
            "longitude": -118.08115599999999, 
            "state": "CA", 
            "street": "11825 South St", 
            "latitude": 33.858645000000003
          }
        }, 
        {
          "category": "Restaurant/cafe", 
          "name": "Rainbow Donuts", 
          "id": "156714037700151", 
          "category_list": [
            {
              "id": "273819889375819", 
              "name": "Restaurant"
            }, 
            {
              "id": "124818864257882", 
              "name": "Donuts & Bagels"
            }, 
            {
              "id": "128673187201735", 
              "name": "Coffee Shop"
            }
          ], 
          "location": {
            "city": "Phoenix", 
            "zip": "85032 ", 
            "country": "United States", 
            "longitude": -112.03121053975001, 
            "state": "AZ", 
            "street": "15834 N. Cave Creek Rd. ", 
            "latitude": 33.629893125368
          }
        }, 
        {
          "category": "Local business", 
          "name": "Rainbow Donuts", 
          "id": "120401424643216", 
          "category_list": [
            {
              "id": "273819889375819", 
              "name": "Restaurant"
            }, 
            {
              "id": "124818864257882", 
              "name": "Donuts & Bagels"
            }
          ], 
          "location": {
            "city": "Wylie", 
            "zip": "75098-3658", 
            "country": "United States", 
            "longitude": -96.536277999999996, 
            "state": "TX", 
            "street": "101 S 2nd St", 
            "latitude": 33.013824
          }
        }, 
        {
          "category": "Local business", 
          "name": "Rainbow Donuts", 
          "id": "115773928445433", 
          "category_list": [
            {
              "id": "273819889375819", 
              "name": "Restaurant"
            }, 
            {
              "id": "124818864257882", 
              "name": "Donuts & Bagels"
            }
          ], 
          "location": {
            "city": "Diamond Bar", 
            "zip": "91765-4122", 
            "country": "United States", 
            "longitude": -117.812625, 
            "state": "CA", 
            "street": "1271 S Diamond Bar Blvd", 
            "latitude": 33.998840999999999
          }
        }, 
        {
          "category": "Local business", 
          "name": "Rainbow Donuts", 
          "id": "113827241982869", 
          "category_list": [
            {
              "id": "124818864257882", 
              "name": "Donuts & Bagels"
            }, 
            {
              "id": "273819889375819", 
              "name": "Restaurant"
            }
          ], 
          "location": {
            "city": "Riverside", 
            "zip": "92505-3066", 
            "country": "United States", 
            "longitude": -117.47608200000001, 
            "state": "CA", 
            "street": "3758 La Sierra Ave", 
            "latitude": 33.902683000000003
          }
        }, 
        {
          "category": "Restaurant/cafe", 
          "name": "Rainbow Donuts Norwalk", 
          "id": "100660156691873", 
          "category_list": [
            {
              "id": "192108214153222", 
              "name": "Breakfast & Brunch Restaurant"
            }, 
            {
              "id": "192803624072087", 
              "name": "Fast Food Restaurant"
            }, 
            {
              "id": "188334264523313", 
              "name": "Deli"
            }
          ], 
          "location": {
            "city": "Norwalk", 
            "zip": "90650", 
            "country": "United States", 
            "longitude": -118.069665, 
            "state": "CA", 
            "street": "12307 Imperial Hwy", 
            "latitude": 33.91733
          }
        }, 
        {
          "category": "Local business", 
          "name": "Rainbow Donuts", 
          "id": "120672501280150", 
          "category_list": [
            {
              "id": "124818864257882", 
              "name": "Donuts & Bagels"
            }, 
            {
              "id": "273819889375819", 
              "name": "Restaurant"
            }
          ], 
          "location": {
            "city": "Phoenix", 
            "zip": "85006-2602", 
            "country": "United States", 
            "longitude": -112.05229050372, 
            "state": "AZ", 
            "street": "1347 E Mcdowell Rd", 
            "latitude": 33.465551687606002
          }
        }, 
        {
          "category": "Local business", 
          "name": "Rainbow Donuts", 
          "id": "115551838467660", 
          "category_list": [
            {
              "id": "273819889375819", 
              "name": "Restaurant"
            }, 
            {
              "id": "187827497907070", 
              "name": "Bakery"
            }, 
            {
              "id": "124818864257882", 
              "name": "Donuts & Bagels"
            }
          ], 
          "location": {
            "city": "Berkeley", 
            "zip": "94702-1613", 
            "country": "United States", 
            "longitude": -122.291573, 
            "state": "CA", 
            "street": "2025 San Pablo Ave", 
            "latitude": 37.868713
          }
        }, 
        {
          "category": "Local business", 
          "name": "Rainbow Donuts", 
          "id": "108141549228230", 
          "category_list": [
            {
              "id": "187827497907070", 
              "name": "Bakery"
            }, 
            {
              "id": "273819889375819", 
              "name": "Restaurant"
            }, 
            {
              "id": "124818864257882", 
              "name": "Donuts & Bagels"
            }
          ], 
          "location": {
            "city": "Tomball", 
            "zip": "77377-5502", 
            "country": "United States", 
            "longitude": -95.633904000000001, 
            "state": "TX", 
            "street": "14040 Fm 2920 Rd", 
            "latitude": 30.089639999999999
          }
        }, 
        {
          "category": "Local business", 
          "name": "Rainbow Donuts", 
          "id": "111576175546624", 
          "category_list": [
            {
              "id": "197871390225897", 
              "name": "Cafe"
            }, 
            {
              "id": "124818864257882", 
              "name": "Donuts & Bagels"
            }
          ], 
          "location": {
            "city": "Saint Paul", 
            "zip": "55104-4866", 
            "country": "United States", 
            "longitude": -93.130346000000003, 
            "state": "MN", 
            "street": "712 University Ave W Ste B2", 
            "latitude": 44.95552
          }
        }, 
        {
          "category": "Local business", 
          "name": "Rainbow Donuts", 
          "id": "111825992185822", 
          "category_list": [
            {
              "id": "273819889375819", 
              "name": "Restaurant"
            }, 
            {
              "id": "124818864257882", 
              "name": "Donuts & Bagels"
            }
          ], 
          "location": {
            "city": "Huntington Park", 
            "zip": "90255-4794", 
            "country": "United States", 
            "longitude": -118.226856, 
            "state": "CA", 
            "street": "2521 E Florence Ave Ste A1", 
            "latitude": 33.974670000000003
          }
        }, 
        {
          "category": "Local business", 
          "name": "Rainbow Donuts", 
          "id": "117793978240140", 
          "category_list": [
            {
              "id": "273819889375819", 
              "name": "Restaurant"
            }, 
            {
              "id": "124818864257882", 
              "name": "Donuts & Bagels"
            }
          ], 
          "location": {
            "city": "Garland", 
            "zip": "75041-5264", 
            "country": "United States", 
            "longitude": -96.649010000000004, 
            "state": "TX", 
            "street": "1401 Northwest Hwy", 
            "latitude": 32.864750000000001
          }
        }, 
        {
          "category": "Local business", 
          "name": "Rainbow Donuts", 
          "id": "159092250791210", 
          "category_list": [
            {
              "id": "273819889375819", 
              "name": "Restaurant"
            }, 
            {
              "id": "124818864257882", 
              "name": "Donuts & Bagels"
            }
          ], 
          "location": {
            "city": "Lynwood", 
            "zip": "90262-1600", 
            "country": "United States", 
            "longitude": -118.214642, 
            "state": "CA", 
            "street": "10397 Long Beach Blvd", 
            "latitude": 33.939815000000003
          }
        }, 
        {
          "category": "Local business", 
          "name": "Rainbow Donuts", 
          "id": "108198272555269", 
          "category_list": [
            {
              "id": "124818864257882", 
              "name": "Donuts & Bagels"
            }, 
            {
              "id": "273819889375819", 
              "name": "Restaurant"
            }, 
            {
              "id": "200863816597800", 
              "name": "Ice Cream Parlor"
            }
          ], 
          "location": {
            "city": "South Gate", 
            "zip": "90280-2017", 
            "country": "United States", 
            "longitude": -118.222041, 
            "state": "CA", 
            "street": "8536 Long Beach Blvd", 
            "latitude": 33.959763000000002
          }
        }, 
        {
          "category": "Local business", 
          "name": "Rainbow Donuts", 
          "id": "111785925518769", 
          "category_list": [
            {
              "id": "187827497907070", 
              "name": "Bakery"
            }, 
            {
              "id": "273819889375819", 
              "name": "Restaurant"
            }, 
            {
              "id": "124818864257882", 
              "name": "Donuts & Bagels"
            }
          ], 
          "location": {
            "city": "Anaheim", 
            "zip": "92801-6129", 
            "country": "United States", 
            "longitude": -117.99365089600001, 
            "state": "CA", 
            "street": "3000 W Lincoln Ave", 
            "latitude": 33.831514066799997
          }
        }, 
        {
          "category": "Restaurant/cafe", 
          "name": "Rainbow Donuts Cafe", 
          "id": "47480623873", 
          "category_list": [
            {
              "id": "187827497907070", 
              "name": "Bakery"
            }, 
            {
              "id": "124818864257882", 
              "name": "Donuts & Bagels"
            }, 
            {
              "id": "128673187201735", 
              "name": "Coffee Shop"
            }
          ], 
          "location": {
            "city": "Phoenix", 
            "zip": "85020", 
            "country": "United States", 
            "longitude": -112.06556265634001, 
            "state": "AZ", 
            "street": "8714 N 7th St", 
            "latitude": 33.563462163154
          }
        }, 
        {
          "category": "Local business", 
          "name": "Rainbow Donuts", 
          "id": "115519768477566", 
          "category_list": [
            {
              "id": "273819889375819", 
              "name": "Restaurant"
            }, 
            {
              "id": "124818864257882", 
              "name": "Donuts & Bagels"
            }
          ], 
          "location": {
            "city": "Garland", 
            "zip": "75042-6668", 
            "country": "United States", 
            "longitude": -96.664928696800004, 
            "state": "TX", 
            "street": "2441 W Walnut St Ste 235", 
            "latitude": 32.9177764051
          }
        }, 
        {
          "category": "Local business", 
          "name": "Rainbow Donuts", 
          "id": "111929288844967", 
          "category_list": [
            {
              "id": "273819889375819", 
              "name": "Restaurant"
            }, 
            {
              "id": "124818864257882", 
              "name": "Donuts & Bagels"
            }
          ], 
          "location": {
            "city": "Plano", 
            "zip": "75074-6122", 
            "country": "United States", 
            "longitude": -96.698768999999999, 
            "state": "TX", 
            "street": "1730 K Ave", 
            "latitude": 33.023662999999999
          }
        }, 
        {
          "category": "Local business", 
          "name": "Rainbow Donuts", 
          "id": "265431683487377", 
          "category_list": [
            {
              "id": "273819889375819", 
              "name": "Restaurant"
            }, 
            {
              "id": "124818864257882", 
              "name": "Donuts & Bagels"
            }
          ], 
          "location": {
            "city": "Bakersfield", 
            "zip": "93304", 
            "country": "United States", 
            "longitude": -119.018688369, 
            "state": "CA", 
            "street": "", 
            "latitude": 35.353705822899997
          }
        }, 
        {
          "category": "Local business", 
          "name": "Rainbow Donuts", 
          "id": "111758645521525", 
          "category_list": [
            {
              "id": "124818864257882", 
              "name": "Donuts & Bagels"
            }, 
            {
              "id": "273819889375819", 
              "name": "Restaurant"
            }
          ], 
          "location": {
            "city": "West Covina", 
            "zip": "91791-4121", 
            "country": "United States", 
            "longitude": -117.90757293199999, 
            "state": "CA", 
            "street": "1432 S Azusa Ave", 
            "latitude": 34.047973798999998
          }
        }, 
        {
          "category": "Local business", 
          "name": "Rainbow Donuts", 
          "id": "120025771343603", 
          "category_list": [
            {
              "id": "273819889375819", 
              "name": "Restaurant"
            }, 
            {
              "id": "124818864257882", 
              "name": "Donuts & Bagels"
            }
          ], 
          "location": {
            "city": "Westminster", 
            "zip": "92683-4034", 
            "country": "United States", 
            "longitude": -117.992117308, 
            "state": "CA", 
            "street": "7852 Westminster Blvd", 
            "latitude": 33.758957978799998
          }
        }, 
        {
          "category": "Local business", 
          "name": "Rainbow Donuts And Filipino Delights", 
          "id": "247588911920047", 
          "category_list": [
            {
              "id": "2500", 
              "name": "Local Business"
            }
          ], 
          "location": {
            "city": "Stockton", 
            "zip": "95209", 
            "country": "United States", 
            "longitude": -121.35680975, 
            "state": "CA", 
            "street": "", 
            "latitude": 38.022786966699996
          }
        }, 
        {
          "category": "Local business", 
          "name": "Nancy's Rainbow Donuts", 
          "id": "111635472205007", 
          "category_list": [
            {
              "id": "124818864257882", 
              "name": "Donuts & Bagels"
            }, 
            {
              "id": "273819889375819", 
              "name": "Restaurant"
            }
          ], 
          "location": {
            "city": "Chicago", 
            "zip": "60625-5209", 
            "country": "United States", 
            "longitude": -87.708674000000002, 
            "state": "IL", 
            "street": "3204 W Lawrence Ave", 
            "latitude": 41.968614000000002
          }
        }, 
        {
          "category": "Local business", 
          "name": "Einstein Bros Bagels - Rainbow & Flamingo", 
          "id": "205943722752308", 
          "category_list": [
            {
              "id": "124818864257882", 
              "name": "Donuts & Bagels"
            }, 
            {
              "id": "273819889375819", 
              "name": "Restaurant"
            }, 
            {
              "id": "187827497907070", 
              "name": "Bakery"
            }
          ], 
          "location": {
            "city": "Las Vegas", 
            "zip": "89103", 
            "country": "United States", 
            "longitude": -115.242514001, 
            "state": "NV", 
            "street": "4010 S Rainbow Blvd Suite B", 
            "latitude": 36.116090478320999
          }
        }, 
        {
          "category": "Food/grocery", 
          "name": "Sweet Rainbow", 
          "id": "177159199120295", 
          "category_list": [
            {
              "id": "124818864257882", 
              "name": "Donuts & Bagels"
            }
          ], 
          "location": {
            "city": "Atizap\u00e1n", 
            "zip": "54570", 
            "country": "Mexico", 
            "longitude": -99.549999999999997, 
            "state": "", 
            "street": "", 
            "latitude": 19.25
          }
        }, 
        {
          "category": "Local business", 
          "name": "Rainbow Deli Donuts", 
          "id": "115701251792653", 
          "category_list": [
            {
              "id": "273819889375819", 
              "name": "Restaurant"
            }, 
            {
              "id": "124818864257882", 
              "name": "Donuts & Bagels"
            }
          ], 
          "location": {
            "city": "Mesquite", 
            "zip": "75150-3812", 
            "country": "United States", 
            "longitude": -96.644895000000005, 
            "state": "TX", 
            "street": "2727 Motley Dr", 
            "latitude": 32.801228999999999
          }
        }, 
        {
          "category": "Restaurant/cafe", 
          "name": "Rainbow Donut", 
          "id": "413200502085875", 
          "category_list": [
            {
              "id": "124818864257882", 
              "name": "Donuts & Bagels"
            }
          ], 
          "location": {
            "city": "Phoenix", 
            "zip": "85032", 
            "country": "United States", 
            "longitude": -111.998372034, 
            "state": "AZ", 
            "street": "3831 E. Thunderbird Road", 
            "latitude": 33.611701173500002
          }
        }, 
        {
          "category": "Local business", 
          "name": "Einstein Bros Bagels - I-215 & Rainbow", 
          "id": "196221533735556", 
          "category_list": [
            {
              "id": "124818864257882", 
              "name": "Donuts & Bagels"
            }, 
            {
              "id": "162264673824073", 
              "name": "Specialty Grocery Store"
            }, 
            {
              "id": "273819889375819", 
              "name": "Restaurant"
            }
          ], 
          "location": {
            "city": "Las Vegas", 
            "zip": "89118", 
            "country": "United States", 
            "longitude": -115.24162505295, 
            "state": "NV", 
            "street": "6870 S Rainbow Blvd, Suite 100", 
            "latitude": 36.063414841029001
          }
        }, 
        {
          "category": "Local business", 
          "name": "Rainbow Donut", 
          "id": "115417101814170", 
          "category_list": [
            {
              "id": "124818864257882", 
              "name": "Donuts & Bagels"
            }, 
            {
              "id": "273819889375819", 
              "name": "Restaurant"
            }
          ], 
          "location": {
            "city": "Phoenix", 
            "zip": "85009-4738", 
            "country": "United States", 
            "longitude": -112.13409799999999, 
            "state": "AZ", 
            "street": "3458 W Van Buren St Ste 103", 
            "latitude": 33.45176
          }
        }, 
        {
          "category": "Local business", 
          "name": "Rainbow Dounts", 
          "id": "100850519959365", 
          "category_list": [
            {
              "id": "124818864257882", 
              "name": "Donuts & Bagels"
            }, 
            {
              "id": "273819889375819", 
              "name": "Restaurant"
            }
          ], 
          "location": {
            "city": "Dallas", 
            "zip": "75217-2135", 
            "country": "United States", 
            "longitude": -96.678254584800001, 
            "state": "TX", 
            "street": "8302 Lake June Rd", 
            "latitude": 32.733915904500002
          }
        }, 
        {
          "category": "Local business", 
          "name": "Daylight Donuts", 
          "id": "176545119173586", 
          "category_list": [
            {
              "id": "124818864257882", 
              "name": "Donuts & Bagels"
            }
          ], 
          "location": {
            "city": "Rainbow City", 
            "zip": "35906", 
            "country": "United States", 
            "longitude": -86.040872116700001, 
            "state": "AL", 
            "street": "Rainbow Dr", 
            "latitude": 33.955398579200001
          }
        }, 
        {
          "category": "Local business", 
          "name": "Dunkin Donuts", 
          "id": "156440274435093", 
          "category_list": [
            {
              "id": "124818864257882", 
              "name": "Donuts & Bagels"
            }
          ], 
          "location": {
            "city": "Las Vegas", 
            "zip": "89118", 
            "country": "United States", 
            "longitude": -115.24275299999999, 
            "state": "NV", 
            "street": "6295 S. Rainbow Blvd", 
            "latitude": 36.074421000000001
          }
        }, 
        {
          "category": "Food/grocery", 
          "name": "Chocorain", 
          "id": "1425381984351222", 
          "category_list": [
            {
              "id": "124818864257882", 
              "name": "Donuts & Bagels"
            }
          ], 
          "location": {
            "city": "Jalandhar", 
            "zip": "144001", 
            "country": "India", 
            "longitude": 75.577218141499998, 
            "state": "", 
            "street": "193 R Rainbow Road,Near K.F.C Model Town", 
            "latitude": 31.307014441100002
          }
        }, 
        {
          "category": "Local business", 
          "name": "Dunkin Donuts", 
          "id": "198441433552226", 
          "category_list": [
            {
              "id": "124818864257882", 
              "name": "Donuts & Bagels"
            }
          ], 
          "location": {
            "city": "East Granby", 
            "zip": "6026", 
            "country": "United States", 
            "longitude": -72.725594000000001, 
            "state": "CT", 
            "street": "4 Rainbow Rd", 
            "latitude": 41.942520000000002
          }
        }, 
        {
          "category": "Food/grocery", 
          "name": "Mandy's Donut Corner", 
          "id": "217358194996513", 
          "category_list": [
            {
              "id": "150108431712141", 
              "name": "Food & Grocery"
            }
          ], 
          "location": {
            "city": "Hunstanton", 
            "zip": "PE36 5RD", 
            "country": "United Kingdom", 
            "longitude": 0.48530701917928998, 
            "state": "", 
            "street": "Rainbow Amusement Park, Seagate Road, Hunstanton Norfolk", 
            "latitude": 52.936754312102003
          }
        }
      ]
    }
  }, 
  {
    "business_name": "Embassy Suites Hotel Phoenix-Airport At 24th Street", 
    "business_id": "-nWigG5EhFLjdSgGZthS3Q", 
    "fb_pages": {
      "paging": {
        "next": "https://graph.facebook.com/search?type=place&access_token=229546593895315|yPLlHqq6YvDLIH4nL0kjJtIFSlU&limit=5000&offset=5000&__after_id=156283947750379"
      }, 
      "data": [
        {
          "category": "Local business", 
          "name": "Embassy Suites Hotel - Phoenix Airport 24th Street", 
          "id": "156283947750379", 
          "category_list": [
            {
              "id": "164243073639257", 
              "name": "Hotel"
            }, 
            {
              "id": "177950465654024", 
              "name": "Airport Terminal"
            }, 
            {
              "id": "191173027579272", 
              "name": "Wedding Planning"
            }
          ], 
          "location": {
            "city": "Phoenix", 
            "zip": "85016", 
            "country": "United States", 
            "longitude": -112.03151879612, 
            "state": "AZ", 
            "street": "2333 E. Thomas Road", 
            "latitude": 33.479565122867001
          }
        }
      ]
    }
  }
]