[
  {
    "business_name": "Bistro Provence", 
    "business_id": "NkTBJP2YOwUAUNzRqR2gJg", 
    "fb_pages": {
      "paging": {
        "next": "https://graph.facebook.com/search?type=place&access_token=229546593895315|yPLlHqq6YvDLIH4nL0kjJtIFSlU&limit=5000&offset=5000&__after_id=219577408066403"
      }, 
      "data": [
        {
          "category": "Restaurant/cafe", 
          "name": "Bistro Provence", 
          "id": "208120228489", 
          "category_list": [
            {
              "id": "168976549819329", 
              "name": "French Restaurant"
            }
          ], 
          "location": {
            "city": "Houston", 
            "zip": "77079", 
            "country": "United States", 
            "longitude": -95.580960212830007, 
            "state": "TX", 
            "street": "13616 Memorial Drive", 
            "latitude": 29.772970182061002
          }
        }, 
        {
          "category": "Local business", 
          "name": "Bistro Provence", 
          "id": "127586107280854", 
          "category_list": [
            {
              "id": "165679780146824", 
              "name": "Food & Restaurant"
            }
          ], 
          "location": {
            "city": "Okotoks", 
            "zip": "T1S1J3", 
            "country": "Canada", 
            "longitude": -113.968133971, 
            "state": "AB", 
            "street": "52 North Railway St", 
            "latitude": 50.724370088000001
          }
        }, 
        {
          "category": "Local business", 
          "name": "Bistro Provence", 
          "id": "120211337996367", 
          "category_list": [
            {
              "id": "273819889375819", 
              "name": "Restaurant"
            }
          ], 
          "location": {
            "city": "Burbank", 
            "zip": "91505-3859", 
            "country": "United States", 
            "longitude": -118.34691467976, 
            "state": "CA", 
            "street": "345 N Pass Ave", 
            "latitude": 34.155708990077002
          }
        }, 
        {
          "category": "Local business", 
          "name": "Bistro Provence", 
          "id": "177596608964387", 
          "category_list": [
            {
              "id": "168976549819329", 
              "name": "French Restaurant"
            }
          ], 
          "location": {
            "city": "Boca Raton", 
            "zip": "33431", 
            "country": "United States", 
            "longitude": -80.076991865368001, 
            "state": "FL", 
            "street": "2399 N Federal Hwy", 
            "latitude": 26.371456671320999
          }
        }, 
        {
          "category": "Restaurant/cafe", 
          "name": "Bistro Provence Restaurant", 
          "id": "162665540446594", 
          "category_list": [
            {
              "id": "168976549819329", 
              "name": "French Restaurant"
            }
          ], 
          "location": {
            "city": "Bethesda", 
            "zip": "20814", 
            "country": "United States", 
            "longitude": -77.097552946087006, 
            "state": "MD", 
            "street": "4933 Fairmont Ave", 
            "latitude": 38.987793070232001
          }
        }, 
        {
          "category": "Local business", 
          "name": "La Provence Bakery & Bistro", 
          "id": "111506745555978", 
          "category_list": [
            {
              "id": "192108214153222", 
              "name": "Breakfast & Brunch Restaurant"
            }, 
            {
              "id": "187827497907070", 
              "name": "Bakery"
            }, 
            {
              "id": "168976549819329", 
              "name": "French Restaurant"
            }
          ], 
          "location": {
            "city": "Florian\u00f3polis", 
            "zip": "97035-4361", 
            "country": "Brazil", 
            "longitude": -122.72337762525, 
            "state": "", 
            "street": "Pracinha da Lagoa", 
            "latitude": 45.407419559177001
          }
        }, 
        {
          "category": "Restaurant/cafe", 
          "name": "Bistro Provence Edinburgh", 
          "id": "503558443066647", 
          "category_list": [
            {
              "id": "168976549819329", 
              "name": "French Restaurant"
            }
          ], 
          "location": {
            "city": "Edinburgh", 
            "zip": "EH6 6LX", 
            "country": "United Kingdom", 
            "longitude": -3.1734711248699998, 
            "state": "", 
            "street": "88 Commercial Street", 
            "latitude": 55.977287591699998
          }
        }, 
        {
          "category": "Restaurant/cafe", 
          "name": "Bistro Provence Scottsdale", 
          "id": "131496140212059", 
          "category_list": [
            {
              "id": "273819889375819", 
              "name": "Restaurant"
            }
          ], 
          "location": {
            "city": "Scottsdale", 
            "zip": "85255", 
            "country": "United States", 
            "longitude": -111.88854077800001, 
            "state": "AZ", 
            "street": "8900 E. Pinnacle Peak Road ", 
            "latitude": 33.699936707699997
          }
        }, 
        {
          "category": "Restaurant/cafe", 
          "name": "98 Provence Bistro", 
          "id": "110554102306676", 
          "category_list": [
            {
              "id": "168976549819329", 
              "name": "French Restaurant"
            }
          ], 
          "location": {
            "city": "Ogunquit", 
            "zip": "03907", 
            "country": "United States", 
            "longitude": -70.596674990265001, 
            "state": "ME", 
            "street": "262 Shore Road", 
            "latitude": 43.240786861746003
          }
        }, 
        {
          "category": "Local business", 
          "name": "Provence Cottage & Bistro", 
          "id": "229748210422072", 
          "category_list": [
            {
              "id": "161811347201528", 
              "name": "Lodging"
            }
          ], 
          "location": {
            "city": "Monte Verde", 
            "zip": "", 
            "country": "Brazil", 
            "longitude": -46.0321285379, 
            "state": "", 
            "street": "", 
            "latitude": -22.870602212200001
          }
        }, 
        {
          "category": "Restaurant/cafe", 
          "name": "Provence Bistr\u00f4", 
          "id": "302714079787997", 
          "category_list": [
            {
              "id": "168976549819329", 
              "name": "French Restaurant"
            }
          ], 
          "location": {
            "city": "An\u00e1polis", 
            "zip": "", 
            "country": "Brazil", 
            "longitude": -48.941399585399999, 
            "state": "", 
            "street": "Av.Pinheiro Chagas, n800 - Jundia\u00ed", 
            "latitude": -16.335009249399999
          }
        }, 
        {
          "category": "Restaurant/cafe", 
          "name": "Provence Bistro", 
          "id": "206004248634", 
          "category_list": [
            {
              "id": "200742186618963", 
              "name": "Vegetarian & Vegan Restaurant"
            }, 
            {
              "id": "198367566846946", 
              "name": "Steakhouse"
            }, 
            {
              "id": "168976549819329", 
              "name": "French Restaurant"
            }
          ], 
          "location": {
            "city": "Winnipeg", 
            "zip": "R2J 2X3", 
            "country": "Canada", 
            "longitude": -97.095898371399997, 
            "state": "MB", 
            "street": "620 Niakwa Road", 
            "latitude": 49.855018983900003
          }
        }, 
        {
          "category": "Restaurant/cafe", 
          "name": "Corner Bistro", 
          "id": "1391368441075342", 
          "category_list": [
            {
              "id": "273819889375819", 
              "name": "Restaurant"
            }
          ], 
          "location": {
            "city": "Aix-en-Provence", 
            "zip": "13100", 
            "country": "France", 
            "longitude": 5.4544736044000004, 
            "state": "", 
            "street": "32 rue Emeric David", 
            "latitude": 43.5276184405
          }
        }, 
        {
          "category": "Restaurant/cafe", 
          "name": "Caf\u00e9 Provence Bistro", 
          "id": "163797977003011", 
          "category_list": [
            {
              "id": "192831537402299", 
              "name": "Family Style Restaurant"
            }, 
            {
              "id": "192092574152128", 
              "name": "Playground"
            }, 
            {
              "id": "197871390225897", 
              "name": "Cafe"
            }
          ], 
          "location": {
            "city": "Budapest", 
            "zip": "1028", 
            "country": "Hungary", 
            "longitude": 18.964487415379999, 
            "state": "", 
            "street": "Hidegk\u00fati \u00fat 81.", 
            "latitude": 47.553231988141
          }
        }, 
        {
          "category": "Local business", 
          "name": "Bistr\u00f4 La Provence", 
          "id": "201727703267185", 
          "category_list": [
            {
              "id": "273819889375819", 
              "name": "Restaurant"
            }
          ], 
          "location": {
            "city": "Florian\u00f3polis", 
            "zip": "", 
            "country": "Brazil", 
            "longitude": -48.464120342100003, 
            "state": "", 
            "street": "Pracinha da Lagoa! Lagoa Da Concei\u00e7\u00e3o!", 
            "latitude": -27.603774345600002
          }
        }, 
        {
          "category": "Local business", 
          "name": "Bistro Romain", 
          "id": "143353952374804", 
          "category_list": [
            {
              "id": "193831710644458", 
              "name": "Italian Restaurant"
            }
          ], 
          "location": {
            "city": "Aix-en-Provence", 
            "zip": "13100", 
            "country": "France", 
            "longitude": 5.4468712891133002, 
            "state": "", 
            "street": "13 Cours Mirabeau", 
            "latitude": 43.526551473608997
          }
        }, 
        {
          "category": "Local business", 
          "name": "Bistro Petite Provence", 
          "id": "143773705689172", 
          "category_list": [
            {
              "id": "197871390225897", 
              "name": "Cafe"
            }, 
            {
              "id": "168976549819329", 
              "name": "French Restaurant"
            }
          ], 
          "location": {
            "city": "Bratislava", 
            "zip": "811 02", 
            "country": "Slovakia", 
            "longitude": 17.109128139788002, 
            "state": "", 
            "street": "", 
            "latitude": 48.142017622962001
          }
        }, 
        {
          "category": "Restaurant/cafe", 
          "name": "LE BISTRO LATIN", 
          "id": "27918389205", 
          "category_list": [
            {
              "id": "273819889375819", 
              "name": "Restaurant"
            }
          ], 
          "location": {
            "city": "Aix-en-Provence", 
            "zip": "13100", 
            "country": "France", 
            "longitude": 5.4458082258899996, 
            "state": "", 
            "street": "18 RUE DE LA COURONNE", 
            "latitude": 43.527827576200004
          }
        }, 
        {
          "category": "Local business", 
          "name": "Provence Grill Bistro", 
          "id": "219577408066403", 
          "category_list": [
            {
              "id": "273819889375819", 
              "name": "Restaurant"
            }, 
            {
              "id": "199236533423806", 
              "name": "Beauty Salon"
            }
          ], 
          "location": {
            "city": "Miami Beach", 
            "zip": "33139", 
            "country": "United States", 
            "longitude": -80.141750372199994, 
            "state": "FL", 
            "street": "", 
            "latitude": 25.790502469300002
          }
        }
      ]
    }
  }, 
  {
    "business_name": "Souper Salad", 
    "business_id": "mbPdVUCUhpqc0zLL13FObg", 
    "fb_pages": {
      "paging": {
        "next": "https://graph.facebook.com/search?type=place&access_token=229546593895315|yPLlHqq6YvDLIH4nL0kjJtIFSlU&limit=5000&offset=5000&__after_id=117268464958376"
      }, 
      "data": [
        {
          "category": "Local business", 
          "name": "Souper Salad", 
          "id": "114008748630586", 
          "category_list": [
            {
              "id": "149803325077018", 
              "name": "American Restaurant"
            }, 
            {
              "id": "112286315572975", 
              "name": "Salad Bar"
            }
          ], 
          "location": {
            "city": "Pasadena", 
            "zip": "77505-3908", 
            "country": "United States", 
            "longitude": -95.152503756133001, 
            "state": "TX", 
            "street": "5822 Fairmont Pkwy", 
            "latitude": 29.648968217202
          }
        }, 
        {
          "category": "Local business", 
          "name": "Souper Salad", 
          "id": "111552972217998", 
          "category_list": [
            {
              "id": "149803325077018", 
              "name": "American Restaurant"
            }, 
            {
              "id": "112286315572975", 
              "name": "Salad Bar"
            }
          ], 
          "location": {
            "city": "Lubbock", 
            "zip": "79424-1513", 
            "country": "United States", 
            "longitude": -101.92105897283, 
            "state": "TX", 
            "street": "6703 Slide Rd", 
            "latitude": 33.533490648889
          }
        }, 
        {
          "category": "Local business", 
          "name": "Souper Salad", 
          "id": "108146172561068", 
          "category_list": [
            {
              "id": "176007949109829", 
              "name": "Buffet Restaurant"
            }, 
            {
              "id": "149803325077018", 
              "name": "American Restaurant"
            }, 
            {
              "id": "112286315572975", 
              "name": "Salad Bar"
            }
          ], 
          "location": {
            "city": "Mesquite", 
            "zip": "75150-4158", 
            "country": "United States", 
            "longitude": -96.625162599058996, 
            "state": "TX", 
            "street": "1645 N Town East Blvd", 
            "latitude": 32.813204223965002
          }
        }, 
        {
          "category": "Local business", 
          "name": "Souper!Salad", 
          "id": "349398448412639", 
          "category_list": [
            {
              "id": "112286315572975", 
              "name": "Salad Bar"
            }, 
            {
              "id": "149803325077018", 
              "name": "American Restaurant"
            }
          ], 
          "location": {
            "city": "San Antonio", 
            "zip": "78253", 
            "country": "United States", 
            "longitude": -98.708288769619003, 
            "state": "TX", 
            "street": "", 
            "latitude": 29.496806752697999
          }
        }, 
        {
          "category": "Local business", 
          "name": "Souper Salad", 
          "id": "116364931721615", 
          "category_list": [
            {
              "id": "149803325077018", 
              "name": "American Restaurant"
            }, 
            {
              "id": "176007949109829", 
              "name": "Buffet Restaurant"
            }, 
            {
              "id": "112286315572975", 
              "name": "Salad Bar"
            }
          ], 
          "location": {
            "city": "Phoenix", 
            "zip": "85051-1524", 
            "country": "United States", 
            "longitude": -112.11797398236, 
            "state": "AZ", 
            "street": "10005 N Metro Pkwy E", 
            "latitude": 33.576373094240999
          }
        }, 
        {
          "category": "Local business", 
          "name": "Souper Salad", 
          "id": "113557488679121", 
          "category_list": [
            {
              "id": "149803325077018", 
              "name": "American Restaurant"
            }, 
            {
              "id": "112286315572975", 
              "name": "Salad Bar"
            }
          ], 
          "location": {
            "city": "Lewisville", 
            "zip": "75067-8777", 
            "country": "United States", 
            "longitude": -96.970145747116007, 
            "state": "TX", 
            "street": "2404 S Stemmons Fwy", 
            "latitude": 33.007328719371998
          }
        }, 
        {
          "category": "Local business", 
          "name": "Souper Salad", 
          "id": "115578241801432", 
          "category_list": [
            {
              "id": "149803325077018", 
              "name": "American Restaurant"
            }, 
            {
              "id": "112286315572975", 
              "name": "Salad Bar"
            }
          ], 
          "location": {
            "city": "Phoenix", 
            "zip": "85008-1574", 
            "country": "United States", 
            "longitude": -111.98648368644, 
            "state": "AZ", 
            "street": "2651 N 44th St Ste 2", 
            "latitude": 33.478518484620999
          }
        }, 
        {
          "category": "Local business", 
          "name": "Souper Salad", 
          "id": "116318188397043", 
          "category_list": [
            {
              "id": "149803325077018", 
              "name": "American Restaurant"
            }
          ], 
          "location": {
            "city": "Mesa", 
            "zip": "85209-3302", 
            "country": "United States", 
            "longitude": -111.68193761569999, 
            "state": "AZ", 
            "street": "6910 East Hampton Avenue", 
            "latitude": 33.390794282976003
          }
        }, 
        {
          "category": "Local business", 
          "name": "Souper Salad", 
          "id": "317243815076258", 
          "category_list": [
            {
              "id": "165679780146824", 
              "name": "Food & Restaurant"
            }
          ], 
          "location": {
            "city": "Corpus Christi", 
            "zip": "78411", 
            "country": "United States", 
            "longitude": -97.378938261000002, 
            "state": "TX", 
            "street": "", 
            "latitude": 27.725270268199999
          }
        }, 
        {
          "category": "Local business", 
          "name": "Souper Salad", 
          "id": "111199375580458", 
          "category_list": [
            {
              "id": "149803325077018", 
              "name": "American Restaurant"
            }, 
            {
              "id": "112286315572975", 
              "name": "Salad Bar"
            }
          ], 
          "location": {
            "city": "Glendale", 
            "zip": "85308-8533", 
            "country": "United States", 
            "longitude": -112.21982492182001, 
            "state": "AZ", 
            "street": "7480 W Bell Rd Ste 100", 
            "latitude": 33.639933452023001
          }
        }, 
        {
          "category": "Local business", 
          "name": "Souper Salad", 
          "id": "115407801822168", 
          "category_list": [
            {
              "id": "149803325077018", 
              "name": "American Restaurant"
            }, 
            {
              "id": "135468489860087", 
              "name": "Soup Restaurant"
            }, 
            {
              "id": "112286315572975", 
              "name": "Salad Bar"
            }
          ], 
          "location": {
            "city": "Waco", 
            "zip": "76710-7022", 
            "country": "United States", 
            "longitude": -97.179829689781997, 
            "state": "TX", 
            "street": "5006 W Waco Dr", 
            "latitude": 31.519762452885999
          }
        }, 
        {
          "category": "Local business", 
          "name": "Souper Salad", 
          "id": "104990446211396", 
          "category_list": [
            {
              "id": "149803325077018", 
              "name": "American Restaurant"
            }, 
            {
              "id": "112286315572975", 
              "name": "Salad Bar"
            }
          ], 
          "location": {
            "city": "Katy", 
            "zip": "77449-7732", 
            "country": "United States", 
            "longitude": -95.723122897289002, 
            "state": "TX", 
            "street": "20220 Katy Fwy Ste C", 
            "latitude": 29.786235279282
          }
        }, 
        {
          "category": "Local business", 
          "name": "Souper Salad", 
          "id": "113497335351479", 
          "category_list": [
            {
              "id": "149803325077018", 
              "name": "American Restaurant"
            }, 
            {
              "id": "112286315572975", 
              "name": "Salad Bar"
            }
          ], 
          "location": {
            "city": "Hurst", 
            "zip": "76053-4633", 
            "country": "United States", 
            "longitude": -97.198075036676997, 
            "state": "TX", 
            "street": "914 Melbourne Rd", 
            "latitude": 32.825794882855
          }
        }, 
        {
          "category": "Local business", 
          "name": "Souper Salad", 
          "id": "113857761978558", 
          "category_list": [
            {
              "id": "149803325077018", 
              "name": "American Restaurant"
            }, 
            {
              "id": "112286315572975", 
              "name": "Salad Bar"
            }
          ], 
          "location": {
            "city": "Pueblo", 
            "zip": "81008-2064", 
            "country": "United States", 
            "longitude": -104.61339312840001, 
            "state": "CO", 
            "street": "4120 N Freeway Rd", 
            "latitude": 38.310700218104998
          }
        }, 
        {
          "category": "Local business", 
          "name": "Souper Salad", 
          "id": "111607118880042", 
          "category_list": [
            {
              "id": "149803325077018", 
              "name": "American Restaurant"
            }, 
            {
              "id": "112286315572975", 
              "name": "Salad Bar"
            }
          ], 
          "location": {
            "city": "Albuquerque", 
            "zip": "87109-2011", 
            "country": "United States", 
            "longitude": -106.58694031548001, 
            "state": "NM", 
            "street": "4411 San Mateo Blvd NE", 
            "latitude": 35.132323882268999
          }
        }, 
        {
          "category": "Local business", 
          "name": "Souper Salad", 
          "id": "116441231716979", 
          "category_list": [
            {
              "id": "149803325077018", 
              "name": "American Restaurant"
            }, 
            {
              "id": "112286315572975", 
              "name": "Salad Bar"
            }
          ], 
          "location": {
            "city": "Humble", 
            "zip": "77338", 
            "country": "United States", 
            "longitude": -95.266046775855003, 
            "state": "TX", 
            "street": "20026 Highway 59 N", 
            "latitude": 30.005712495731999
          }
        }, 
        {
          "category": "Local business", 
          "name": "Souper Salad", 
          "id": "105004409542196", 
          "category_list": [
            {
              "id": "149803325077018", 
              "name": "American Restaurant"
            }, 
            {
              "id": "112286315572975", 
              "name": "Salad Bar"
            }
          ], 
          "location": {
            "city": "Houston", 
            "zip": "77057-5116", 
            "country": "United States", 
            "longitude": -95.499404756234995, 
            "state": "TX", 
            "street": "6516 Westheimer Rd", 
            "latitude": 29.738165056747
          }
        }, 
        {
          "category": "Local business", 
          "name": "Souper Salad", 
          "id": "115591218470293", 
          "category_list": [
            {
              "id": "149803325077018", 
              "name": "American Restaurant"
            }, 
            {
              "id": "176007949109829", 
              "name": "Buffet Restaurant"
            }, 
            {
              "id": "112286315572975", 
              "name": "Salad Bar"
            }
          ], 
          "location": {
            "city": "Colorado Springs", 
            "zip": "80909-5312", 
            "country": "United States", 
            "longitude": -104.76126117461, 
            "state": "CO", 
            "street": "3636 Citadel Dr N", 
            "latitude": 38.846156867274999
          }
        }, 
        {
          "category": "Local business", 
          "name": "Souper Salad", 
          "id": "117843024907871", 
          "category_list": [
            {
              "id": "149803325077018", 
              "name": "American Restaurant"
            }, 
            {
              "id": "112286315572975", 
              "name": "Salad Bar"
            }
          ], 
          "location": {
            "city": "Northglenn", 
            "zip": "80233", 
            "country": "United States", 
            "longitude": -104.9772493773, 
            "state": "CO", 
            "street": "11930 Washington St", 
            "latitude": 39.912574177320998
          }
        }, 
        {
          "category": "Local business", 
          "name": "Souper Salad", 
          "id": "115494531806704", 
          "category_list": [
            {
              "id": "149803325077018", 
              "name": "American Restaurant"
            }, 
            {
              "id": "112286315572975", 
              "name": "Salad Bar"
            }
          ], 
          "location": {
            "city": "Santa Fe", 
            "zip": "87505-3392", 
            "country": "United States", 
            "longitude": -105.98215173941, 
            "state": "NM", 
            "street": "2428 Cerrillos Rd", 
            "latitude": 35.659703300983999
          }
        }, 
        {
          "category": "Restaurant/cafe", 
          "name": "Souper Salad In Lakewood, Colorado", 
          "id": "568030213239519", 
          "category_list": [
            {
              "id": "176007949109829", 
              "name": "Buffet Restaurant"
            }, 
            {
              "id": "149803325077018", 
              "name": "American Restaurant"
            }, 
            {
              "id": "112286315572975", 
              "name": "Salad Bar"
            }
          ], 
          "location": {
            "city": "Lakewood", 
            "zip": "80226", 
            "country": "United States", 
            "longitude": -105.08194765253999, 
            "state": "CO", 
            "street": "7650 West Virginia Ave. Unit A", 
            "latitude": 39.706688478975998
          }
        }, 
        {
          "category": "Local business", 
          "name": "Souper Salad", 
          "id": "121816514495834", 
          "category_list": [
            {
              "id": "149803325077018", 
              "name": "American Restaurant"
            }, 
            {
              "id": "176007949109829", 
              "name": "Buffet Restaurant"
            }, 
            {
              "id": "112286315572975", 
              "name": "Salad Bar"
            }
          ], 
          "location": {
            "city": "Houston", 
            "zip": "77096-1604", 
            "country": "United States", 
            "longitude": -95.463157764792996, 
            "state": "TX", 
            "street": "4884 Beechnut St", 
            "latitude": 29.689210316783999
          }
        }, 
        {
          "category": "Local business", 
          "name": "Souper Salad", 
          "id": "134627543255749", 
          "category_list": [
            {
              "id": "149803325077018", 
              "name": "American Restaurant"
            }, 
            {
              "id": "112286315572975", 
              "name": "Salad Bar"
            }
          ], 
          "location": {
            "city": "Southlake", 
            "zip": "76092-8032", 
            "country": "United States", 
            "longitude": -97.109825134763, 
            "state": "TX", 
            "street": "151 N Nolen Dr Ste 100", 
            "latitude": 32.940437179721002
          }
        }, 
        {
          "category": "Local business", 
          "name": "Souper!Salad!", 
          "id": "458966920780934", 
          "category_list": [
            {
              "id": "149803325077018", 
              "name": "American Restaurant"
            }
          ], 
          "location": {
            "city": "Midland", 
            "zip": "79705", 
            "country": "United States", 
            "longitude": -102.129187996, 
            "state": "TX", 
            "street": "", 
            "latitude": 32.034424054600002
          }
        }, 
        {
          "category": "Local business", 
          "name": "Souper Salads", 
          "id": "143145535732105", 
          "category_list": [
            {
              "id": "192803624072087", 
              "name": "Fast Food Restaurant"
            }, 
            {
              "id": "156756251046858", 
              "name": "Health Food Restaurant"
            }, 
            {
              "id": "192831537402299", 
              "name": "Family Style Restaurant"
            }
          ], 
          "location": {
            "city": "Arlington", 
            "zip": "76017-5875", 
            "country": "United States", 
            "longitude": -97.126233041953, 
            "state": "TX", 
            "street": "1325 Interstate 20 W", 
            "latitude": 32.680414109807003
          }
        }, 
        {
          "category": "Local business", 
          "name": "Souper Salads", 
          "id": "113388692027087", 
          "category_list": [
            {
              "id": "112286315572975", 
              "name": "Salad Bar"
            }, 
            {
              "id": "149803325077018", 
              "name": "American Restaurant"
            }
          ], 
          "location": {
            "city": "El Paso", 
            "zip": "79925-5836", 
            "country": "United States", 
            "longitude": -106.37171995061, 
            "state": "TX", 
            "street": "8900 Viscount Blvd Ste AJ", 
            "latitude": 31.773780893781002
          }
        }, 
        {
          "category": "Local business", 
          "name": "Souper Salad", 
          "id": "116451865045611", 
          "category_list": [
            {
              "id": "149803325077018", 
              "name": "American Restaurant"
            }, 
            {
              "id": "112286315572975", 
              "name": "Salad Bar"
            }
          ], 
          "location": {
            "city": "Colorado Springs", 
            "zip": "80920-3910", 
            "country": "United States", 
            "longitude": -104.80216432589, 
            "state": "CO", 
            "street": "1434 Kelly Johnson Blvd", 
            "latitude": 38.945462874543999
          }
        }, 
        {
          "category": "Local business", 
          "name": "Souper Salad of Georgetown", 
          "id": "120411247970253", 
          "category_list": [
            {
              "id": "149803325077018", 
              "name": "American Restaurant"
            }
          ], 
          "location": {
            "city": "Georgetown", 
            "zip": "78628-5340", 
            "country": "United States", 
            "longitude": -97.694731018273004, 
            "state": "TX", 
            "street": "1013 W University Ave Ste 101", 
            "latitude": 30.631857676488
          }
        }, 
        {
          "category": "Local business", 
          "name": "Souper Salad", 
          "id": "114960495245322", 
          "category_list": [
            {
              "id": "112286315572975", 
              "name": "Salad Bar"
            }, 
            {
              "id": "149803325077018", 
              "name": "American Restaurant"
            }
          ], 
          "location": {
            "city": "San Antonio", 
            "zip": "78229", 
            "country": "United States", 
            "longitude": -98.585021356222001, 
            "state": "TX", 
            "street": "", 
            "latitude": 29.489020612335
          }
        }, 
        {
          "category": "Local business", 
          "name": "Souper Salad Restaurants", 
          "id": "169478976402688", 
          "category_list": [
            {
              "id": "149803325077018", 
              "name": "American Restaurant"
            }, 
            {
              "id": "112286315572975", 
              "name": "Salad Bar"
            }
          ], 
          "location": {
            "city": "San Antonio", 
            "zip": "78216-5603", 
            "country": "United States", 
            "longitude": -98.504593417436993, 
            "state": "TX", 
            "street": "717 NW Loop 410", 
            "latitude": 29.521579781671001
          }
        }, 
        {
          "category": "Local business", 
          "name": "Souper Salads", 
          "id": "118004624892635", 
          "category_list": [
            {
              "id": "149803325077018", 
              "name": "American Restaurant"
            }, 
            {
              "id": "112286315572975", 
              "name": "Salad Bar"
            }
          ], 
          "location": {
            "city": "Irving", 
            "zip": "75062-5942", 
            "country": "United States", 
            "longitude": -96.992273412976999, 
            "state": "TX", 
            "street": "3401 W Airport Fwy Ste 103", 
            "latitude": 32.840418528233997
          }
        }, 
        {
          "category": "Local business", 
          "name": "Souper Salads", 
          "id": "120302527982719", 
          "category_list": [
            {
              "id": "149803325077018", 
              "name": "American Restaurant"
            }, 
            {
              "id": "112286315572975", 
              "name": "Salad Bar"
            }
          ], 
          "location": {
            "city": "El Paso", 
            "zip": "79912-3670", 
            "country": "United States", 
            "longitude": -106.55157422918001, 
            "state": "TX", 
            "street": "7105 N Mesa St", 
            "latitude": 31.835231675966
          }
        }, 
        {
          "category": "Local business", 
          "name": "Souper Salads", 
          "id": "100879519956882", 
          "category_list": [
            {
              "id": "149803325077018", 
              "name": "American Restaurant"
            }, 
            {
              "id": "112286315572975", 
              "name": "Salad Bar"
            }
          ], 
          "location": {
            "city": "Fort Worth", 
            "zip": "76109-4419", 
            "country": "United States", 
            "longitude": -97.396496094697, 
            "state": "TX", 
            "street": "4714 SW Loop 820", 
            "latitude": 32.683271914102001
          }
        }, 
        {
          "category": "Local business", 
          "name": "Souper Salads", 
          "id": "111630965542952", 
          "category_list": [
            {
              "id": "112286315572975", 
              "name": "Salad Bar"
            }, 
            {
              "id": "149803325077018", 
              "name": "American Restaurant"
            }
          ], 
          "location": {
            "city": "Plano", 
            "zip": "75075-8841", 
            "country": "United States", 
            "longitude": -96.709860985974004, 
            "state": "TX", 
            "street": "1017 N Central Expy", 
            "latitude": 33.015527843853
          }
        }, 
        {
          "category": "Local business", 
          "name": "Souper Salad Restaurants", 
          "id": "104964642879703", 
          "category_list": [
            {
              "id": "149803325077018", 
              "name": "American Restaurant"
            }
          ], 
          "location": {
            "city": "San Antonio", 
            "zip": "78216-2302", 
            "country": "United States", 
            "longitude": -98.479055914618002, 
            "state": "TX", 
            "street": "903 E Bitters Rd", 
            "latitude": 29.563956718086001
          }
        }, 
        {
          "category": "Local business", 
          "name": "Souper Salad Restaurant Matthews", 
          "id": "120314641317564", 
          "category_list": [
            {
              "id": "149803325077018", 
              "name": "American Restaurant"
            }, 
            {
              "id": "192831537402299", 
              "name": "Family Style Restaurant"
            }
          ], 
          "location": {
            "city": "Matthews", 
            "zip": "28105-4620", 
            "country": "United States", 
            "longitude": -80.711759406401001, 
            "state": "NC", 
            "street": "10046 E Independence Blvd", 
            "latitude": 35.131099743604999
          }
        }, 
        {
          "category": "Local business", 
          "name": "Souper Salad", 
          "id": "125489130957427", 
          "category_list": [
            {
              "id": "149803325077018", 
              "name": "American Restaurant"
            }
          ], 
          "location": {
            "city": "Austin", 
            "zip": "78704", 
            "country": "United States", 
            "longitude": -97.793134696500005, 
            "state": "TX", 
            "street": "", 
            "latitude": 30.234321454
          }
        }, 
        {
          "category": "Local business", 
          "name": "Souper Salad", 
          "id": "154071357997161", 
          "category_list": [
            {
              "id": "149803325077018", 
              "name": "American Restaurant"
            }
          ], 
          "location": {
            "city": "Durham", 
            "zip": "27713", 
            "country": "United States", 
            "longitude": -78.935254653894006, 
            "state": "NC", 
            "street": "202 W Nc Highway 54 Ste 107", 
            "latitude": 35.913030063085003
          }
        }, 
        {
          "category": "Local business", 
          "name": "Souper Salad", 
          "id": "190830357677221", 
          "category_list": [
            {
              "id": "149803325077018", 
              "name": "American Restaurant"
            }, 
            {
              "id": "112286315572975", 
              "name": "Salad Bar"
            }
          ], 
          "location": {
            "city": "Austin", 
            "zip": "78753", 
            "country": "United States", 
            "longitude": -97.670649674700002, 
            "state": "TX", 
            "street": "", 
            "latitude": 30.4172416171
          }
        }, 
        {
          "category": "Local business", 
          "name": "Souper Salad", 
          "id": "118047694878715", 
          "category_list": [
            {
              "id": "149803325077018", 
              "name": "American Restaurant"
            }
          ], 
          "location": {
            "city": "Phoenix", 
            "zip": "85032-7703", 
            "country": "United States", 
            "longitude": -111.984028923, 
            "state": "AZ", 
            "street": "4605 E Cactus Rd", 
            "latitude": 33.598668252000003
          }
        }, 
        {
          "category": "Local business", 
          "name": "Souper Salad Inc", 
          "id": "113363662030184", 
          "category_list": [
            {
              "id": "149803325077018", 
              "name": "American Restaurant"
            }
          ], 
          "location": {
            "city": "Chattanooga", 
            "zip": "37421-2609", 
            "country": "United States", 
            "longitude": -85.149675484582005, 
            "state": "TN", 
            "street": "2288 Gunbarrel Rd", 
            "latitude": 35.038653312080001
          }
        }, 
        {
          "category": "Local business", 
          "name": "Souper Salad Inc", 
          "id": "120181957994809", 
          "category_list": [
            {
              "id": "149803325077018", 
              "name": "American Restaurant"
            }, 
            {
              "id": "112286315572975", 
              "name": "Salad Bar"
            }
          ], 
          "location": {
            "city": "Sugar Land", 
            "zip": "77479-2320", 
            "country": "United States", 
            "longitude": -95.621918739029994, 
            "state": "TX", 
            "street": "2715 Town Center Blvd N", 
            "latitude": 29.593765829692
          }
        }, 
        {
          "category": "Local business", 
          "name": "Souper Salad", 
          "id": "104946389548222", 
          "category_list": [
            {
              "id": "149803325077018", 
              "name": "American Restaurant"
            }
          ], 
          "location": {
            "city": "Cedar Park", 
            "zip": "78613-1517", 
            "country": "United States", 
            "longitude": -97.8013604378, 
            "state": "TX", 
            "street": "11066 Pecan Park Blvd Ste 417", 
            "latitude": 30.4707164368
          }
        }, 
        {
          "category": "Local business", 
          "name": "Souper Salad", 
          "id": "108209179221353", 
          "category_list": [
            {
              "id": "149803325077018", 
              "name": "American Restaurant"
            }, 
            {
              "id": "112286315572975", 
              "name": "Salad Bar"
            }
          ], 
          "location": {
            "city": "Mesa", 
            "zip": "85204-6649", 
            "country": "United States", 
            "longitude": -111.802767227, 
            "state": "AZ", 
            "street": "1649 S Stapley Dr", 
            "latitude": 33.383531246700002
          }
        }, 
        {
          "category": "Local business", 
          "name": "Souper Salad", 
          "id": "117435808275825", 
          "category_list": [
            {
              "id": "149803325077018", 
              "name": "American Restaurant"
            }
          ], 
          "location": {
            "city": "Oklahoma City", 
            "zip": "73112-6040", 
            "country": "United States", 
            "longitude": -97.566541049899996, 
            "state": "OK", 
            "street": "4829 N May Ave", 
            "latitude": 35.520313575700001
          }
        }, 
        {
          "category": "Local business", 
          "name": "Souper Salad", 
          "id": "120130904664793", 
          "category_list": [
            {
              "id": "149803325077018", 
              "name": "American Restaurant"
            }
          ], 
          "location": {
            "city": "Chandler", 
            "zip": "85224-4922", 
            "country": "United States", 
            "longitude": -111.89110417800001, 
            "state": "AZ", 
            "street": "2780 W Chandler Blvd Ste 7", 
            "latitude": 33.306612907599998
          }
        }, 
        {
          "category": "Local business", 
          "name": "Souper Salad", 
          "id": "111836625519692", 
          "category_list": [
            {
              "id": "149803325077018", 
              "name": "American Restaurant"
            }
          ], 
          "location": {
            "city": "Allen", 
            "zip": "75013-8009", 
            "country": "United States", 
            "longitude": -96.680561679799993, 
            "state": "TX", 
            "street": "204 Central Expy S Ste 59", 
            "latitude": 33.100386126499998
          }
        }, 
        {
          "category": "Local business", 
          "name": "Souper Salads", 
          "id": "115933235101632", 
          "category_list": [
            {
              "id": "149803325077018", 
              "name": "American Restaurant"
            }
          ], 
          "location": {
            "city": "Colorado Springs", 
            "zip": "80907-3402", 
            "country": "United States", 
            "longitude": -104.84221019749999, 
            "state": "CO", 
            "street": "808 Garden Of The Gods Rd", 
            "latitude": 38.896948715184998
          }
        }, 
        {
          "category": "Local business", 
          "name": "Souper Salad", 
          "id": "115856878436112", 
          "category_list": [
            {
              "id": "149803325077018", 
              "name": "American Restaurant"
            }
          ], 
          "location": {
            "city": "College Station", 
            "zip": "77840-3320", 
            "country": "United States", 
            "longitude": -96.318773321926002, 
            "state": "TX", 
            "street": "1727 Texas Ave S", 
            "latitude": 30.616222322797
          }
        }, 
        {
          "category": "Local business", 
          "name": "Souper Salad", 
          "id": "115987048429605", 
          "category_list": [
            {
              "id": "149803325077018", 
              "name": "American Restaurant"
            }
          ], 
          "location": {
            "city": "Arlington", 
            "zip": "76011-5019", 
            "country": "United States", 
            "longitude": -97.096235264162004, 
            "state": "TX", 
            "street": "915 Road To Six Flags St E", 
            "latitude": 32.756126180848
          }
        }, 
        {
          "category": "Local business", 
          "name": "Souper Salad", 
          "id": "100877499957039", 
          "category_list": [
            {
              "id": "149803325077018", 
              "name": "American Restaurant"
            }, 
            {
              "id": "135468489860087", 
              "name": "Soup Restaurant"
            }
          ], 
          "location": {
            "city": "Salt Lake City", 
            "zip": "84118-9021", 
            "country": "United States", 
            "longitude": -111.94337997, 
            "state": "UT", 
            "street": "5486 S 1900 W", 
            "latitude": 40.651850160899997
          }
        }, 
        {
          "category": "Local business", 
          "name": "Souper Salad", 
          "id": "116160005071236", 
          "category_list": [
            {
              "id": "149803325077018", 
              "name": "American Restaurant"
            }
          ], 
          "location": {
            "city": "Oklahoma City", 
            "zip": "73134-8035", 
            "country": "United States", 
            "longitude": -97.552799073551, 
            "state": "OK", 
            "street": "2320 W Memorial Rd", 
            "latitude": 35.607281556512
          }
        }, 
        {
          "category": "Local business", 
          "name": "Souper Salad", 
          "id": "104975822878821", 
          "category_list": [
            {
              "id": "149803325077018", 
              "name": "American Restaurant"
            }, 
            {
              "id": "112286315572975", 
              "name": "Salad Bar"
            }
          ], 
          "location": {
            "city": "Houston", 
            "zip": "77019-4929", 
            "country": "United States", 
            "longitude": -95.402052781042002, 
            "state": "TX", 
            "street": "1574 W Gray St", 
            "latitude": 29.754333704151001
          }
        }, 
        {
          "category": "Local business", 
          "name": "Souper Salad", 
          "id": "114471358576460", 
          "category_list": [
            {
              "id": "149803325077018", 
              "name": "American Restaurant"
            }
          ], 
          "location": {
            "city": "Houston", 
            "zip": "77092-7305", 
            "country": "United States", 
            "longitude": -95.467360401874004, 
            "state": "TX", 
            "street": "10985 Northwest Fwy", 
            "latitude": 29.816540968832001
          }
        }, 
        {
          "category": "Local business", 
          "name": "Souper Salad", 
          "id": "115752548448274", 
          "category_list": [
            {
              "id": "149803325077018", 
              "name": "American Restaurant"
            }, 
            {
              "id": "112286315572975", 
              "name": "Salad Bar"
            }
          ], 
          "location": {
            "city": "Arvada", 
            "zip": "80005-1687", 
            "country": "United States", 
            "longitude": -105.083774928, 
            "state": "CO", 
            "street": "7685 W 88th Ave", 
            "latitude": 39.857236197399999
          }
        }, 
        {
          "category": "Local business", 
          "name": "Souper Salad", 
          "id": "116228948404441", 
          "category_list": [
            {
              "id": "149803325077018", 
              "name": "American Restaurant"
            }
          ], 
          "location": {
            "city": "Tulsa", 
            "zip": "74133-1921", 
            "country": "United States", 
            "longitude": -95.884527542659995, 
            "state": "OK", 
            "street": "8228 E 61st St", 
            "latitude": 36.074581372582998
          }
        }, 
        {
          "category": "Local business", 
          "name": "Souper Salad", 
          "id": "240352302673066", 
          "category_list": [
            {
              "id": "2500", 
              "name": "Local Business"
            }
          ], 
          "location": {
            "city": "Boerne", 
            "zip": "78006", 
            "country": "United States", 
            "longitude": -96.700662117099995, 
            "state": "TX", 
            "street": "PO Box 598", 
            "latitude": 32.832123797800001
          }
        }, 
        {
          "category": "Local business", 
          "name": "Souper Salad", 
          "id": "113550898678618", 
          "category_list": [
            {
              "id": "149803325077018", 
              "name": "American Restaurant"
            }
          ], 
          "location": {
            "city": "Las Vegas", 
            "zip": "89108-3438", 
            "country": "United States", 
            "longitude": -115.243413132, 
            "state": "NV", 
            "street": "2051 N Rainbow Blvd Ste 102", 
            "latitude": 36.1989915833
          }
        }, 
        {
          "category": "Local business", 
          "name": "Souper Salad", 
          "id": "147992515245947", 
          "category_list": [
            {
              "id": "149803325077018", 
              "name": "American Restaurant"
            }, 
            {
              "id": "112286315572975", 
              "name": "Salad Bar"
            }
          ], 
          "location": {
            "city": "Houston", 
            "zip": "77084-1317", 
            "country": "United States", 
            "longitude": -95.646811739456993, 
            "state": "TX", 
            "street": "6783 Highway 6 N", 
            "latitude": 29.874870450953001
          }
        }, 
        {
          "category": "Local business", 
          "name": "Souper Salads", 
          "id": "231417810218608", 
          "category_list": [
            {
              "id": "188296324525457", 
              "name": "Sandwich Shop"
            }, 
            {
              "id": "149803325077018", 
              "name": "American Restaurant"
            }
          ], 
          "location": {
            "city": "Pasadena", 
            "zip": "77504", 
            "country": "United States", 
            "longitude": -95.197829798800001, 
            "state": "TX", 
            "street": "", 
            "latitude": 29.688728899000001
          }
        }, 
        {
          "category": "Local business", 
          "name": "Souper Salad", 
          "id": "118378671506460", 
          "category_list": [
            {
              "id": "149803325077018", 
              "name": "American Restaurant"
            }
          ], 
          "location": {
            "city": "Phoenix", 
            "zip": "85016-4775", 
            "country": "United States", 
            "longitude": -112.03709369000001, 
            "state": "AZ", 
            "street": "2045 E Camelback Rd", 
            "latitude": 33.508160649600001
          }
        }, 
        {
          "category": "Local business", 
          "name": "Souper Salad", 
          "id": "117889754904220", 
          "category_list": [
            {
              "id": "149803325077018", 
              "name": "American Restaurant"
            }
          ], 
          "location": {
            "city": "Dallas", 
            "zip": "75287-6278", 
            "country": "United States", 
            "longitude": -96.854443345600004, 
            "state": "TX", 
            "street": "3355 Trinity Mills Rd Ste 100", 
            "latitude": 32.988338476499997
          }
        }, 
        {
          "category": "Local business", 
          "name": "SouperSalad!", 
          "id": "139232932803993", 
          "category_list": [
            {
              "id": "149803325077018", 
              "name": "American Restaurant"
            }
          ], 
          "location": {
            "city": "Meridian", 
            "zip": "83646", 
            "country": "United States", 
            "longitude": -116.356347121, 
            "state": "ID", 
            "street": "", 
            "latitude": 43.635255526100003
          }
        }, 
        {
          "category": "Local business", 
          "name": "Souper Salad Restaurants", 
          "id": "159292067434714", 
          "category_list": [
            {
              "id": "188296324525457", 
              "name": "Sandwich Shop"
            }, 
            {
              "id": "188334264523313", 
              "name": "Deli"
            }, 
            {
              "id": "149803325077018", 
              "name": "American Restaurant"
            }
          ], 
          "location": {
            "city": "Round Rock", 
            "zip": "78664-7321", 
            "country": "United States", 
            "longitude": -97.672440881276003, 
            "state": "TX", 
            "street": "2601 S Interstate 35", 
            "latitude": 30.483606674823001
          }
        }, 
        {
          "category": "Local business", 
          "name": "Souper Salads", 
          "id": "117926941566961", 
          "category_list": [
            {
              "id": "176007949109829", 
              "name": "Buffet Restaurant"
            }
          ], 
          "location": {
            "city": "Norman", 
            "zip": "73072-4875", 
            "country": "United States", 
            "longitude": -97.484709033930002, 
            "state": "OK", 
            "street": "596 Ed Noble Pkwy", 
            "latitude": 35.211842688654002
          }
        }, 
        {
          "category": "Local business", 
          "name": "Souper Salads", 
          "id": "163638083654482", 
          "category_list": [
            {
              "id": "273819889375819", 
              "name": "Restaurant"
            }
          ], 
          "location": {
            "city": "Wichita", 
            "zip": "67207-1807", 
            "country": "United States", 
            "longitude": -97.243893875500007, 
            "state": "KS", 
            "street": "8007 E Kellogg Dr", 
            "latitude": 37.678236904899997
          }
        }, 
        {
          "category": "Local business", 
          "name": "Souper Salads", 
          "id": "119958851353864", 
          "category_list": [
            {
              "id": "149803325077018", 
              "name": "American Restaurant"
            }
          ], 
          "location": {
            "city": "Plano", 
            "zip": "75093-3369", 
            "country": "United States", 
            "longitude": -96.791186127299994, 
            "state": "TX", 
            "street": "4709 W Parker Rd Ste 400", 
            "latitude": 33.042830099699998
          }
        }, 
        {
          "category": "Restaurant/cafe", 
          "name": "Souper Salad", 
          "id": "158704570814435", 
          "category_list": [
            {
              "id": "156756251046858", 
              "name": "Health Food Restaurant"
            }
          ], 
          "location": {
            "city": "Hamburg", 
            "zip": "20459", 
            "country": "Germany", 
            "longitude": 9.9860137404499998, 
            "state": "", 
            "street": "R\u00f6dingsmarkt 29 ", 
            "latitude": 53.5467710203
          }
        }, 
        {
          "category": "Local business", 
          "name": "Souper Salads", 
          "id": "111577448880358", 
          "category_list": [
            {
              "id": "149803325077018", 
              "name": "American Restaurant"
            }
          ], 
          "location": {
            "city": "Dallas", 
            "zip": "75234-7726", 
            "country": "United States", 
            "longitude": -96.869532300800003, 
            "state": "TX", 
            "street": "3128 Forest Ln", 
            "latitude": 32.909407197100002
          }
        }, 
        {
          "category": "Local business", 
          "name": "Souper Salads", 
          "id": "116033478424472", 
          "category_list": [
            {
              "id": "192831537402299", 
              "name": "Family Style Restaurant"
            }
          ], 
          "location": {
            "city": "Aurora", 
            "zip": "80014-5419", 
            "country": "United States", 
            "longitude": -104.844836317, 
            "state": "CO", 
            "street": "12293 E Iliff Ave", 
            "latitude": 39.675214172399997
          }
        }, 
        {
          "category": "Local business", 
          "name": "Souper Salad", 
          "id": "191754657508325", 
          "category_list": [
            {
              "id": "149803325077018", 
              "name": "American Restaurant"
            }
          ], 
          "location": {
            "city": "Dallas", 
            "zip": "75231", 
            "country": "United States", 
            "longitude": -96.768817275800004, 
            "state": "TX", 
            "street": "", 
            "latitude": 32.872476016100002
          }
        }, 
        {
          "category": "Local business", 
          "name": "Souper Salad", 
          "id": "108149702560360", 
          "category_list": [
            {
              "id": "149803325077018", 
              "name": "American Restaurant"
            }
          ], 
          "location": {
            "city": "Salt Lake City", 
            "zip": "84106-2557", 
            "country": "United States", 
            "longitude": -111.860235, 
            "state": "UT", 
            "street": "1140 Brickyard Rd Ste 21", 
            "latitude": 40.703440000000001
          }
        }, 
        {
          "category": "Local business", 
          "name": "Souper Salad", 
          "id": "110754329023410", 
          "category_list": [
            {
              "id": "2500", 
              "name": "Local Business"
            }
          ], 
          "location": {
            "city": "Dallas", 
            "zip": "", 
            "country": "United States", 
            "longitude": -96.737480500000004, 
            "state": "TX", 
            "street": "", 
            "latitude": 32.914696900000003
          }
        }, 
        {
          "category": "Local business", 
          "name": "Souper Salad", 
          "id": "120407821305297", 
          "category_list": [
            {
              "id": "149803325077018", 
              "name": "American Restaurant"
            }
          ], 
          "location": {
            "city": "Austin", 
            "zip": "78757-1240", 
            "country": "United States", 
            "longitude": -97.731301999999999, 
            "state": "TX", 
            "street": "2438 W Anderson Ln Ste A5", 
            "latitude": 30.356548
          }
        }, 
        {
          "category": "Local business", 
          "name": "Souper Salad", 
          "id": "121428737871023", 
          "category_list": [
            {
              "id": "149803325077018", 
              "name": "American Restaurant"
            }
          ], 
          "location": {
            "city": "Augusta", 
            "zip": "30909-0803", 
            "country": "United States", 
            "longitude": -82.080223000000004, 
            "state": "GA", 
            "street": "250 Robert C Daniel Jr Pkwy", 
            "latitude": 33.488230000000001
          }
        }, 
        {
          "category": "Local business", 
          "name": "Souper Salad", 
          "id": "189601997733057", 
          "category_list": [
            {
              "id": "149803325077018", 
              "name": "American Restaurant"
            }
          ], 
          "location": {
            "city": "Austin", 
            "zip": "", 
            "country": "United States", 
            "longitude": -97.715451000000002, 
            "state": "TX", 
            "street": "", 
            "latitude": 30.334515
          }
        }, 
        {
          "category": "Local business", 
          "name": "Souper Salad", 
          "id": "221329391219217", 
          "category_list": [
            {
              "id": "149803325077018", 
              "name": "American Restaurant"
            }, 
            {
              "id": "176831012360626", 
              "name": "Professional Services"
            }
          ], 
          "location": {
            "city": "Boston", 
            "zip": "02108", 
            "country": "United States", 
            "longitude": -71.060123000000004, 
            "state": "MA", 
            "street": "3 Center Plz Ste I", 
            "latitude": 42.359073000000002
          }
        }, 
        {
          "category": "Local business", 
          "name": "Souper Salad", 
          "id": "226468760723698", 
          "category_list": [
            {
              "id": "2500", 
              "name": "Local Business"
            }
          ], 
          "location": {
            "city": "Richardson", 
            "zip": "75080", 
            "country": "United States", 
            "longitude": -96.742124090000004, 
            "state": "TX", 
            "street": "", 
            "latitude": 32.942998000000003
          }
        }, 
        {
          "category": "Local business", 
          "name": "Souper Salad", 
          "id": "323205014385484", 
          "category_list": [
            {
              "id": "2500", 
              "name": "Local Business"
            }
          ], 
          "location": {
            "city": "Houston", 
            "zip": "", 
            "country": "United States", 
            "longitude": -95.461461200000002, 
            "state": "TX", 
            "street": "", 
            "latitude": 29.740791000000002
          }
        }, 
        {
          "category": "Local business", 
          "name": "Souper Salad", 
          "id": "336747156402802", 
          "category_list": [
            {
              "id": "2500", 
              "name": "Local Business"
            }
          ], 
          "location": {
            "city": "Houston", 
            "zip": "", 
            "country": "United States", 
            "longitude": -95.518009364693995, 
            "state": "TX", 
            "street": "", 
            "latitude": 29.784209928503
          }
        }, 
        {
          "category": "Local business", 
          "name": "Souper Salad", 
          "id": "470768556353263", 
          "category_list": [
            {
              "id": "165679780146824", 
              "name": "Food & Restaurant"
            }
          ], 
          "location": {
            "city": "Dallas", 
            "zip": "75205", 
            "country": "United States", 
            "longitude": -96.786423859999999, 
            "state": "TX", 
            "street": "Central Expy", 
            "latitude": 32.821361109999998
          }
        }, 
        {
          "category": "Local business", 
          "name": "Souper Salad", 
          "id": "109493312422868", 
          "category_list": [
            {
              "id": "149803325077018", 
              "name": "American Restaurant"
            }
          ], 
          "location": {
            "city": "Tempe", 
            "zip": "85284-1125", 
            "country": "United States", 
            "longitude": -111.95795, 
            "state": "AZ", 
            "street": "1180 W Elliot Rd", 
            "latitude": 33.349348999999997
          }
        }, 
        {
          "category": "Local business", 
          "name": "Souper Salad", 
          "id": "200452539984168", 
          "category_list": [
            {
              "id": "149803325077018", 
              "name": "American Restaurant"
            }
          ], 
          "location": {
            "city": "Austin", 
            "zip": "78735", 
            "country": "United States", 
            "longitude": -97.838567499999996, 
            "state": "TX", 
            "street": "", 
            "latitude": 30.240513499999999
          }
        }, 
        {
          "category": "Local business", 
          "name": "Souper Salad", 
          "id": "120989034582841", 
          "category_list": [
            {
              "id": "149803325077018", 
              "name": "American Restaurant"
            }
          ], 
          "location": {
            "city": "Denver", 
            "zip": "80222-6628", 
            "country": "United States", 
            "longitude": -104.937583799, 
            "state": "CO", 
            "street": "2730 S Colorado Blvd", 
            "latitude": 39.6672549197
          }
        }, 
        {
          "category": "Local business", 
          "name": "Souper Salad", 
          "id": "118664328145436", 
          "category_list": [
            {
              "id": "149803325077018", 
              "name": "American Restaurant"
            }
          ], 
          "location": {
            "city": "Webster", 
            "zip": "77598-4136", 
            "country": "United States", 
            "longitude": -95.134101082699999, 
            "state": "TX", 
            "street": "595 W Bay Area Blvd", 
            "latitude": 29.544563060600002
          }
        }, 
        {
          "category": "Local business", 
          "name": "Souper Salads", 
          "id": "104941996215394", 
          "category_list": [
            {
              "id": "149803325077018", 
              "name": "American Restaurant"
            }
          ], 
          "location": {
            "city": "Dallas", 
            "zip": "75248-7073", 
            "country": "United States", 
            "longitude": -96.816740999999993, 
            "state": "TX", 
            "street": "5525 Arapaho Rd Ste B", 
            "latitude": 32.961246000000003
          }
        }, 
        {
          "category": "Local business", 
          "name": "Souper Salads", 
          "id": "117192428300158", 
          "category_list": [
            {
              "id": "192831537402299", 
              "name": "Family Style Restaurant"
            }
          ], 
          "location": {
            "city": "Englewood", 
            "zip": "80112-6275", 
            "country": "United States", 
            "longitude": -104.897896, 
            "state": "CO", 
            "street": "7939 E Arapahoe Rd", 
            "latitude": 39.596355000000003
          }
        }, 
        {
          "category": "Local business", 
          "name": "Souper Salad", 
          "id": "105038832872250", 
          "category_list": [
            {
              "id": "149803325077018", 
              "name": "American Restaurant"
            }
          ], 
          "location": {
            "city": "Albuquerque", 
            "zip": "87106-4496", 
            "country": "United States", 
            "longitude": -106.62837501600001, 
            "state": "NM", 
            "street": "1606 Central Ave SE Ste 106", 
            "latitude": 35.081400854499996
          }
        }, 
        {
          "category": "Local business", 
          "name": "Souper Salad Inc", 
          "id": "104951302882138", 
          "category_list": [
            {
              "id": "149803325077018", 
              "name": "American Restaurant"
            }
          ], 
          "location": {
            "city": "Midvale", 
            "zip": "84047-2348", 
            "country": "United States", 
            "longitude": -111.869851, 
            "state": "UT", 
            "street": "751 Fort Union Blvd", 
            "latitude": 40.621581999999997
          }
        }, 
        {
          "category": "Local business", 
          "name": "Souper Salad with Keala Middleton", 
          "id": "115542301860008", 
          "category_list": [
            {
              "id": "149803325077018", 
              "name": "American Restaurant"
            }
          ], 
          "location": {
            "city": "Austin", 
            "zip": "", 
            "country": "United States", 
            "longitude": -97.707268470000002, 
            "state": "TX", 
            "street": "", 
            "latitude": 30.32910352
          }
        }, 
        {
          "category": "Local business", 
          "name": "Souper Salad Inc", 
          "id": "121334714543284", 
          "category_list": [
            {
              "id": "149803325077018", 
              "name": "American Restaurant"
            }
          ], 
          "location": {
            "city": "Spartanburg", 
            "zip": "29301-3217", 
            "country": "United States", 
            "longitude": -81.995790999999997, 
            "state": "SC", 
            "street": "660 Spartan Blvd Ste 180", 
            "latitude": 34.943767999999999
          }
        }, 
        {
          "category": "Local business", 
          "name": "Souper Salad Corp Office", 
          "id": "134698213247448", 
          "category_list": [
            {
              "id": "149803325077018", 
              "name": "American Restaurant"
            }
          ], 
          "location": {
            "city": "Needham Heights", 
            "zip": "02494-3259", 
            "country": "United States", 
            "longitude": -71.237059000000002, 
            "state": "MA", 
            "street": "145 Rosemary St Ste C", 
            "latitude": 42.288822000000003
          }
        }, 
        {
          "category": "Local business", 
          "name": "SouperSalad", 
          "id": "154379284591358", 
          "category_list": [
            {
              "id": "2500", 
              "name": "Local Business"
            }
          ], 
          "location": {
            "city": "Ogden", 
            "zip": "84405", 
            "country": "United States", 
            "longitude": -111.983699706, 
            "state": "UT", 
            "street": "", 
            "latitude": 41.190696304100001
          }
        }, 
        {
          "category": "Local business", 
          "name": "Souper!Salad! I10/Dezavala Rd", 
          "id": "390963497620202", 
          "category_list": [
            {
              "id": "2500", 
              "name": "Local Business"
            }
          ], 
          "location": {
            "city": "San Antonio", 
            "zip": "", 
            "country": "United States", 
            "longitude": -98.587108904499999, 
            "state": "TX", 
            "street": "", 
            "latitude": 29.564143706700001
          }
        }, 
        {
          "category": "Local business", 
          "name": "Souper Salad of Beth Israel", 
          "id": "120903434590082", 
          "category_list": [
            {
              "id": "149803325077018", 
              "name": "American Restaurant"
            }
          ], 
          "location": {
            "city": "Boston", 
            "zip": "02215-5401", 
            "country": "United States", 
            "longitude": -71.106620815300005, 
            "state": "MA", 
            "street": "364 Brookline Ave", 
            "latitude": 42.3390319795
          }
        }, 
        {
          "category": "Local business", 
          "name": "Souper Subs and Salad", 
          "id": "117268464958376", 
          "category_list": [
            {
              "id": "188334264523313", 
              "name": "Deli"
            }, 
            {
              "id": "188296324525457", 
              "name": "Sandwich Shop"
            }, 
            {
              "id": "149803325077018", 
              "name": "American Restaurant"
            }
          ], 
          "location": {
            "city": "Las Cruces", 
            "zip": "88005-2975", 
            "country": "United States", 
            "longitude": -106.77906, 
            "state": "NM", 
            "street": "300 El Molino Blvd", 
            "latitude": 32.303589000000002
          }
        }
      ]
    }
  }, 
  {
    "business_name": "Eldorado Cleaners", 
    "business_id": "SMIeQELrm91pYo_1OaO18A", 
    "fb_pages": {
      "paging": {
        "next": "https://graph.facebook.com/search?type=place&access_token=229546593895315|yPLlHqq6YvDLIH4nL0kjJtIFSlU&limit=5000&offset=5000&__after_id=121839944538774"
      }, 
      "data": [
        {
          "category": "Local business", 
          "name": "Eldorado Cleaners", 
          "id": "242012885842758", 
          "category_list": [
            {
              "id": "2500", 
              "name": "Local Business"
            }
          ], 
          "location": {
            "city": "Las Vegas", 
            "zip": "89123", 
            "country": "United States", 
            "longitude": -115.118026, 
            "state": "NV", 
            "street": "8160 Eastern Avenue ", 
            "latitude": 36.041423000000002
          }
        }, 
        {
          "category": "Local business", 
          "name": "Eldorado Cleaners", 
          "id": "212505625441676", 
          "category_list": [
            {
              "id": "133148010085253", 
              "name": "Dry Cleaner"
            }
          ], 
          "location": {
            "city": "San Antonio", 
            "zip": "78245", 
            "country": "United States", 
            "longitude": -98.662529000000006, 
            "state": "TX", 
            "street": "9055 Marbach Rd., Ste. 101", 
            "latitude": 29.418427000000001
          }
        }, 
        {
          "category": "Local business", 
          "name": "Eldorado Cleaners", 
          "id": "111292005600161", 
          "category_list": [
            {
              "id": "133148010085253", 
              "name": "Dry Cleaner"
            }
          ], 
          "location": {
            "city": "San Antonio", 
            "zip": "78238-4042", 
            "country": "United States", 
            "longitude": -98.624284000000003, 
            "state": "TX", 
            "street": "3387 Wurzbach Rd", 
            "latitude": 29.468525
          }
        }, 
        {
          "category": "Local business", 
          "name": "Eldorado Cleaners", 
          "id": "111834578873108", 
          "category_list": [
            {
              "id": "133148010085253", 
              "name": "Dry Cleaner"
            }
          ], 
          "location": {
            "city": "Las Vegas", 
            "zip": "89117", 
            "country": "United States", 
            "longitude": -115.260107624, 
            "state": "NV", 
            "street": "", 
            "latitude": 36.144092243199999
          }
        }, 
        {
          "category": "Local business", 
          "name": "Eldorado Cleaners", 
          "id": "122885841101860", 
          "category_list": [
            {
              "id": "133148010085253", 
              "name": "Dry Cleaner"
            }
          ], 
          "location": {
            "city": "San Antonio", 
            "zip": "78213-1338", 
            "country": "United States", 
            "longitude": -98.514854, 
            "state": "TX", 
            "street": "11107 West Ave", 
            "latitude": 29.541107
          }
        }, 
        {
          "category": "Local business", 
          "name": "Eldorado Cleaners", 
          "id": "148249151885118", 
          "category_list": [
            {
              "id": "133148010085253", 
              "name": "Dry Cleaner"
            }
          ], 
          "location": {
            "city": "San Antonio", 
            "zip": "78218-2334", 
            "country": "United States", 
            "longitude": -98.380095999999995, 
            "state": "TX", 
            "street": "8058 Midcrown Dr", 
            "latitude": 29.509709999999998
          }
        }, 
        {
          "category": "Local business", 
          "name": "Eldorado Cleaners", 
          "id": "162737253753997", 
          "category_list": [
            {
              "id": "133148010085253", 
              "name": "Dry Cleaner"
            }
          ], 
          "location": {
            "city": "Houston", 
            "zip": "77096-5505", 
            "country": "United States", 
            "longitude": -95.508232000000007, 
            "state": "TX", 
            "street": "11175 Fondren Rd", 
            "latitude": 29.657758999999999
          }
        }, 
        {
          "category": "Local business", 
          "name": "Xl Cleaners", 
          "id": "154974434540869", 
          "category_list": [
            {
              "id": "133148010085253", 
              "name": "Dry Cleaner"
            }
          ], 
          "location": {
            "city": "Klamath Falls", 
            "zip": "97601-6417", 
            "country": "United States", 
            "longitude": -121.78473099999999, 
            "state": "OR", 
            "street": "2223 N Eldorado Ave", 
            "latitude": 42.247815000000003
          }
        }, 
        {
          "category": "Local business", 
          "name": "City of Little Elm", 
          "id": "140529055982923", 
          "category_list": [
            {
              "id": "133148010085253", 
              "name": "Dry Cleaner"
            }, 
            {
              "id": "110121459069433", 
              "name": "Courthouse"
            }, 
            {
              "id": "161422927240513", 
              "name": "Government Organization"
            }
          ], 
          "location": {
            "city": "Little Elm", 
            "zip": "75068-5060", 
            "country": "United States", 
            "longitude": -96.940145723723006, 
            "state": "TX", 
            "street": "100 W Eldorado Pkwy", 
            "latitude": 33.158073193664002
          }
        }, 
        {
          "category": "Local business", 
          "name": "Executive Cleaners", 
          "id": "105069506226972", 
          "category_list": [
            {
              "id": "133148010085253", 
              "name": "Dry Cleaner"
            }
          ], 
          "location": {
            "city": "McKinney", 
            "zip": "75069-8019", 
            "country": "United States", 
            "longitude": -96.637079, 
            "state": "TX", 
            "street": "1720 W Eldorado Pkwy Ste 108", 
            "latitude": 33.172991000000003
          }
        }, 
        {
          "category": "Professional services", 
          "name": "Carpet Masters by Bramlet /Professional carpet cleaners", 
          "id": "156450617760799", 
          "category_list": [
            {
              "id": "176831012360626", 
              "name": "Professional Services"
            }
          ], 
          "location": {
            "city": "Eldorado", 
            "zip": "62930", 
            "country": "United States", 
            "longitude": -88.498519000000002, 
            "state": "IL", 
            "street": "2775 Union Grove Rd", 
            "latitude": 37.805008000000001
          }
        }, 
        {
          "category": "Local business", 
          "name": "Imperial Cleaners & Tailor", 
          "id": "159756624058152", 
          "category_list": [
            {
              "id": "133148010085253", 
              "name": "Dry Cleaner"
            }, 
            {
              "id": "140784189318631", 
              "name": "Sewing & Seamstress"
            }
          ], 
          "location": {
            "city": "McKinney", 
            "zip": "75070-5622", 
            "country": "United States", 
            "longitude": -96.697025999999994, 
            "state": "TX", 
            "street": "6150 W Eldorado Pkwy", 
            "latitude": 33.175719999999998
          }
        }, 
        {
          "category": "Local business", 
          "name": "Pride Cleaners & Launderers", 
          "id": "156438737729564", 
          "category_list": [
            {
              "id": "133148010085253", 
              "name": "Dry Cleaner"
            }
          ], 
          "location": {
            "city": "Decatur", 
            "zip": "62522-2162", 
            "country": "United States", 
            "longitude": -88.968474999999998, 
            "state": "IL", 
            "street": "912 W Eldorado St", 
            "latitude": 39.845894000000001
          }
        }, 
        {
          "category": "Local business", 
          "name": "Pride Cleaners & Launderers", 
          "id": "152219544819243", 
          "category_list": [
            {
              "id": "133148010085253", 
              "name": "Dry Cleaner"
            }
          ], 
          "location": {
            "city": "Decatur", 
            "zip": "62521-2126", 
            "country": "United States", 
            "longitude": -88.932868999999997, 
            "state": "IL", 
            "street": "1804 E Eldorado St", 
            "latitude": 39.846718000000003
          }
        }, 
        {
          "category": "Local business", 
          "name": "Highpoint Fine Dry Cleaning", 
          "id": "112231435507302", 
          "category_list": [
            {
              "id": "133148010085253", 
              "name": "Dry Cleaner"
            }
          ], 
          "location": {
            "city": "Little Elm", 
            "zip": "75068-5075", 
            "country": "United States", 
            "longitude": -96.942757, 
            "state": "TX", 
            "street": "407 W Eldorado Pkwy", 
            "latitude": 33.157932000000002
          }
        }, 
        {
          "category": "Local business", 
          "name": "Oxxo Care Center", 
          "id": "150232295019750", 
          "category_list": [
            {
              "id": "133148010085253", 
              "name": "Dry Cleaner"
            }
          ], 
          "location": {
            "city": "Frisco", 
            "zip": "75034-8697", 
            "country": "United States", 
            "longitude": -96.842294999999993, 
            "state": "TX", 
            "street": "5110 Eldorado Pkwy", 
            "latitude": 33.176029
          }
        }, 
        {
          "category": "Local business", 
          "name": "Melanie's Miracle", 
          "id": "155363771168096", 
          "category_list": [
            {
              "id": "133148010085253", 
              "name": "Dry Cleaner"
            }
          ], 
          "location": {
            "city": "Little Elm", 
            "zip": "75068-5632", 
            "country": "United States", 
            "longitude": -96.890675000000002, 
            "state": "TX", 
            "street": "2763 E Eldorado Pkwy", 
            "latitude": 33.179997
          }
        }, 
        {
          "category": "Local business", 
          "name": "Sudz Wash N Go", 
          "id": "215494071817811", 
          "category_list": [
            {
              "id": "133148010085253", 
              "name": "Dry Cleaner"
            }
          ], 
          "location": {
            "city": "Little Elm", 
            "zip": "75068", 
            "country": "United States", 
            "longitude": -96.923088610099995, 
            "state": "TX", 
            "street": "1000 E Eldorado Pkwy Ste 180", 
            "latitude": 33.168883120499999
          }
        }, 
        {
          "category": "Local business", 
          "name": "Chapple's Carpet Cleaning", 
          "id": "126950404025597", 
          "category_list": [
            {
              "id": "210709755608101", 
              "name": "Carpet Cleaner"
            }
          ], 
          "location": {
            "city": "Aurora", 
            "zip": "80013-2225", 
            "country": "United States", 
            "longitude": -104.78321099999999, 
            "state": "CO", 
            "street": "17663 E Eldorado Pl", 
            "latitude": 39.657017000000003
          }
        }, 
        {
          "category": "Business services", 
          "name": "Love My Clean House", 
          "id": "282313628551363", 
          "category_list": [
            {
              "id": "210709755608101", 
              "name": "Carpet Cleaner"
            }, 
            {
              "id": "186564191378474", 
              "name": "Cleaning Service"
            }, 
            {
              "id": "162645523784869", 
              "name": "Home Window Service"
            }
          ], 
          "location": {
            "city": "McKinney", 
            "zip": "75069", 
            "country": "United States", 
            "longitude": -96.637321, 
            "state": "TX", 
            "street": "1400 W Eldorado Park Way", 
            "latitude": 33.176333999999997
          }
        }, 
        {
          "category": "Local business", 
          "name": "ServiceMaster Clean", 
          "id": "121839944538774", 
          "category_list": [
            {
              "id": "210709755608101", 
              "name": "Carpet Cleaner"
            }, 
            {
              "id": "196285793716152", 
              "name": "Damage Restoration Service"
            }, 
            {
              "id": "186564191378474", 
              "name": "Cleaning Service"
            }
          ], 
          "location": {
            "city": "Eldorado", 
            "zip": "62930-3414", 
            "country": "United States", 
            "longitude": -88.492069000000001, 
            "state": "IL", 
            "street": "2660 Raleigh Rd", 
            "latitude": 37.821891999999998
          }
        }
      ]
    }
  }, 
  {
    "business_name": "Pool Daddy", 
    "business_id": "VnqQIgN7ZqnZhrDnxc30YQ", 
    "fb_pages": {
      "paging": {
        "next": "https://graph.facebook.com/search?type=place&access_token=229546593895315|yPLlHqq6YvDLIH4nL0kjJtIFSlU&limit=5000&offset=5000&__after_id=185858611514788"
      }, 
      "data": [
        {
          "category": "Local business", 
          "name": "Rack Daddy's", 
          "id": "115395421817118", 
          "category_list": [
            {
              "id": "197750126917541", 
              "name": "Pool & Billiards"
            }, 
            {
              "id": "165679780146824", 
              "name": "Food & Restaurant"
            }
          ], 
          "location": {
            "city": "Austin", 
            "zip": "78741-4799", 
            "country": "United States", 
            "longitude": -97.721252539535996, 
            "state": "TX", 
            "street": "4410 E Riverside Dr", 
            "latitude": 30.233257832048
          }
        }, 
        {
          "category": "Local business", 
          "name": "Rack Daddy's", 
          "id": "153211204690725", 
          "category_list": [
            {
              "id": "197750126917541", 
              "name": "Pool & Billiards"
            }, 
            {
              "id": "233804719972590", 
              "name": "Bar & Grill"
            }, 
            {
              "id": "184460441595855", 
              "name": "Sports Bar"
            }
          ], 
          "location": {
            "city": "Brownsville", 
            "zip": "78526", 
            "country": "United States", 
            "longitude": -97.479299515681006, 
            "state": "TX", 
            "street": "2410 Hudson Boulevard, Brownsville, TX", 
            "latitude": 25.950685922157
          }
        }, 
        {
          "category": "Local business", 
          "name": "Pool Daddy", 
          "id": "217459875050029", 
          "category_list": [
            {
              "id": "124760297597666", 
              "name": "Swimming Pool Maintenance"
            }, 
            {
              "id": "124887510918208", 
              "name": "Swimming Pool"
            }
          ], 
          "location": {
            "city": "Phoenix", 
            "zip": "85032", 
            "country": "United States", 
            "longitude": -112.013611, 
            "state": "AZ", 
            "street": "13203 N. 31st Way", 
            "latitude": 33.606490999999998
          }
        }, 
        {
          "category": "Local business", 
          "name": "Rack Daddy's", 
          "id": "111731225531228", 
          "category_list": [
            {
              "id": "197750126917541", 
              "name": "Pool & Billiards"
            }, 
            {
              "id": "165679780146824", 
              "name": "Food & Restaurant"
            }
          ], 
          "location": {
            "city": "Quincy", 
            "zip": "62301-2927", 
            "country": "United States", 
            "longitude": -91.409136999943001, 
            "state": "IL", 
            "street": "421 Hampshire St", 
            "latitude": 39.933239526854997
          }
        }, 
        {
          "category": "Food/beverages", 
          "name": "Big Daddy's House of Pool", 
          "id": "548013015282184", 
          "category_list": [
            {
              "id": "233804719972590", 
              "name": "Bar & Grill"
            }, 
            {
              "id": "197750126917541", 
              "name": "Pool & Billiards"
            }, 
            {
              "id": "164409566941435", 
              "name": "Arcade"
            }
          ], 
          "location": {
            "city": "Macon", 
            "zip": "31211", 
            "country": "United States", 
            "longitude": -83.594275999999994, 
            "state": "GA", 
            "street": "1705 Shurling Dr.", 
            "latitude": 32.860877000000002
          }
        }, 
        {
          "category": "Professional services", 
          "name": "Pool Daddy's Swimming Pool Service", 
          "id": "142227319179525", 
          "category_list": [
            {
              "id": "124760297597666", 
              "name": "Swimming Pool Maintenance"
            }
          ], 
          "location": {
            "city": "El Paso", 
            "zip": "79936", 
            "country": "United States", 
            "longitude": -106.38733999999999, 
            "state": "TX", 
            "street": "East Side", 
            "latitude": 31.772659999999998
          }
        }, 
        {
          "category": "Restaurant/cafe", 
          "name": "Big Daddy's Pool Hall and Sports Bar", 
          "id": "473664362685652", 
          "category_list": [
            {
              "id": "273819889375819", 
              "name": "Restaurant"
            }
          ], 
          "location": {
            "city": "Abbeville", 
            "zip": "70510", 
            "country": "United States", 
            "longitude": -92.1038063803, 
            "state": "LA", 
            "street": "301 Ardly Drive", 
            "latitude": 29.973642783199999
          }
        }, 
        {
          "category": "Local business", 
          "name": "Big Daddy's Billiards LLC", 
          "id": "115557391800088", 
          "category_list": [
            {
              "id": "197750126917541", 
              "name": "Pool & Billiards"
            }
          ], 
          "location": {
            "city": "Glen Burnie", 
            "zip": "21060-8187", 
            "country": "United States", 
            "longitude": -76.586099638272003, 
            "state": "MD", 
            "street": "7954 Baltimore Annapolis Blvd Ste 2G", 
            "latitude": 39.135268238715
          }
        }, 
        {
          "category": "Local business", 
          "name": "Big Daddy's Billiards", 
          "id": "117556068262972", 
          "category_list": [
            {
              "id": "197750126917541", 
              "name": "Pool & Billiards"
            }, 
            {
              "id": "273819889375819", 
              "name": "Restaurant"
            }
          ], 
          "location": {
            "city": "North Ridgeville", 
            "zip": "44039-6442", 
            "country": "United States", 
            "longitude": -81.998428000000004, 
            "state": "OH", 
            "street": "34425 Lorain Rd", 
            "latitude": 41.365966999999998
          }
        }, 
        {
          "category": "Local business", 
          "name": "Daddy's Billards Club", 
          "id": "206801409345863", 
          "category_list": [
            {
              "id": "197750126917541", 
              "name": "Pool & Billiards"
            }
          ], 
          "location": {
            "city": "Krak\u00f3w", 
            "zip": "31-141", 
            "country": "Poland", 
            "longitude": 19.9359339019, 
            "state": "", 
            "street": "Krowoderska 28", 
            "latitude": 50.069543533299999
          }
        }, 
        {
          "category": "Local business", 
          "name": "Big Daddy's Billiards", 
          "id": "113472582019412", 
          "category_list": [
            {
              "id": "197750126917541", 
              "name": "Pool & Billiards"
            }
          ], 
          "location": {
            "city": "Alvin", 
            "zip": "77511-5539", 
            "country": "United States", 
            "longitude": -95.245002999999997, 
            "state": "TX", 
            "street": "1319 N Gordon St", 
            "latitude": 29.434882999999999
          }
        }, 
        {
          "category": "Local business", 
          "name": "Big Daddy's Pool Hall and Groceries", 
          "id": "124325444282353", 
          "category_list": [
            {
              "id": "169207329791658", 
              "name": "Grocery Store"
            }
          ], 
          "location": {
            "city": "Ethel", 
            "zip": "39067", 
            "country": "United States", 
            "longitude": -89.762957083299995, 
            "state": "MS", 
            "street": "2026 Attala Road 4116", 
            "latitude": 32.9926943667
          }
        }, 
        {
          "category": "Local business", 
          "name": "Big Daddys Pool Hall", 
          "id": "155627801274997", 
          "category_list": [
            {
              "id": "192119584190796", 
              "name": "Event"
            }
          ], 
          "location": {
            "city": "Newport", 
            "zip": "37821", 
            "country": "United States", 
            "longitude": -83.211834999999994, 
            "state": "TN", 
            "street": "W Broadway AT Us 25 70", 
            "latitude": 35.971941000000001
          }
        }, 
        {
          "category": "Local business", 
          "name": "Big Daddys Pool Deck", 
          "id": "185858611514788", 
          "category_list": [
            {
              "id": "2500", 
              "name": "Local Business"
            }
          ], 
          "location": {
            "city": "Pembroke Pines", 
            "zip": "33024", 
            "country": "United States", 
            "longitude": -80.268214707300004, 
            "state": "FL", 
            "street": "", 
            "latitude": 26.024760326900001
          }
        }
      ]
    }
  }, 
  {
    "business_name": "Souvia Tea", 
    "business_id": "6OFYUDvf2k4RXDfOomfi1A", 
    "fb_pages": {
      "paging": {
        "next": "https://graph.facebook.com/search?type=place&access_token=229546593895315|yPLlHqq6YvDLIH4nL0kjJtIFSlU&limit=5000&offset=5000&__after_id=233355843410844"
      }, 
      "data": [
        {
          "category": "Food/grocery", 
          "name": "Souvia Tea - Loose leaf Tea and Herbals - Phoenix and Scottsdale AZ", 
          "id": "134800037430", 
          "category_list": [
            {
              "id": "150108431712141", 
              "name": "Food & Grocery"
            }, 
            {
              "id": "197871390225897", 
              "name": "Cafe"
            }
          ], 
          "location": {
            "city": "Phoenix", 
            "zip": "85022", 
            "country": "United States", 
            "longitude": -112.06622789799999, 
            "state": "AZ", 
            "street": "15414 N. 7th St #8", 
            "latitude": 33.626245924400003
          }
        }, 
        {
          "category": "Local business", 
          "name": "Souvia Tea", 
          "id": "233355843410844", 
          "category_list": [
            {
              "id": "2500", 
              "name": "Local Business"
            }
          ], 
          "location": {
            "city": "Phoenix", 
            "zip": "", 
            "country": "United States", 
            "longitude": -112.07272, 
            "state": "AZ", 
            "street": "", 
            "latitude": 33.633859999999999
          }
        }
      ]
    }
  }, 
  {
    "business_name": "The Mindful Way", 
    "business_id": "m-32wtMGKTJe_8Z9gn_kAQ", 
    "fb_pages": {
      "paging": {
        "next": "https://graph.facebook.com/search?type=place&access_token=229546593895315|yPLlHqq6YvDLIH4nL0kjJtIFSlU&limit=5000&offset=5000&__after_id=369695577841"
      }, 
      "data": [
        {
          "category": "Professional services", 
          "name": "The Mindful Way", 
          "id": "101207203336493", 
          "category_list": [
            {
              "id": "176831012360626", 
              "name": "Professional Services"
            }
          ], 
          "location": {
            "city": "Cary", 
            "zip": "27511", 
            "country": "United States", 
            "longitude": -78.785416999999995, 
            "state": "NC", 
            "street": "140 Iowa Lane", 
            "latitude": 35.768836999999998
          }
        }, 
        {
          "category": "Education", 
          "name": "The Mindful Way for Parents", 
          "id": "194597230434", 
          "category_list": [
            {
              "id": "151676848220295", 
              "name": "Education"
            }
          ], 
          "location": {
            "city": "Littleton", 
            "zip": "80120", 
            "country": "United States", 
            "longitude": -105.01106299999999, 
            "state": "CO", 
            "street": "1950 West Littleton Boulevard", 
            "latitude": 39.612732000000001
          }
        }, 
        {
          "category": "Local business", 
          "name": "the way of silent mind-open heart", 
          "id": "311640405784", 
          "category_list": [
            {
              "id": "2500", 
              "name": "Local Business"
            }
          ], 
          "location": {
            "city": "Columbia", 
            "zip": "65203", 
            "country": "United States", 
            "longitude": -92.319427500000003, 
            "state": "MO", 
            "street": "Above the Beyond Yoga, 1400 Forum Blvd. (Forum Shopping Center), Suite 42", 
            "latitude": 38.954327499999998
          }
        }, 
        {
          "category": "Event planning/event services", 
          "name": "Body Mind & Psychic Expo Adelaide Australia", 
          "id": "289220444755", 
          "category_list": [
            {
              "id": "108565442553819", 
              "name": "Psychic"
            }, 
            {
              "id": "109578329118821", 
              "name": "Massage"
            }, 
            {
              "id": "357645644269220", 
              "name": "Alternative & Holistic Health"
            }
          ], 
          "location": {
            "city": "Wayville", 
            "zip": "5034", 
            "country": "Australia", 
            "longitude": 138.58725555000001, 
            "state": "SA", 
            "street": "Adelaide Showgrounds Goodwood Road", 
            "latitude": -34.944922020699998
          }
        }, 
        {
          "category": "Company", 
          "name": "Mindful Way", 
          "id": "603472419684102", 
          "category_list": [
            {
              "id": "280963708658321", 
              "name": "Classes"
            }
          ], 
          "location": {
            "city": "Namsos", 
            "zip": "", 
            "country": "Norway", 
            "longitude": 11.5, 
            "state": "", 
            "street": "", 
            "latitude": 64.4833
          }
        }, 
        {
          "category": "Non-profit organization", 
          "name": "A Way In: Jewish Mindfulness Program", 
          "id": "162051260529827", 
          "category_list": [
            {
              "id": "2603", 
              "name": "Non-Profit Organization"
            }
          ], 
          "location": {
            "city": "Philadelphia", 
            "zip": "19128", 
            "country": "United States", 
            "longitude": -75.210265089999993, 
            "state": "PA", 
            "street": "c/o Mishkan Shalom, 4101 Freeland Avenue ", 
            "latitude": 40.0256918742
          }
        }, 
        {
          "category": "Health/medical/pharmacy", 
          "name": "One Mindful Way", 
          "id": "559615980740843", 
          "category_list": [
            {
              "id": "145118935550090", 
              "name": "Medical & Health"
            }
          ], 
          "location": {
            "city": "Endwell", 
            "zip": "13760", 
            "country": "United States", 
            "longitude": -76.022339000000002, 
            "state": "NY", 
            "street": "3220 Pearl Street", 
            "latitude": 42.107235000000003
          }
        }, 
        {
          "category": "Legal/law", 
          "name": "Peace of Mind Planning - Probate", 
          "id": "452758211509280", 
          "category_list": [
            {
              "id": "121688031239297", 
              "name": "Estate Lawyer"
            }, 
            {
              "id": "180001142041484", 
              "name": "Wills & Estate Lawyer"
            }, 
            {
              "id": "204887546203055", 
              "name": "Estate Planning"
            }
          ], 
          "location": {
            "city": "Federal Way", 
            "zip": "98003", 
            "country": "United States", 
            "longitude": -122.31025699999999, 
            "state": "WA", 
            "street": "1814 South 324th Place, Suite B", 
            "latitude": 47.311236999999998
          }
        }, 
        {
          "category": "Education", 
          "name": "Mind Your Way", 
          "id": "139441629461254", 
          "category_list": [
            {
              "id": "151676848220295", 
              "name": "Education"
            }
          ], 
          "location": {
            "city": "Bromsgrove", 
            "zip": "B61 8LL", 
            "country": "United Kingdom", 
            "longitude": -2.06748152704, 
            "state": "", 
            "street": "Ashley Rutter, 70 Broad Street", 
            "latitude": 52.343038352500002
          }
        }, 
        {
          "category": "Health/medical/pharmaceuticals", 
          "name": "HeadWay Health - Empower Your Body & Mind", 
          "id": "140921355962422", 
          "category_list": [
            {
              "id": "145118935550090", 
              "name": "Medical & Health"
            }
          ], 
          "location": {
            "city": "Austin", 
            "zip": "78746", 
            "country": "United States", 
            "longitude": -97.783702000000005, 
            "state": "TX", 
            "street": "2525 Wallingwood Dr. Bldg. 15, Ste 1504", 
            "latitude": 30.263935
          }
        }, 
        {
          "category": "Education", 
          "name": "Wisdom Way Mindful Creativity", 
          "id": "415017368542294", 
          "category_list": [
            {
              "id": "151676848220295", 
              "name": "Education"
            }
          ], 
          "location": {
            "city": "Soquel", 
            "zip": "95073", 
            "country": "United States", 
            "longitude": -121.956429, 
            "state": "CA", 
            "street": "4746 Soquel Dr.", 
            "latitude": 36.988163
          }
        }, 
        {
          "category": "Legal/law", 
          "name": "Peace of Mind Planning for Empty Nesters", 
          "id": "343464365789892", 
          "category_list": [
            {
              "id": "204887546203055", 
              "name": "Estate Planning"
            }, 
            {
              "id": "121688031239297", 
              "name": "Estate Lawyer"
            }, 
            {
              "id": "180001142041484", 
              "name": "Wills & Estate Lawyer"
            }
          ], 
          "location": {
            "city": "Federal Way", 
            "zip": "98003", 
            "country": "United States", 
            "longitude": -122.31025699999999, 
            "state": "WA", 
            "street": "1814 South 324th Place, Suite B", 
            "latitude": 47.311236999999998
          }
        }, 
        {
          "category": "Health/medical/pharmacy", 
          "name": "Mindful Way Maine", 
          "id": "383149298480715", 
          "category_list": [
            {
              "id": "132328993501399", 
              "name": "Counseling & Mental Health"
            }, 
            {
              "id": "280963708658321", 
              "name": "Classes"
            }
          ], 
          "location": {
            "city": "Portland", 
            "zip": "04101", 
            "country": "United States", 
            "longitude": -70.249859000000001, 
            "state": "ME", 
            "street": "25 Middle Street ", 
            "latitude": 43.660530999999999
          }
        }, 
        {
          "category": "Local business", 
          "name": "Mindful Way Counseling: Mindfulness Meditation and Psychotherapy", 
          "id": "162577507113123", 
          "category_list": [
            {
              "id": "132328993501399", 
              "name": "Counseling & Mental Health"
            }
          ], 
          "location": {
            "city": "Baltimore", 
            "zip": "21211", 
            "country": "United States", 
            "longitude": -76.627219999999994, 
            "state": "MD", 
            "street": "3355 Keswick Rd. Carriage House, Suite C", 
            "latitude": 39.328453000000003
          }
        }, 
        {
          "category": "Legal/law", 
          "name": "Peace of Mind Planning for Single People", 
          "id": "1431381697089357", 
          "category_list": [
            {
              "id": "204887546203055", 
              "name": "Estate Planning"
            }, 
            {
              "id": "121688031239297", 
              "name": "Estate Lawyer"
            }, 
            {
              "id": "180001142041484", 
              "name": "Wills & Estate Lawyer"
            }
          ], 
          "location": {
            "city": "Federal Way", 
            "zip": "98003", 
            "country": "United States", 
            "longitude": -122.31025699999999, 
            "state": "WA", 
            "street": "1814 South 324th Place, Suite B", 
            "latitude": 47.311236999999998
          }
        }, 
        {
          "category": "Legal/law", 
          "name": "Peace of Mind Planning for Young Families", 
          "id": "384159581714077", 
          "category_list": [
            {
              "id": "204887546203055", 
              "name": "Estate Planning"
            }, 
            {
              "id": "121688031239297", 
              "name": "Estate Lawyer"
            }, 
            {
              "id": "180001142041484", 
              "name": "Wills & Estate Lawyer"
            }
          ], 
          "location": {
            "city": "Federal Way", 
            "zip": "98003", 
            "country": "United States", 
            "longitude": -122.31025699999999, 
            "state": "WA", 
            "street": "1814 South 324th Place, Suite B ", 
            "latitude": 47.311236999999998
          }
        }, 
        {
          "category": "Legal/law", 
          "name": "Peace of Mind Planning for Retirees", 
          "id": "309115565894892", 
          "category_list": [
            {
              "id": "204887546203055", 
              "name": "Estate Planning"
            }, 
            {
              "id": "121688031239297", 
              "name": "Estate Lawyer"
            }, 
            {
              "id": "180001142041484", 
              "name": "Wills & Estate Lawyer"
            }
          ], 
          "location": {
            "city": "Federal Way", 
            "zip": "98003", 
            "country": "United States", 
            "longitude": -122.31025699999999, 
            "state": "WA", 
            "street": "1814 South 324th Place, Suite B", 
            "latitude": 47.311236999999998
          }
        }, 
        {
          "category": "Legal/law", 
          "name": "Peace of Mind Planning for Same Sex Couples In Washington", 
          "id": "613263298715021", 
          "category_list": [
            {
              "id": "204887546203055", 
              "name": "Estate Planning"
            }, 
            {
              "id": "180001142041484", 
              "name": "Wills & Estate Lawyer"
            }, 
            {
              "id": "121688031239297", 
              "name": "Estate Lawyer"
            }
          ], 
          "location": {
            "city": "Federal Way", 
            "zip": "98003", 
            "country": "United States", 
            "longitude": -122.31025699999999, 
            "state": "WA", 
            "street": "1814 South 324th Place, Suite B", 
            "latitude": 47.311236999999998
          }
        }, 
        {
          "category": "Legal/law", 
          "name": "Peace of Mind Planning for Recently Divorced", 
          "id": "643895428974734", 
          "category_list": [
            {
              "id": "204887546203055", 
              "name": "Estate Planning"
            }, 
            {
              "id": "121688031239297", 
              "name": "Estate Lawyer"
            }, 
            {
              "id": "180001142041484", 
              "name": "Wills & Estate Lawyer"
            }
          ], 
          "location": {
            "city": "Federal Way", 
            "zip": "98003", 
            "country": "United States", 
            "longitude": -122.31025699999999, 
            "state": "WA", 
            "street": "1814 South 324th Place, Suite B", 
            "latitude": 47.311236999999998
          }
        }, 
        {
          "category": "Spas/beauty/personal care", 
          "name": "Mind Body Essence", 
          "id": "225772187579548", 
          "category_list": [
            {
              "id": "139225689474222", 
              "name": "Spa, Beauty & Personal Care"
            }
          ], 
          "location": {
            "city": "Wayne", 
            "zip": "07470", 
            "country": "United States", 
            "longitude": -74.242683, 
            "state": "NJ", 
            "street": "22 Riverview Drive", 
            "latitude": 40.912933000000002
          }
        }, 
        {
          "category": "Education", 
          "name": "Growing Minds llc", 
          "id": "136150513897", 
          "category_list": [
            {
              "id": "151676848220295", 
              "name": "Education"
            }
          ], 
          "location": {
            "city": "Fort Wayne", 
            "zip": "46850", 
            "country": "United States", 
            "longitude": -85.150977999999995, 
            "state": "IN", 
            "street": "5310 Merchandise Drive", 
            "latitude": 41.126815999999998
          }
        }, 
        {
          "category": "Non-profit organization", 
          "name": "Women of Revisionary Minds", 
          "id": "184138455079070", 
          "category_list": [
            {
              "id": "152880021441864", 
              "name": "Community Organization"
            }
          ], 
          "location": {
            "city": "Waynesville", 
            "zip": "65583", 
            "country": "United States", 
            "longitude": -92.211893037826997, 
            "state": "MO", 
            "street": "Po Box 310", 
            "latitude": 37.822555154920003
          }
        }, 
        {
          "category": "Community/government", 
          "name": "Mindful Ways Project", 
          "id": "551988261496027", 
          "category_list": [
            {
              "id": "188662441155211", 
              "name": "Community & Government"
            }
          ], 
          "location": {
            "city": "San Jose", 
            "zip": "95129", 
            "country": "United States", 
            "longitude": -121.99422, 
            "state": "CA", 
            "street": "1741 Saratoga Ave. #101", 
            "latitude": 37.290533000000003
          }
        }, 
        {
          "category": "Attractions/things to do", 
          "name": "Spirit Fayre - Mind Body Spirit Expo", 
          "id": "137828598378", 
          "category_list": [
            {
              "id": "2523", 
              "name": "Attractions/Things to Do"
            }
          ], 
          "location": {
            "city": "Fort Wayne", 
            "zip": "46818", 
            "country": "United States", 
            "longitude": -85.178420000000003, 
            "state": "IN", 
            "street": "Allen County Fairgrounds, 2720 Carroll Rd", 
            "latitude": 41.19171
          }
        }, 
        {
          "category": "University", 
          "name": "Active Minds At Wayland Baptist University", 
          "id": "254591117915934", 
          "category_list": [
            {
              "id": "108051929285833", 
              "name": "College & University"
            }
          ], 
          "location": {
            "city": "Plainview", 
            "zip": "79072", 
            "country": "United States", 
            "longitude": -101.729613, 
            "state": "TX", 
            "street": "1900 West 7th St.", 
            "latitude": 34.186794999999996
          }
        }, 
        {
          "category": "Local business", 
          "name": "Wonderful Minds Licensed Home Daycare", 
          "id": "133518363525297", 
          "category_list": [
            {
              "id": "2500", 
              "name": "Local Business"
            }
          ], 
          "location": {
            "city": "Fort Wayne", 
            "zip": "46802", 
            "country": "United States", 
            "longitude": -85.164428999999998, 
            "state": "IN", 
            "street": "2430 Carlton Ct", 
            "latitude": 41.062466000000001
          }
        }, 
        {
          "category": "Local business", 
          "name": "Mindful Movements Pilates Studio", 
          "id": "369695577841", 
          "category_list": [
            {
              "id": "174832985894571", 
              "name": "Yoga & Pilates"
            }
          ], 
          "location": {
            "city": "Fort Wayne", 
            "zip": "46804", 
            "country": "United States", 
            "longitude": -85.260279242899998, 
            "state": "IN", 
            "street": "5750 Coventry Lane", 
            "latitude": 41.032779249999997
          }
        }
      ]
    }
  }, 
  {
    "business_name": "Moda Fina Fine Jewelry", 
    "business_id": "PO6gVnfmA-877zuw8n0auw", 
    "fb_pages": {
      "paging": {
        "next": "https://graph.facebook.com/search?type=place&access_token=229546593895315|yPLlHqq6YvDLIH4nL0kjJtIFSlU&limit=5000&offset=5000&__after_id=143836278977657"
      }, 
      "data": [
        {
          "category": "Shopping/retail", 
          "name": "Moda Fina  Fine Diamonds and Jewelry", 
          "id": "143836278977657", 
          "category_list": [
            {
              "id": "188031587886173", 
              "name": "Jewelry Store"
            }
          ], 
          "location": {
            "city": "Phoenix", 
            "zip": "85018", 
            "country": "United States", 
            "longitude": -112.01103999999999, 
            "state": "AZ", 
            "street": "3240 East Camelback Road", 
            "latitude": 33.510399
          }
        }
      ]
    }
  }, 
  {
    "business_name": "Cyprus Grill of Phoenix", 
    "business_id": "Rg3INE2p4zQYvfMvJduEOQ", 
    "fb_pages": {
      "paging": {
        "next": "https://graph.facebook.com/search?type=place&access_token=229546593895315|yPLlHqq6YvDLIH4nL0kjJtIFSlU&limit=5000&offset=5000&__after_id=174241565762"
      }, 
      "data": [
        {
          "category": "Restaurant/cafe", 
          "name": "Cyprus Grill of Phoenix", 
          "id": "174241565762", 
          "category_list": [
            {
              "id": "144722595590046", 
              "name": "Greek Restaurant"
            }, 
            {
              "id": "176960322351733", 
              "name": "Mediterranean Restaurant"
            }, 
            {
              "id": "200742186618963", 
              "name": "Vegetarian & Vegan Restaurant"
            }
          ], 
          "location": {
            "city": "Phoenix", 
            "zip": "85016", 
            "country": "United States", 
            "longitude": -112.03764396347999, 
            "state": "AZ", 
            "street": "4747 N. 20th Street", 
            "latitude": 33.507508302175999
          }
        }
      ]
    }
  }, 
  {
    "business_name": "Construction Lots", 
    "business_id": "tQH1EHDJozYaXydEQ4AfxQ", 
    "fb_pages": {
      "paging": {
        "next": "https://graph.facebook.com/search?type=place&access_token=229546593895315|yPLlHqq6YvDLIH4nL0kjJtIFSlU&limit=5000&offset=5000&__after_id=168537876494076"
      }, 
      "data": [
        {
          "category": "Local business", 
          "name": "Construction Lots", 
          "id": "137947699557308", 
          "category_list": [
            {
              "id": "2500", 
              "name": "Local Business"
            }
          ], 
          "location": {
            "city": "Phoenix", 
            "zip": "85034", 
            "country": "United States", 
            "longitude": -112.011475, 
            "state": "AZ", 
            "street": "3230 E Washington Street Phoenix, AZ 85034", 
            "latitude": 33.448441000000003
          }
        }, 
        {
          "category": "Local business", 
          "name": "Big Lots", 
          "id": "123932694329328", 
          "category_list": [
            {
              "id": "188569091163640", 
              "name": "Construction Service & Supply"
            }, 
            {
              "id": "190108547677820", 
              "name": "Janitorial Service"
            }, 
            {
              "id": "109527622457518", 
              "name": "Shopping Mall"
            }
          ], 
          "location": {
            "city": "Longview", 
            "zip": "98632-9720", 
            "country": "United States", 
            "longitude": -123.181442, 
            "state": "WA", 
            "street": "373 Robertson Rd", 
            "latitude": 46.197856999999999
          }
        }, 
        {
          "category": "Local business", 
          "name": "Lots of Tile", 
          "id": "110172275712989", 
          "category_list": [
            {
              "id": "188569091163640", 
              "name": "Construction Service & Supply"
            }, 
            {
              "id": "124555004283973", 
              "name": "Masonry"
            }
          ], 
          "location": {
            "city": "Humble", 
            "zip": "77338-2407", 
            "country": "United States", 
            "longitude": -95.266445000000004, 
            "state": "TX", 
            "street": "20034 Highway 59 N", 
            "latitude": 30.006883999999999
          }
        }, 
        {
          "category": "Local business", 
          "name": "Lots of Tile", 
          "id": "139357866111829", 
          "category_list": [
            {
              "id": "188569091163640", 
              "name": "Construction Service & Supply"
            }, 
            {
              "id": "124555004283973", 
              "name": "Masonry"
            }
          ], 
          "location": {
            "city": "Oklahoma City", 
            "zip": "73128", 
            "country": "United States", 
            "longitude": -97.617546000000004, 
            "state": "OK", 
            "street": "1408 S Macarthur Blvd", 
            "latitude": 35.451210000000003
          }
        }, 
        {
          "category": "Local business", 
          "name": "Lot Construction", 
          "id": "157348234297136", 
          "category_list": [
            {
              "id": "108427109235243", 
              "name": "Home Improvement"
            }
          ], 
          "location": {
            "city": "Lynbrook", 
            "zip": "11563-3243", 
            "country": "United States", 
            "longitude": -73.678962999999996, 
            "state": "NY", 
            "street": "253 Broadway", 
            "latitude": 40.652957000000001
          }
        }, 
        {
          "category": "Engineering/construction", 
          "name": "DMCI Homes Resorts Condo, house and Lot", 
          "id": "130216767169073", 
          "category_list": [
            {
              "id": "181216025249367", 
              "name": "Apartment & Condo Building"
            }, 
            {
              "id": "196739023685716", 
              "name": "Real Estate Agent"
            }
          ], 
          "location": {
            "city": "Makati", 
            "zip": "1233", 
            "country": "Philippines", 
            "longitude": 121.01309986496, 
            "state": "", 
            "street": "1321 Apolinario St., Brgy. Bangkal, Makati City, Philippines 1233", 
            "latitude": 14.542984432557001
          }
        }, 
        {
          "category": "Local business", 
          "name": "A1 Save-A-Lot Construction", 
          "id": "137657529615157", 
          "category_list": [
            {
              "id": "145208072207332", 
              "name": "Real Estate Title & Development"
            }, 
            {
              "id": "108427109235243", 
              "name": "Home Improvement"
            }, 
            {
              "id": "169207329791658", 
              "name": "Grocery Store"
            }
          ], 
          "location": {
            "city": "Cleveland", 
            "zip": "44104-2244", 
            "country": "United States", 
            "longitude": -81.627609000000007, 
            "state": "OH", 
            "street": "2532 E 86th St", 
            "latitude": 41.489704000000003
          }
        }, 
        {
          "category": "Professional services", 
          "name": "Driven Parking Lot Construction and Maintenance", 
          "id": "491091120916706", 
          "category_list": [
            {
              "id": "176831012360626", 
              "name": "Professional Services"
            }
          ], 
          "location": {
            "city": "Kansas City", 
            "zip": "64131", 
            "country": "United States", 
            "longitude": -94.576300000000003, 
            "state": "MO", 
            "street": "", 
            "latitude": 38.963999999999999
          }
        }, 
        {
          "category": "Business services", 
          "name": "Express Construction Parking lot maintenance", 
          "id": "117526568403211", 
          "category_list": [
            {
              "id": "187133811318958", 
              "name": "Business Services"
            }
          ], 
          "location": {
            "city": "Round Rock", 
            "zip": "78664", 
            "country": "United States", 
            "longitude": -97.611221, 
            "state": "TX", 
            "street": "15 Wildflower Dr.", 
            "latitude": 30.519054000000001
          }
        }, 
        {
          "category": "Company", 
          "name": "Buying House/Stock Lot/Event Management/Piling & Construction", 
          "id": "398458493529917", 
          "category_list": [
            {
              "id": "2200", 
              "name": "Company"
            }
          ], 
          "location": {
            "city": "Dhaka", 
            "zip": "1216", 
            "country": "Bangladesh", 
            "longitude": 90.375, 
            "street": "285/287,Road-3,Mirpur-12,DOHS", 
            "latitude": 23.699999999999999
          }
        }, 
        {
          "category": "Engineering/construction", 
          "name": "PLot Renders Dise\u00f1o Construcci\u00f3n", 
          "id": "513724658643302", 
          "category_list": [
            {
              "id": "2251", 
              "name": "Engineering/Construction"
            }
          ], 
          "location": {
            "city": "Morelia", 
            "zip": "58069", 
            "country": "Mexico", 
            "longitude": -101.18899999999999, 
            "state": "", 
            "street": "Dinamarca 429", 
            "latitude": 19.7683
          }
        }, 
        {
          "category": "Local business", 
          "name": "Kl Sentral Lot G Mrcb/Ireka Engineering Construction Development", 
          "id": "186891584711964", 
          "category_list": [
            {
              "id": "2500", 
              "name": "Local Business"
            }
          ], 
          "location": {
            "latitude": 3.1321978383900002, 
            "street": "", 
            "zip": "", 
            "longitude": 101.68665711600001
          }
        }, 
        {
          "category": "Engineering/construction", 
          "name": "Professional Parking Lot Striping Inc.", 
          "id": "145118155644169", 
          "category_list": [
            {
              "id": "2251", 
              "name": "Engineering/Construction"
            }
          ], 
          "location": {
            "city": "Woodbine", 
            "zip": "21797", 
            "country": "United States", 
            "longitude": -77.063225000000003, 
            "state": "MD", 
            "street": "1930 Gillis Falls Road ", 
            "latitude": 39.391272999999998
          }
        }, 
        {
          "category": "Engineering/construction", 
          "name": "F\u00e9d\u00e9ration B\u00e2timent et TP du Lot", 
          "id": "525716524185654", 
          "category_list": [
            {
              "id": "188569091163640", 
              "name": "Construction Service & Supply"
            }, 
            {
              "id": "201528873201605", 
              "name": "Management Service"
            }
          ], 
          "location": {
            "city": "Cahors", 
            "zip": "46000", 
            "country": "France", 
            "longitude": 1.4484329734743999, 
            "state": "", 
            "street": "R\u00e9sidence la fontaine B\u00e2timent C 549 avenue du maquis", 
            "latitude": 44.455429832461
          }
        }, 
        {
          "category": "Local business", 
          "name": "Menards Parking Lot", 
          "id": "125896917464168", 
          "category_list": [
            {
              "id": "188569091163640", 
              "name": "Construction Service & Supply"
            }, 
            {
              "id": "188977087789280", 
              "name": "Paving & Asphalt Service"
            }
          ], 
          "location": {
            "city": "Sioux Falls", 
            "zip": "57110", 
            "country": "United States", 
            "longitude": -96.653982241799994, 
            "state": "SD", 
            "street": "", 
            "latitude": 43.545014738600003
          }
        }, 
        {
          "category": "Local business", 
          "name": "The Parking Lot Pros", 
          "id": "347293515396536", 
          "category_list": [
            {
              "id": "188569091163640", 
              "name": "Construction Service & Supply"
            }
          ], 
          "location": {
            "city": "Port Orange", 
            "zip": "32127", 
            "country": "United States", 
            "longitude": -80.954139999999995, 
            "state": "FL", 
            "street": "4286 Cardinal Blvd", 
            "latitude": 29.122070000000001
          }
        }, 
        {
          "category": "Local business", 
          "name": "Bedford Sealcoating & Parking Lot Maintenance", 
          "id": "122740111117307", 
          "category_list": [
            {
              "id": "188569091163640", 
              "name": "Construction Service & Supply"
            }, 
            {
              "id": "188977087789280", 
              "name": "Paving & Asphalt Service"
            }
          ], 
          "location": {
            "city": "Merrimack", 
            "zip": "03054-6400", 
            "country": "United States", 
            "longitude": -71.477801999999997, 
            "state": "NH", 
            "street": "33 Elm St", 
            "latitude": 42.878855000000001
          }
        }, 
        {
          "category": "Local business", 
          "name": "US Greenfiber Trailer Lot", 
          "id": "133389570046784", 
          "category_list": [
            {
              "id": "188569091163640", 
              "name": "Construction Service & Supply"
            }, 
            {
              "id": "180410821995109", 
              "name": "Automotive"
            }
          ], 
          "location": {
            "city": "Charlotte", 
            "zip": "28206-1258", 
            "country": "United States", 
            "longitude": -80.814880000000002, 
            "state": "NC", 
            "street": "3901 N Graham St", 
            "latitude": 35.270072999999996
          }
        }, 
        {
          "category": "Local business", 
          "name": "Suggs Lot Clearing", 
          "id": "137852359596560", 
          "category_list": [
            {
              "id": "188569091163640", 
              "name": "Construction Service & Supply"
            }
          ], 
          "location": {
            "city": "La Grange", 
            "zip": "28551-8067", 
            "country": "United States", 
            "longitude": -77.718778, 
            "state": "NC", 
            "street": "3352 Ponderosa Dr", 
            "latitude": 35.317498999999998
          }
        }, 
        {
          "category": "Local business", 
          "name": "Home Depot Parking Lot/ Bored Out Of My Mind", 
          "id": "140916145954490", 
          "category_list": [
            {
              "id": "188569091163640", 
              "name": "Construction Service & Supply"
            }
          ], 
          "location": {
            "city": "Jackson", 
            "zip": "", 
            "country": "United States", 
            "longitude": -88.857120155999993, 
            "state": "TN", 
            "street": "", 
            "latitude": 35.666053725700003
          }
        }, 
        {
          "category": "Local business", 
          "name": "Fence-A-Lot", 
          "id": "145132172198801", 
          "category_list": [
            {
              "id": "188569091163640", 
              "name": "Construction Service & Supply"
            }, 
            {
              "id": "169207329791658", 
              "name": "Grocery Store"
            }
          ], 
          "location": {
            "city": "Gainesville", 
            "zip": "32609-3380", 
            "country": "United States", 
            "longitude": -82.296959000000001, 
            "state": "FL", 
            "street": "2926 NE 20th Way", 
            "latitude": 29.679708000000002
          }
        }, 
        {
          "category": "Local business", 
          "name": "Allen's Parking Lot Striping & Seal Coating", 
          "id": "157687017599391", 
          "category_list": [
            {
              "id": "188569091163640", 
              "name": "Construction Service & Supply"
            }, 
            {
              "id": "188977087789280", 
              "name": "Paving & Asphalt Service"
            }
          ], 
          "location": {
            "city": "Shelby", 
            "zip": "28152-8060", 
            "country": "United States", 
            "longitude": -81.678314, 
            "state": "NC", 
            "street": "129 Creekside Dr", 
            "latitude": 35.247616000000001
          }
        }, 
        {
          "category": "Local business", 
          "name": "N Y Fence-A-Lot", 
          "id": "163252170361084", 
          "category_list": [
            {
              "id": "188569091163640", 
              "name": "Construction Service & Supply"
            }, 
            {
              "id": "169207329791658", 
              "name": "Grocery Store"
            }
          ], 
          "location": {
            "city": "Valley Stream", 
            "zip": "11580-1901", 
            "country": "United States", 
            "longitude": -73.700805000000003, 
            "state": "NY", 
            "street": "15 Birchwood Dr", 
            "latitude": 40.677872000000001
          }
        }, 
        {
          "category": "Local business", 
          "name": "Parking Lot Store", 
          "id": "168537876494076", 
          "category_list": [
            {
              "id": "188569091163640", 
              "name": "Construction Service & Supply"
            }, 
            {
              "id": "200027430011994", 
              "name": "Parking"
            }, 
            {
              "id": "188977087789280", 
              "name": "Paving & Asphalt Service"
            }
          ], 
          "location": {
            "city": "San Antonio", 
            "zip": "78216-7617", 
            "country": "United States", 
            "longitude": -98.497162000000003, 
            "state": "TX", 
            "street": "210 Jackson Keller Rd", 
            "latitude": 29.495417
          }
        }
      ]
    }
  }, 
  {
    "business_name": "Deseret Family Medicine", 
    "business_id": "D0imBXgnXCiSdn822_uguA", 
    "fb_pages": {
      "paging": {
        "next": "https://graph.facebook.com/search?type=place&access_token=229546593895315|yPLlHqq6YvDLIH4nL0kjJtIFSlU&limit=5000&offset=5000&__after_id=110035735726954"
      }, 
      "data": [
        {
          "category": "Local business", 
          "name": "Deseret Family Medicine", 
          "id": "113560022031307", 
          "category_list": [
            {
              "id": "188234584533149", 
              "name": "Doctor"
            }
          ], 
          "location": {
            "city": "Mesa", 
            "zip": "85206", 
            "country": "United States", 
            "longitude": -111.73611682846, 
            "state": "AZ", 
            "street": "", 
            "latitude": 33.389886817323998
          }
        }, 
        {
          "category": "Local business", 
          "name": "Deseret Family Medicine", 
          "id": "110035735726954", 
          "category_list": [
            {
              "id": "188234584533149", 
              "name": "Doctor"
            }
          ], 
          "location": {
            "city": "Apache Junction", 
            "zip": "85118-7352", 
            "country": "United States", 
            "longitude": -111.453631, 
            "state": "AZ", 
            "street": "6410 S Kings Ranch Rd Ste 1", 
            "latitude": 33.356844000000002
          }
        }
      ]
    }
  }
]