[
  {
    "business_name": "Willo Baking Company", 
    "business_id": "hX7Gqpuh2PmXmAYyRgY7XQ", 
    "fb_pages": {
      "data": []
    }
  }, 
  {
    "business_name": "Zest - Spirited Dining", 
    "business_id": "Fn8hc8b3357nDJfFksdcbg", 
    "fb_pages": {
      "data": []
    }
  }, 
  {
    "business_name": "Peoria Kia", 
    "business_id": "LUVAN-C1S5VBJ-GRbx5Ipg", 
    "fb_pages": {
      "paging": {
        "next": "https://graph.facebook.com/search?type=place&access_token=229546593895315|yPLlHqq6YvDLIH4nL0kjJtIFSlU&limit=5000&offset=5000&__after_id=138775352810463"
      }, 
      "data": [
        {
          "category": "Local business", 
          "name": "Peoria Kia", 
          "id": "138775352810463", 
          "category_list": [
            {
              "id": "131962450204676", 
              "name": "Car Dealership"
            }
          ], 
          "location": {
            "city": "Peoria", 
            "zip": "85382", 
            "country": "United States", 
            "longitude": -112.25382335693, 
            "state": "AZ", 
            "street": "17431 N. 91st Ave.", 
            "latitude": 33.641980593113999
          }
        }
      ]
    }
  }, 
  {
    "business_name": "The Hidden Closet", 
    "business_id": "kNQXfXfe6nd_AJqm2UfXDw", 
    "fb_pages": {
      "paging": {
        "next": "https://graph.facebook.com/search?type=place&access_token=229546593895315|yPLlHqq6YvDLIH4nL0kjJtIFSlU&limit=5000&offset=5000&__after_id=183028608415485"
      }, 
      "data": [
        {
          "category": "Local business", 
          "name": "The Hidden Closet", 
          "id": "153819667965609", 
          "category_list": [
            {
              "id": "186230924744328", 
              "name": "Clothing Store"
            }
          ], 
          "location": {
            "city": "Chagrin Falls", 
            "zip": "44022-3016", 
            "country": "United States", 
            "longitude": -81.391812704800003, 
            "state": "OH", 
            "street": "41 N Main St Ste 102", 
            "latitude": 41.431000306000001
          }
        }, 
        {
          "category": "Shopping/retail", 
          "name": "The Hidden Closet", 
          "id": "290826327614121", 
          "category_list": [
            {
              "id": "200600219953504", 
              "name": "Shopping & Retail"
            }
          ], 
          "location": {
            "city": "Bloomington", 
            "zip": "47408", 
            "country": "United States", 
            "longitude": -86.533360000000002, 
            "state": "IN", 
            "street": "109 E. Kirkwood Avenue", 
            "latitude": 39.166715000000003
          }
        }, 
        {
          "category": "Shopping/retail", 
          "name": "The Hidden Closet", 
          "id": "137641032986348", 
          "category_list": [
            {
              "id": "200600219953504", 
              "name": "Shopping & Retail"
            }
          ], 
          "location": {
            "city": "Fruit Heights", 
            "zip": "84037", 
            "country": "United States", 
            "longitude": -111.90151, 
            "state": "UT", 
            "street": "283 South Mountain Rd.", 
            "latitude": 41.029749000000002
          }
        }, 
        {
          "category": "Local business", 
          "name": "The Hidden Closet", 
          "id": "329438537147728", 
          "category_list": [
            {
              "id": "128753240528981", 
              "name": "Women's Clothing Store"
            }
          ], 
          "location": {
            "city": "Bountiful", 
            "zip": "84010", 
            "country": "United States", 
            "longitude": -111.89259199999999, 
            "state": "UT", 
            "street": "517 W. 2600 S.", 
            "latitude": 40.860818999999999
          }
        }, 
        {
          "category": "Local business", 
          "name": "The Hidden Closet", 
          "id": "117938754939848", 
          "category_list": [
            {
              "id": "2500", 
              "name": "Local Business"
            }
          ], 
          "location": {
            "city": "Kamloops", 
            "zip": "", 
            "country": "Canada", 
            "longitude": -120.375352702, 
            "state": "BC", 
            "street": "203 - 1103 12th Street", 
            "latitude": 50.707468162300003
          }
        }, 
        {
          "category": "Shopping/retail", 
          "name": "The Hidden Closet MNL", 
          "id": "150885671768597", 
          "category_list": [
            {
              "id": "128753240528981", 
              "name": "Women's Clothing Store"
            }
          ], 
          "location": {
            "city": "Manila", 
            "zip": "1800", 
            "country": "Philippines", 
            "longitude": 120.982, 
            "state": "", 
            "street": "Manila", 
            "latitude": 14.604200000000001
          }
        }, 
        {
          "category": "Local business", 
          "name": "Bookshelf The/Hidden Closet", 
          "id": "109459192425672", 
          "category_list": [
            {
              "id": "175838732461622", 
              "name": "Post Office"
            }, 
            {
              "id": "197048876974331", 
              "name": "Book Store"
            }, 
            {
              "id": "183205338384747", 
              "name": "Discount Store"
            }
          ], 
          "location": {
            "city": "McPherson", 
            "zip": "67460-4306", 
            "country": "United States", 
            "longitude": -97.666488999999999, 
            "state": "KS", 
            "street": "204 N Main St", 
            "latitude": 38.370719999999999
          }
        }, 
        {
          "category": "Attractions/things to do", 
          "name": "Hidden closett", 
          "id": "728061130557100", 
          "category_list": [
            {
              "id": "2523", 
              "name": "Attractions/Things to Do"
            }
          ], 
          "location": {
            "city": "Nassau", 
            "zip": "242", 
            "country": "The Bahamas", 
            "longitude": -77.382400819517997, 
            "state": "", 
            "street": "East park", 
            "latitude": 25.011261663869
          }
        }, 
        {
          "category": "Shopping/retail", 
          "name": "Hidden Closet", 
          "id": "608183505877732", 
          "category_list": [
            {
              "id": "128753240528981", 
              "name": "Women's Clothing Store"
            }
          ], 
          "location": {
            "city": "Kowloon", 
            "zip": "kwun tong", 
            "country": "Hong Kong", 
            "longitude": 114.18300000000001, 
            "street": "blk 4", 
            "latitude": 22.316700000000001
          }
        }, 
        {
          "category": "Shopping/retail", 
          "name": "Hidden Closet", 
          "id": "513309788730055", 
          "category_list": [
            {
              "id": "200600219953504", 
              "name": "Shopping & Retail"
            }
          ], 
          "location": {
            "city": "Cottage Grove", 
            "zip": "97424", 
            "country": "United States", 
            "longitude": -123.08601294707999, 
            "state": "OR", 
            "street": "", 
            "latitude": 44.054429129269003
          }
        }, 
        {
          "category": "Shopping/retail", 
          "name": "Hidden Closet", 
          "id": "116372411716894", 
          "category_list": [
            {
              "id": "183205338384747", 
              "name": "Discount Store"
            }
          ], 
          "location": {
            "city": "Ramsey", 
            "zip": "07446", 
            "country": "United States", 
            "longitude": -74.140439999999998, 
            "state": "NJ", 
            "street": "15 North Spruce Street", 
            "latitude": 41.058154999999999
          }
        }, 
        {
          "category": "Shopping/retail", 
          "name": "Hidden Closet", 
          "id": "516189451751292", 
          "category_list": [
            {
              "id": "200600219953504", 
              "name": "Shopping & Retail"
            }
          ], 
          "location": {
            "city": "Keighley", 
            "zip": "bd20", 
            "country": "United Kingdom", 
            "longitude": -1.9166700000000001, 
            "state": "", 
            "street": "Here there and everywhere", 
            "latitude": 53.883299999999998
          }
        }, 
        {
          "category": "Local business", 
          "name": "Beth's Hidden Closet", 
          "id": "517982338273718", 
          "category_list": [
            {
              "id": "186230924744328", 
              "name": "Clothing Store"
            }
          ], 
          "location": {
            "city": "Cagayan de Oro", 
            "zip": "9000", 
            "country": "Philippines", 
            "longitude": 124.64700000000001, 
            "state": "", 
            "street": "Zone 5, Bongbongon, Kauswagan", 
            "latitude": 8.4822199999999999
          }
        }, 
        {
          "category": "Shopping/retail", 
          "name": "Hidden Closet Consignment Boutique", 
          "id": "152687384816161", 
          "category_list": [
            {
              "id": "200600219953504", 
              "name": "Shopping & Retail"
            }
          ], 
          "location": {
            "city": "Centre", 
            "zip": "35960", 
            "country": "United States", 
            "longitude": -85.689565000000002, 
            "state": "AL", 
            "street": "1480 Chesnut Bypass", 
            "latitude": 34.162363999999997
          }
        }, 
        {
          "category": "Local business", 
          "name": "Hidden Closet", 
          "id": "172864869528595", 
          "category_list": [
            {
              "id": "200600219953504", 
              "name": "Shopping & Retail"
            }
          ], 
          "location": {
            "city": "Scottsdale", 
            "zip": "85254", 
            "country": "United States", 
            "longitude": -111.930984826, 
            "state": "AZ", 
            "street": "", 
            "latitude": 33.583786703800001
          }
        }, 
        {
          "category": "Shopping/retail", 
          "name": "Hidden Closet", 
          "id": "321366087938156", 
          "category_list": [
            {
              "id": "200600219953504", 
              "name": "Shopping & Retail"
            }
          ], 
          "location": {
            "city": "Lincoln City", 
            "zip": "", 
            "country": "United States", 
            "longitude": -124.015772, 
            "state": "OR", 
            "street": "123 Hwy 101", 
            "latitude": 44.968403000000002
          }
        }, 
        {
          "category": "Shopping/retail", 
          "name": "Hidden Closet", 
          "id": "716051938408421", 
          "category_list": [
            {
              "id": "128753240528981", 
              "name": "Women's Clothing Store"
            }
          ], 
          "location": {
            "city": "Bacolod CIty", 
            "zip": "6100", 
            "country": "Philippines", 
            "longitude": 122.95, 
            "state": "", 
            "street": "Block 33, Lot 9, Isabel. Street, Eroreco Subdivision", 
            "latitude": 10.6661
          }
        }, 
        {
          "category": "Local business", 
          "name": "Marissa's Closet", 
          "id": "210444945636784", 
          "category_list": [
            {
              "id": "2500", 
              "name": "Local Business"
            }
          ], 
          "location": {
            "city": "Arnold", 
            "zip": "63010", 
            "country": "United States", 
            "longitude": -90.4552655878, 
            "state": "MO", 
            "street": "Hidden", 
            "latitude": 38.430719132100002
          }
        }, 
        {
          "category": "Local business", 
          "name": "Sea Hidden Closet", 
          "id": "162059753813418", 
          "category_list": [
            {
              "id": "183205338384747", 
              "name": "Discount Store"
            }
          ], 
          "location": {
            "city": "Montevallo", 
            "zip": "35115-4036", 
            "country": "United States", 
            "longitude": -86.863857999999993, 
            "state": "AL", 
            "street": "615 Main St", 
            "latitude": 33.099988000000003
          }
        }, 
        {
          "category": "Shopping/retail", 
          "name": "Starr's Hidden Closet", 
          "id": "183028608415485", 
          "category_list": [
            {
              "id": "200600219953504", 
              "name": "Shopping & Retail"
            }
          ], 
          "location": {
            "city": "Airway Heights", 
            "zip": "99001", 
            "country": "United States", 
            "longitude": -117.596512, 
            "state": "WA", 
            "street": "13416 W. Sunset Highway", 
            "latitude": 47.643265
          }
        }
      ]
    }
  }, 
  {
    "business_name": "Guido's Chicago Meat & Deli", 
    "business_id": "pmIJn8K3offcYUsrFCWAaQ", 
    "fb_pages": {
      "paging": {
        "next": "https://graph.facebook.com/search?type=place&access_token=229546593895315|yPLlHqq6YvDLIH4nL0kjJtIFSlU&limit=5000&offset=5000&__after_id=105932372782323"
      }, 
      "data": [
        {
          "category": "Local business", 
          "name": "Guido's Chicago Meat & Deli", 
          "id": "105932372782323", 
          "category_list": [
            {
              "id": "188334264523313", 
              "name": "Deli"
            }, 
            {
              "id": "193831710644458", 
              "name": "Italian Restaurant"
            }
          ], 
          "location": {
            "city": "Scottsdale", 
            "zip": "85254-5279", 
            "country": "United States", 
            "longitude": -111.92452467479001, 
            "state": "AZ", 
            "street": "10893 N Scottsdale Rd", 
            "latitude": 33.585309074016997
          }
        }
      ]
    }
  }, 
  {
    "business_name": "Original Wineburger", 
    "business_id": "CNvPqN9pa5aJRn-Npcqgdg", 
    "fb_pages": {
      "paging": {
        "next": "https://graph.facebook.com/search?type=place&access_token=229546593895315|yPLlHqq6YvDLIH4nL0kjJtIFSlU&limit=5000&offset=5000&__after_id=137428098637"
      }, 
      "data": [
        {
          "category": "Restaurant/cafe", 
          "name": "The Original Wineburger", 
          "id": "137428098637", 
          "category_list": [
            {
              "id": "133436743388217", 
              "name": "Arts & Entertainment"
            }, 
            {
              "id": "110290705711626", 
              "name": "Bar"
            }, 
            {
              "id": "187425207958280", 
              "name": "Burger Restaurant"
            }
          ], 
          "location": {
            "city": "Phoenix", 
            "zip": "85015", 
            "country": "United States", 
            "longitude": -112.09930882442001, 
            "state": "AZ", 
            "street": "6027 N 19th Avenue", 
            "latitude": 33.525292823413999
          }
        }
      ]
    }
  }, 
  {
    "business_name": "The Great Escape Lounge", 
    "business_id": "qOE7oX1lIVUJUYvSwFy5Wg", 
    "fb_pages": {
      "paging": {
        "next": "https://graph.facebook.com/search?type=place&access_token=229546593895315|yPLlHqq6YvDLIH4nL0kjJtIFSlU&limit=5000&offset=5000&__after_id=568560706565310"
      }, 
      "data": [
        {
          "category": "Bar", 
          "name": "The Great Escape Lounge", 
          "id": "139427147243", 
          "category_list": [
            {
              "id": "110290705711626", 
              "name": "Bar"
            }, 
            {
              "id": "191478144212980", 
              "name": "Night Club"
            }, 
            {
              "id": "133436743388217", 
              "name": "Arts & Entertainment"
            }
          ], 
          "location": {
            "city": "Greensburg", 
            "zip": "15601", 
            "country": "United States", 
            "longitude": -79.522936045628995, 
            "state": "PA", 
            "street": "827 E. Pittsburgh St", 
            "latitude": 40.302567296642998
          }
        }, 
        {
          "category": "Bar", 
          "name": "Great Escapes Lounge", 
          "id": "421879971195545", 
          "category_list": [
            {
              "id": "273819889375819", 
              "name": "Restaurant"
            }, 
            {
              "id": "223801560977980", 
              "name": "Hookah Lounge"
            }, 
            {
              "id": "110290705711626", 
              "name": "Bar"
            }
          ], 
          "location": {
            "city": "Lewisville", 
            "zip": "75067", 
            "country": "United States", 
            "longitude": -96.984670403500004, 
            "state": "TX", 
            "street": "397 E Sw Parkway #108", 
            "latitude": 33.017739666600001
          }
        }, 
        {
          "category": "Local business", 
          "name": "Johnny Rockets Sports Lounge", 
          "id": "568560706565310", 
          "category_list": [
            {
              "id": "187425207958280", 
              "name": "Burger Restaurant"
            }, 
            {
              "id": "149803325077018", 
              "name": "American Restaurant"
            }
          ], 
          "location": {
            "city": "Queensbury", 
            "zip": "12804", 
            "country": "United States", 
            "longitude": -73.697063999999997, 
            "state": "NY", 
            "street": "89 Six Flags Drive", 
            "latitude": 43.352497
          }
        }
      ]
    }
  }, 
  {
    "business_name": "Valley Permaculture Alliance", 
    "business_id": "3f_lyB6vFK48ukH6ScvLHg", 
    "fb_pages": {
      "paging": {
        "next": "https://graph.facebook.com/search?type=place&access_token=229546593895315|yPLlHqq6YvDLIH4nL0kjJtIFSlU&limit=5000&offset=5000&__after_id=111768738893631"
      }, 
      "data": [
        {
          "category": "Local business", 
          "name": "Valley Permaculture Alliance", 
          "id": "111768738893631", 
          "category_list": [
            {
              "id": "188662441155211", 
              "name": "Community & Government"
            }
          ], 
          "location": {
            "city": "Phoenix", 
            "zip": "85015", 
            "country": "United States", 
            "longitude": -112.09951, 
            "state": "AZ", 
            "street": "5151 N 19th Ave, Ste 200", 
            "latitude": 33.512939000000003
          }
        }
      ]
    }
  }, 
  {
    "business_name": "All Stars Sports Bar", 
    "business_id": "jZ58NvLSZ6oVYlRta1zUNQ", 
    "fb_pages": {
      "paging": {
        "next": "https://graph.facebook.com/search?type=place&access_token=229546593895315|yPLlHqq6YvDLIH4nL0kjJtIFSlU&limit=5000&offset=5000&__after_id=150779351710902"
      }, 
      "data": [
        {
          "category": "Local business", 
          "name": "All Stars Sports Bar", 
          "id": "214312775280049", 
          "category_list": [
            {
              "id": "110290705711626", 
              "name": "Bar"
            }
          ], 
          "location": {
            "city": "Burton", 
            "zip": "48529", 
            "country": "United States", 
            "longitude": -83.653217568399995, 
            "state": "MI", 
            "street": "", 
            "latitude": 42.966052851400001
          }
        }, 
        {
          "category": "Local business", 
          "name": "All Stars Sports Bar", 
          "id": "109486865830339", 
          "category_list": [
            {
              "id": "184460441595855", 
              "name": "Sports Bar"
            }
          ], 
          "location": {
            "city": "Woodland", 
            "zip": "95695", 
            "country": "United States", 
            "longitude": -121.78225348385, 
            "state": "CA", 
            "street": "102 Main Street", 
            "latitude": 38.677252135853003
          }
        }, 
        {
          "category": "Bar", 
          "name": "All Stars Sports Bar and Grill", 
          "id": "75168527227", 
          "category_list": [
            {
              "id": "110290705711626", 
              "name": "Bar"
            }, 
            {
              "id": "199833073363963", 
              "name": "Liquor Store"
            }
          ], 
          "location": {
            "city": "Freeport", 
            "zip": "56331", 
            "country": "United States", 
            "longitude": -94.716520545199998, 
            "state": "MN", 
            "street": "29001 County Road 17", 
            "latitude": 45.730834982499999
          }
        }, 
        {
          "category": "Restaurant/cafe", 
          "name": "All Stars Sports Bar & BBQ", 
          "id": "460560584033499", 
          "category_list": [
            {
              "id": "184460441595855", 
              "name": "Sports Bar"
            }, 
            {
              "id": "150534008338515", 
              "name": "Barbecue Restaurant"
            }
          ], 
          "location": {
            "city": "San Diego", 
            "zip": "92101", 
            "country": "United States", 
            "longitude": -117.159810925, 
            "state": "CA", 
            "street": "524 Island Ave", 
            "latitude": 32.710535595099998
          }
        }, 
        {
          "category": "Bar", 
          "name": "All Stars Sports Bar /  CLUB A & S \" Baltimore's Speakeasy \"", 
          "id": "192018117484941", 
          "category_list": [
            {
              "id": "110290705711626", 
              "name": "Bar"
            }
          ], 
          "location": {
            "city": "Baltimore", 
            "zip": "21201", 
            "country": "United States", 
            "longitude": -76.621072443935006, 
            "state": "MD", 
            "street": "34 S. Eutaw Street ", 
            "latitude": 39.287536635519999
          }
        }, 
        {
          "category": "Local business", 
          "name": "All Stars Sports Bar and Grill", 
          "id": "375567162481426", 
          "category_list": [
            {
              "id": "110290705711626", 
              "name": "Bar"
            }
          ], 
          "location": {
            "city": "Deerfield Beach", 
            "zip": "33073", 
            "country": "United States", 
            "longitude": -80.152770885695006, 
            "state": "FL", 
            "street": "", 
            "latitude": 26.275278112193
          }
        }, 
        {
          "category": "Local business", 
          "name": "All Stars Sports Bar", 
          "id": "181749561870063", 
          "category_list": [
            {
              "id": "233804719972590", 
              "name": "Bar & Grill"
            }
          ], 
          "location": {
            "city": "Yarmouth", 
            "zip": "04096", 
            "country": "United States", 
            "longitude": -70.189112510000001, 
            "state": "ME", 
            "street": "", 
            "latitude": 43.797217635700001
          }
        }, 
        {
          "category": "Arts/entertainment/nightlife", 
          "name": "All Stars Sports Bar", 
          "id": "1398733743703012", 
          "category_list": [
            {
              "id": "184460441595855", 
              "name": "Sports Bar"
            }, 
            {
              "id": "211155112228091", 
              "name": "Event Venue"
            }
          ], 
          "location": {
            "city": "The Valley", 
            "zip": "P.o box 76", 
            "country": "Anguilla", 
            "longitude": -63.074982359000003, 
            "street": "George Hill", 
            "latitude": 18.202752787600001
          }
        }, 
        {
          "category": "Local business", 
          "name": "All Stars Sports Bar", 
          "id": "178805752175794", 
          "category_list": [
            {
              "id": "110290705711626", 
              "name": "Bar"
            }, 
            {
              "id": "133436743388217", 
              "name": "Arts & Entertainment"
            }
          ], 
          "location": {
            "city": "El Paso", 
            "zip": "79902", 
            "country": "United States", 
            "longitude": -106.465509439, 
            "state": "TX", 
            "street": "2430 Wyoming Ave", 
            "latitude": 31.778324037699999
          }
        }, 
        {
          "category": "Bar", 
          "name": "All Stars Sports Bar", 
          "id": "173321572403", 
          "category_list": [
            {
              "id": "110290705711626", 
              "name": "Bar"
            }, 
            {
              "id": "200600219953504", 
              "name": "Shopping & Retail"
            }
          ], 
          "location": {
            "city": "Milwaukee", 
            "zip": "53216", 
            "country": "United States", 
            "longitude": -87.963452835214994, 
            "state": "WI", 
            "street": "4001 W. Fond Du Lac Avenue", 
            "latitude": 43.079632384455003
          }
        }, 
        {
          "category": "Local business", 
          "name": "All Star Sports Bar & Grill", 
          "id": "154880561217987", 
          "category_list": [
            {
              "id": "133436743388217", 
              "name": "Arts & Entertainment"
            }, 
            {
              "id": "273819889375819", 
              "name": "Restaurant"
            }, 
            {
              "id": "110290705711626", 
              "name": "Bar"
            }
          ], 
          "location": {
            "city": "Pittsburgh", 
            "zip": "15205", 
            "country": "United States", 
            "longitude": -80.159939242006999, 
            "state": "PA", 
            "street": "6302 Robinson Centre Drive", 
            "latitude": 40.452761143095998
          }
        }, 
        {
          "category": "Local business", 
          "name": "All Stars Sports Bar", 
          "id": "172981519429702", 
          "category_list": [
            {
              "id": "150534008338515", 
              "name": "Barbecue Restaurant"
            }, 
            {
              "id": "110290705711626", 
              "name": "Bar"
            }
          ], 
          "location": {
            "city": "Saint Peters", 
            "zip": "63376", 
            "country": "United States", 
            "longitude": -90.567363872000001, 
            "state": "MO", 
            "street": "", 
            "latitude": 38.792501371999997
          }
        }, 
        {
          "category": "Bar", 
          "name": "All Star Lanes Sports Lounge", 
          "id": "188263489751", 
          "category_list": [
            {
              "id": "110290705711626", 
              "name": "Bar"
            }
          ], 
          "location": {
            "city": "West Jordan", 
            "zip": "84088", 
            "country": "United States", 
            "longitude": -111.94052480027, 
            "state": "UT", 
            "street": "1776 West 7800 South", 
            "latitude": 40.610806536444997
          }
        }, 
        {
          "category": "Local business", 
          "name": "All Star Sports Bar", 
          "id": "114087348619592", 
          "category_list": [
            {
              "id": "110290705711626", 
              "name": "Bar"
            }, 
            {
              "id": "273819889375819", 
              "name": "Restaurant"
            }
          ], 
          "location": {
            "city": "Bridgeview", 
            "zip": "60455-1429", 
            "country": "United States", 
            "longitude": -87.819341293565998, 
            "state": "IL", 
            "street": "8000 S Roberts Rd", 
            "latitude": 41.745312660111999
          }
        }, 
        {
          "category": "Restaurant/cafe", 
          "name": "All Stars Sports Bar & Grill", 
          "id": "455795404489693", 
          "category_list": [
            {
              "id": "233804719972590", 
              "name": "Bar & Grill"
            }, 
            {
              "id": "149803325077018", 
              "name": "American Restaurant"
            }, 
            {
              "id": "184460441595855", 
              "name": "Sports Bar"
            }
          ], 
          "location": {
            "city": "Bonita", 
            "zip": "91902", 
            "country": "United States", 
            "longitude": -117.03869772199999, 
            "state": "CA", 
            "street": "4076 Bonita Rd", 
            "latitude": 32.658711223200001
          }
        }, 
        {
          "category": "Bar", 
          "name": "All Star Sports Pub", 
          "id": "453968384648323", 
          "category_list": [
            {
              "id": "110290705711626", 
              "name": "Bar"
            }
          ], 
          "location": {
            "city": "McAllen", 
            "zip": "78504", 
            "country": "United States", 
            "longitude": -98.236426454029996, 
            "state": "TX", 
            "street": "2104 Nolana Ave", 
            "latitude": 26.241313416503001
          }
        }, 
        {
          "category": "Restaurant/cafe", 
          "name": "All Star Sports Bar & Restaurant", 
          "id": "249487495082381", 
          "category_list": [
            {
              "id": "184460441595855", 
              "name": "Sports Bar"
            }, 
            {
              "id": "273819889375819", 
              "name": "Restaurant"
            }
          ], 
          "location": {
            "city": "Orange Park", 
            "zip": "32068", 
            "country": "United States", 
            "longitude": -81.757301049291002, 
            "state": "FL", 
            "street": "2223 CR 220", 
            "latitude": 30.099347185492999
          }
        }, 
        {
          "category": "Local business", 
          "name": "All Stars Sports Bar", 
          "id": "115449641808440", 
          "category_list": [
            {
              "id": "110290705711626", 
              "name": "Bar"
            }
          ], 
          "location": {
            "city": "West Seneca", 
            "zip": "14224-1447", 
            "country": "United States", 
            "longitude": -78.753760999999997, 
            "state": "NY", 
            "street": "2339 Union Rd", 
            "latitude": 42.863002999999999
          }
        }, 
        {
          "category": "Local business", 
          "name": "All Star Sports Bar", 
          "id": "108126642562509", 
          "category_list": [
            {
              "id": "110290705711626", 
              "name": "Bar"
            }, 
            {
              "id": "273819889375819", 
              "name": "Restaurant"
            }
          ], 
          "location": {
            "city": "Frankfort", 
            "zip": "60423-9401", 
            "country": "United States", 
            "longitude": -87.805566138811002, 
            "state": "IL", 
            "street": "7818 W Lincoln Hwy", 
            "latitude": 41.506788927753
          }
        }, 
        {
          "category": "Local business", 
          "name": "All Star Sports Bar and Grill", 
          "id": "442172935817622", 
          "category_list": [
            {
              "id": "233804719972590", 
              "name": "Bar & Grill"
            }
          ], 
          "location": {
            "city": "Gainesville", 
            "zip": "", 
            "country": "United States", 
            "longitude": -82.340014249700005, 
            "state": "FL", 
            "street": "S.W. 13TH STREET & WILLISTON ROAD", 
            "latitude": 29.613537448199999
          }
        }, 
        {
          "category": "Bar", 
          "name": "All Stars Sports Bar and Cafe", 
          "id": "259394684113615", 
          "category_list": [
            {
              "id": "110290705711626", 
              "name": "Bar"
            }
          ], 
          "location": {
            "city": "Wareham", 
            "zip": "BH20 4PH", 
            "country": "United Kingdom", 
            "longitude": -2.1224937126099999, 
            "state": "", 
            "street": "Purbeck Sports Centre, Worgret Road", 
            "latitude": 50.681654918299998
          }
        }, 
        {
          "category": "Local business", 
          "name": "All Stars", 
          "id": "121531714570706", 
          "category_list": [
            {
              "id": "184460441595855", 
              "name": "Sports Bar"
            }, 
            {
              "id": "197767133603296", 
              "name": "Chicken Wings"
            }
          ], 
          "location": {
            "city": "Richmond Hill", 
            "zip": "L4C 3C7", 
            "country": "Canada", 
            "longitude": -79.440636015520994, 
            "state": "ON", 
            "street": "10520 Yonge Street", 
            "latitude": 43.883519852997999
          }
        }, 
        {
          "category": "Local business", 
          "name": "All Stars on Board Sports Bar & Grill", 
          "id": "471456869603708", 
          "category_list": [
            {
              "id": "184460441595855", 
              "name": "Sports Bar"
            }
          ], 
          "location": {
            "city": "Vernon Hills", 
            "zip": "60061", 
            "country": "United States", 
            "longitude": -87.951581405499994, 
            "state": "IL", 
            "street": "506 Hawthorn Center", 
            "latitude": 42.242774170899999
          }
        }, 
        {
          "category": "Restaurant/cafe", 
          "name": "All Star Sports Bar", 
          "id": "474260192651567", 
          "category_list": [
            {
              "id": "184460441595855", 
              "name": "Sports Bar"
            }, 
            {
              "id": "233804719972590", 
              "name": "Bar & Grill"
            }
          ], 
          "location": {
            "city": "The Valley", 
            "zip": "", 
            "country": "Anguilla", 
            "longitude": -63.0583682221, 
            "street": "George Hill,", 
            "latitude": 18.2062654247
          }
        }, 
        {
          "category": "Bar", 
          "name": "ALL STARS Sports Bar & Grill - CUENCA", 
          "id": "123031237725676", 
          "category_list": [
            {
              "id": "110290705711626", 
              "name": "Bar"
            }
          ], 
          "location": {
            "city": "Cuenca", 
            "zip": "16004", 
            "country": "Spain", 
            "longitude": -2.1328543010300001, 
            "state": "", 
            "street": "C/ Hermanos Becerril, 14 (Plaza de la U)", 
            "latitude": 40.063752084400001
          }
        }, 
        {
          "category": "Local business", 
          "name": "All Star Wings & Ribs", 
          "id": "518165821556611", 
          "category_list": [
            {
              "id": "184460441595855", 
              "name": "Sports Bar"
            }, 
            {
              "id": "273819889375819", 
              "name": "Restaurant"
            }
          ], 
          "location": {
            "city": "Kitchener", 
            "zip": "", 
            "country": "Canada", 
            "longitude": -80.513646678130002, 
            "state": "ON", 
            "street": "446 Highland Rd. West", 
            "latitude": 43.436403119250002
          }
        }, 
        {
          "category": "Local business", 
          "name": "\"ALL STARS\" A GENTLEMAN'S SPORTS BAR", 
          "id": "187644147938655", 
          "category_list": [
            {
              "id": "110290705711626", 
              "name": "Bar"
            }, 
            {
              "id": "273819889375819", 
              "name": "Restaurant"
            }
          ], 
          "location": {
            "city": "San Antonio", 
            "zip": "78229", 
            "country": "United States", 
            "longitude": -98.559947985094993, 
            "state": "TX", 
            "street": "", 
            "latitude": 29.527706840543001
          }
        }, 
        {
          "category": "Local business", 
          "name": "All Stars Sports Bar and Grill", 
          "id": "111568018883017", 
          "category_list": [
            {
              "id": "110290705711626", 
              "name": "Bar"
            }, 
            {
              "id": "179167895459033", 
              "name": "Thai Restaurant"
            }
          ], 
          "location": {
            "city": "Oxford", 
            "zip": "36203-1987", 
            "country": "United States", 
            "longitude": -85.816242000000003, 
            "state": "AL", 
            "street": "1225 Snow St", 
            "latitude": 33.615116
          }
        }, 
        {
          "category": "Local business", 
          "name": "All Stars Sports Bar & Grill", 
          "id": "117611978258104", 
          "category_list": [
            {
              "id": "110290705711626", 
              "name": "Bar"
            }, 
            {
              "id": "133436743388217", 
              "name": "Arts & Entertainment"
            }, 
            {
              "id": "273819889375819", 
              "name": "Restaurant"
            }
          ], 
          "location": {
            "city": "Rolla", 
            "zip": "65401-2827", 
            "country": "United States", 
            "longitude": -91.771043000000006, 
            "state": "MO", 
            "street": "1100 N Pine St", 
            "latitude": 37.952593999999998
          }
        }, 
        {
          "category": "Local business", 
          "name": "All Stars Sports Bar And Grill", 
          "id": "210082579032134", 
          "category_list": [
            {
              "id": "133436743388217", 
              "name": "Arts & Entertainment"
            }, 
            {
              "id": "110290705711626", 
              "name": "Bar"
            }, 
            {
              "id": "273819889375819", 
              "name": "Restaurant"
            }
          ], 
          "location": {
            "latitude": 43.198570163051002, 
            "street": "", 
            "zip": "", 
            "longitude": -76.065458676256
          }
        }, 
        {
          "category": "Local business", 
          "name": "All Star Sports Bar Grill & Billiards", 
          "id": "668797679811712", 
          "category_list": [
            {
              "id": "197750126917541", 
              "name": "Pool & Billiards"
            }, 
            {
              "id": "273819889375819", 
              "name": "Restaurant"
            }, 
            {
              "id": "354275401259620", 
              "name": "Nightlife"
            }
          ], 
          "location": {
            "city": "Miami Gardens", 
            "zip": "33055", 
            "country": "United States", 
            "longitude": -80.277856, 
            "state": "FL", 
            "street": "4681 nw 199 st ", 
            "latitude": 25.954326999999999
          }
        }, 
        {
          "category": "Local business", 
          "name": "Atlanta Braves All Star Grill", 
          "id": "577093682315517", 
          "category_list": [
            {
              "id": "184460441595855", 
              "name": "Sports Bar"
            }, 
            {
              "id": "150534008338515", 
              "name": "Barbecue Restaurant"
            }
          ], 
          "location": {
            "city": "Atlanta", 
            "zip": "30337", 
            "country": "United States", 
            "longitude": -84.429379832367005, 
            "state": "GA", 
            "street": "", 
            "latitude": 33.639137889792003
          }
        }, 
        {
          "category": "Bar", 
          "name": "The All Star Sports Bar & Grill", 
          "id": "447113465409891", 
          "category_list": [
            {
              "id": "110290705711626", 
              "name": "Bar"
            }
          ], 
          "location": {
            "city": "North Port", 
            "zip": "34287", 
            "country": "United States", 
            "longitude": -82.241478000000001, 
            "state": "FL", 
            "street": "14000 S.Tamiami Trl.", 
            "latitude": 27.044269
          }
        }, 
        {
          "category": "Club", 
          "name": "All Star Sports Bar-Tooele Utah", 
          "id": "152057164832085", 
          "category_list": [
            {
              "id": "191478144212980", 
              "name": "Night Club"
            }, 
            {
              "id": "233804719972590", 
              "name": "Bar & Grill"
            }, 
            {
              "id": "182582091788254", 
              "name": "Bowling Alley"
            }
          ], 
          "location": {
            "city": "Tooele", 
            "zip": "84074", 
            "country": "United States", 
            "longitude": -112.303806919, 
            "state": "UT", 
            "street": "1111 N 200 W", 
            "latitude": 40.553024892000003
          }
        }, 
        {
          "category": "Local business", 
          "name": "All Star Wings & Ribs Mississauga - Allstar Millcreek", 
          "id": "1481630215395958", 
          "category_list": [
            {
              "id": "184460441595855", 
              "name": "Sports Bar"
            }, 
            {
              "id": "192831537402299", 
              "name": "Family Style Restaurant"
            }
          ], 
          "location": {
            "city": "Mississauga", 
            "zip": "L5N 5R3", 
            "country": "Canada", 
            "longitude": -79.741552574599993, 
            "state": "ON", 
            "street": "6465 Millcreek Drive", 
            "latitude": 43.590889926999999
          }
        }, 
        {
          "category": "Food/beverages", 
          "name": "ALL STARS CAFE Bratislava", 
          "id": "136960842993437", 
          "category_list": [
            {
              "id": "184460441595855", 
              "name": "Sports Bar"
            }
          ], 
          "location": {
            "city": "Bratislava", 
            "zip": "81101", 
            "country": "Slovakia", 
            "longitude": 17.107252296671, 
            "state": "", 
            "street": "Sedl\u00e1rska 5", 
            "latitude": 48.143623478026001
          }
        }, 
        {
          "category": "Bar", 
          "name": "All-Star Sports Bar", 
          "id": "175648852513259", 
          "category_list": [
            {
              "id": "110290705711626", 
              "name": "Bar"
            }
          ], 
          "location": {
            "city": "Detroit", 
            "zip": "48216-1040", 
            "country": "United States", 
            "longitude": -83.090621999999996, 
            "state": "MI", 
            "street": "3415 Michigan Avenue", 
            "latitude": 42.331093000000003
          }
        }, 
        {
          "category": "Local business", 
          "name": "All-Star Sports Bar", 
          "id": "117346588282404", 
          "category_list": [
            {
              "id": "273819889375819", 
              "name": "Restaurant"
            }, 
            {
              "id": "110290705711626", 
              "name": "Bar"
            }
          ], 
          "location": {
            "city": "Hollywood", 
            "zip": "33023-6702", 
            "country": "United States", 
            "longitude": -80.207367000000005, 
            "state": "FL", 
            "street": "1510 S State Road 7", 
            "latitude": 25.997173
          }
        }, 
        {
          "category": "Local business", 
          "name": "All Star Sports Bar", 
          "id": "120044311340658", 
          "category_list": [
            {
              "id": "110290705711626", 
              "name": "Bar"
            }, 
            {
              "id": "273819889375819", 
              "name": "Restaurant"
            }
          ], 
          "location": {
            "city": "Oregon City", 
            "zip": "97045-1826", 
            "country": "United States", 
            "longitude": -122.607574, 
            "state": "OR", 
            "street": "716 Main St", 
            "latitude": 45.357967000000002
          }
        }, 
        {
          "category": "Local business", 
          "name": "All Star Sports Bar", 
          "id": "166409746718251", 
          "category_list": [
            {
              "id": "110290705711626", 
              "name": "Bar"
            }, 
            {
              "id": "200600219953504", 
              "name": "Shopping & Retail"
            }
          ], 
          "location": {
            "city": "Rome", 
            "zip": "30165-2036", 
            "country": "United States", 
            "longitude": -85.226310999999995, 
            "state": "GA", 
            "street": "2204 Shorter Ave NW", 
            "latitude": 34.272888000000002
          }
        }, 
        {
          "category": "Sports/recreation/activities", 
          "name": "All Star Cheer Academy", 
          "id": "137410786322462", 
          "category_list": [
            {
              "id": "184405378265823", 
              "name": "Gym"
            }, 
            {
              "id": "176722429037183", 
              "name": "Cheerleading"
            }
          ], 
          "location": {
            "city": "Wilkes-Barre", 
            "zip": "18702", 
            "country": "United States", 
            "longitude": -75.865859999999998, 
            "state": "PA", 
            "street": "401 Coal Street", 
            "latitude": 41.236904000000003
          }
        }, 
        {
          "category": "Bar", 
          "name": "All Stars Sports Grill", 
          "id": "127254787378951", 
          "category_list": [
            {
              "id": "110290705711626", 
              "name": "Bar"
            }
          ], 
          "location": {
            "city": "Keizer", 
            "zip": "97303", 
            "country": "United States", 
            "longitude": -123.026178, 
            "state": "OR", 
            "street": "4900 River Rd N", 
            "latitude": 44.995179
          }
        }, 
        {
          "category": "Restaurant/cafe", 
          "name": "All Star Sports Grill & Bar", 
          "id": "309606229136345", 
          "category_list": [
            {
              "id": "273819889375819", 
              "name": "Restaurant"
            }
          ], 
          "location": {
            "city": "Winchester", 
            "zip": "22601", 
            "country": "United States", 
            "longitude": -78.181780000000003, 
            "state": "VA", 
            "street": "2237 Valor Dr", 
            "latitude": 39.160724000000002
          }
        }, 
        {
          "category": "Local business", 
          "name": "All Stars Pool Bar", 
          "id": "120203094717417", 
          "category_list": [
            {
              "id": "184460441595855", 
              "name": "Sports Bar"
            }
          ], 
          "location": {
            "city": "Weston-super-Mare", 
            "zip": "", 
            "country": "United Kingdom", 
            "longitude": -2.9773502349854, 
            "state": "", 
            "street": "", 
            "latitude": 51.340620040894002
          }
        }, 
        {
          "category": "Restaurant/cafe", 
          "name": "All star sports bar and lounge / Abu Ghazi shwarma", 
          "id": "453003701417364", 
          "category_list": [
            {
              "id": "273819889375819", 
              "name": "Restaurant"
            }
          ], 
          "location": {
            "city": "Philipsburg", 
            "zip": "Next to Abu Ghazi shwarma ", 
            "country": "Netherlands Antilles", 
            "longitude": -63.050565261400003, 
            "street": "Arch road #92 Madame estate", 
            "latitude": 18.0390951778
          }
        }, 
        {
          "category": "Local business", 
          "name": "All Star Sports Bar and Grill", 
          "id": "110903545649725", 
          "category_list": [
            {
              "id": "110290705711626", 
              "name": "Bar"
            }, 
            {
              "id": "273819889375819", 
              "name": "Restaurant"
            }, 
            {
              "id": "133436743388217", 
              "name": "Arts & Entertainment"
            }
          ], 
          "location": {
            "city": "Antioch", 
            "zip": "94509", 
            "country": "United States", 
            "longitude": -121.837391853, 
            "state": "CA", 
            "street": "", 
            "latitude": 38.000941872600002
          }
        }, 
        {
          "category": "Sports/recreation/activities", 
          "name": "TennisAllStars", 
          "id": "239449086202117", 
          "category_list": [
            {
              "id": "187950394558510", 
              "name": "Tennis"
            }
          ], 
          "location": {
            "city": "Barton under Needwood", 
            "zip": "DE13 8ET", 
            "country": "United Kingdom", 
            "longitude": -1.7166699999999999, 
            "street": "Holland Park Sports Club, Potters way, off Efflinch Lane, ", 
            "latitude": 52.75
          }
        }, 
        {
          "category": "Local business", 
          "name": "5 O'clock All Star Bar", 
          "id": "416676155103248", 
          "category_list": [
            {
              "id": "184460441595855", 
              "name": "Sports Bar"
            }
          ], 
          "location": {
            "city": "New Berlin", 
            "zip": "53151", 
            "country": "United States", 
            "longitude": -88.082056300000005, 
            "state": "WI", 
            "street": "", 
            "latitude": 42.988298700000001
          }
        }, 
        {
          "category": "Bar", 
          "name": "All Stars Pub RSA", 
          "id": "602903219770360", 
          "category_list": [
            {
              "id": "184460441595855", 
              "name": "Sports Bar"
            }, 
            {
              "id": "218693881483234", 
              "name": "Pub"
            }, 
            {
              "id": "197750126917541", 
              "name": "Pool & Billiards"
            }
          ], 
          "location": {
            "city": "Randburg", 
            "zip": "1714", 
            "country": "South Africa", 
            "longitude": 27.93852, 
            "state": "", 
            "street": "Cnr Eastwood Street & Knoppiesdoring Street", 
            "latitude": -26.093520000000002
          }
        }, 
        {
          "category": "Sports/recreation/activities", 
          "name": "All Star Taekwondo", 
          "id": "500946029959543", 
          "category_list": [
            {
              "id": "186982054657561", 
              "name": "Sports & Recreation"
            }
          ], 
          "location": {
            "city": "Diamond Bar", 
            "zip": "CA 91765", 
            "country": "United States", 
            "longitude": -117.809769, 
            "state": "CA", 
            "street": "1241 S Grand Ave Ste J", 
            "latitude": 33.999822999999999
          }
        }, 
        {
          "category": "Sports venue", 
          "name": "ALL STARS Calcetto Di Felice De Palo", 
          "id": "492221240869462", 
          "category_list": [
            {
              "id": "192998244062607", 
              "name": "Sports Center"
            }
          ], 
          "location": {
            "city": "Bari", 
            "zip": "70010", 
            "country": "Italy", 
            "longitude": 16.88309299066, 
            "state": "", 
            "street": "Via fanelli Ang. Ogni santi", 
            "latitude": 41.062077561183003
          }
        }, 
        {
          "category": "Local business", 
          "name": "All Stars Sport Bar And Grill", 
          "id": "150779351710902", 
          "category_list": [
            {
              "id": "2500", 
              "name": "Local Business"
            }
          ], 
          "location": {
            "city": "Manchester", 
            "zip": "06040", 
            "country": "United States", 
            "longitude": -72.555895100000001, 
            "state": "CT", 
            "street": "", 
            "latitude": 41.767496600000001
          }
        }
      ]
    }
  }, 
  {
    "business_name": "Arizona Hot Air Balloons", 
    "business_id": "bHzpatL8lQAyLEAPW1txvQ", 
    "fb_pages": {
      "paging": {
        "next": "https://graph.facebook.com/search?type=place&access_token=229546593895315|yPLlHqq6YvDLIH4nL0kjJtIFSlU&limit=5000&offset=5000&__after_id=133334853403181"
      }, 
      "data": [
        {
          "category": "Local business", 
          "name": "Arizona Hot Air", 
          "id": "126313720756965", 
          "category_list": [
            {
              "id": "177756732269376", 
              "name": "Hot Air Balloons"
            }, 
            {
              "id": "163272113725616", 
              "name": "Advertising Service"
            }
          ], 
          "location": {
            "city": "Phoenix", 
            "zip": "85345", 
            "country": "United States", 
            "longitude": -112.091302, 
            "state": "AZ", 
            "street": "702 W deer valley rd", 
            "latitude": 33.687406000000003
          }
        }, 
        {
          "category": "Local business", 
          "name": "Southern Arizona Balloon Excursions", 
          "id": "133334853403181", 
          "category_list": [
            {
              "id": "177756732269376", 
              "name": "Hot Air Balloons"
            }
          ], 
          "location": {
            "city": "Tucson", 
            "zip": "85705", 
            "country": "United States", 
            "longitude": -110.98026299999999, 
            "state": "AZ", 
            "street": "537 W Grant Road", 
            "latitude": 32.249896999999997
          }
        }
      ]
    }
  }
]